{
  "type": "FeatureCollection",
  "name": "Alho_production",
  "features": [
    {
      "type": "Feature",
      "properties": {
        "municipality": "Cabaceiras",
        "state": "PB",
        "crop": "Alho",
        "hectares": 2.0,
        "production": 2.0,
        "year": 2023,
        "region": "Nordeste",
        "ibge_code": "2503100"
      },
      "geometry": {
        "type": "Point",
        "coordinates": [
          -36.687245207560714,
          -6.588168976357385
        ]
      }
    },
    {
      "type": "Feature",
      "properties": {
        "municipality": "São José de Princesa",
        "state": "PB",
        "crop": "Alho",
        "hectares": 1.0,
        "production": 1.0,
        "year": 2023,
        "region": "Nordeste",
        "ibge_code": "2514552"
      },
      "geometry": {
        "type": "Point",
        "coordinates": [
          -37.0980819853014,
          -7.740715767978133
        ]
      }
    },
    {
      "type": "Feature",
      "properties": {
        "municipality": "Angical",
        "state": "BA",
        "crop": "Alho",
        "hectares": 8.0,
        "production": 8.0,
        "year": 2023,
        "region": "Nordeste",
        "ibge_code": "2901403"
      },
      "geometry": {
        "type": "Point",
        "coordinates": [
          -42.15136298357027,
          -12.959457117918912
        ]
      }
    },
    {
      "type": "Feature",
      "properties": {
        "municipality": "Barra",
        "state": "BA",
        "crop": "Alho",
        "hectares": 3.0,
        "production": 3.0,
        "year": 2023,
        "region": "Nordeste",
        "ibge_code": "2902708"
      },
      "geometry": {
        "type": "Point",
        "coordinates": [
          -42.47444491145421,
          -13.729748140915154
        ]
      }
    },
    {
      "type": "Feature",
      "properties": {
        "municipality": "Boninal",
        "state": "BA",
        "crop": "Alho",
        "hectares": 9.0,
        "production": 9.0,
        "year": 2023,
        "region": "Nordeste",
        "ibge_code": "2904001"
      },
      "geometry": {
        "type": "Point",
        "coordinates": [
          -41.11249623839006,
          -13.73366996893204
        ]
      }
    },
    {
      "type": "Feature",
      "properties": {
        "municipality": "Brotas de Macaúbas",
        "state": "BA",
        "crop": "Alho",
        "hectares": 2.0,
        "production": 2.0,
        "year": 2023,
        "region": "Nordeste",
        "ibge_code": "2904506"
      },
      "geometry": {
        "type": "Point",
        "coordinates": [
          -40.92609234551775,
          -13.860695650634376
        ]
      }
    },
    {
      "type": "Feature",
      "properties": {
        "municipality": "Cotegipe",
        "state": "BA",
        "crop": "Alho",
        "hectares": 37.0,
        "production": 37.0,
        "year": 2023,
        "region": "Nordeste",
        "ibge_code": "2909406"
      },
      "geometry": {
        "type": "Point",
        "coordinates": [
          -42.52645505201186,
          -12.722408279620108
        ]
      }
    },
    {
      "type": "Feature",
      "properties": {
        "municipality": "Cristópolis",
        "state": "BA",
        "crop": "Alho",
        "hectares": 75.0,
        "production": 75.0,
        "year": 2023,
        "region": "Nordeste",
        "ibge_code": "2909703"
      },
      "geometry": {
        "type": "Point",
        "coordinates": [
          -40.72184697390286,
          -14.28812877421514
        ]
      }
    },
    {
      "type": "Feature",
      "properties": {
        "municipality": "Ibicoara",
        "state": "BA",
        "crop": "Alho",
        "hectares": 300.0,
        "production": 300.0,
        "year": 2023,
        "region": "Nordeste",
        "ibge_code": "2912202"
      },
      "geometry": {
        "type": "Point",
        "coordinates": [
          -41.31695069261387,
          -13.300974865109556
        ]
      }
    },
    {
      "type": "Feature",
      "properties": {
        "municipality": "Ibitiara",
        "state": "BA",
        "crop": "Alho",
        "hectares": 1.0,
        "production": 1.0,
        "year": 2023,
        "region": "Nordeste",
        "ibge_code": "2913002"
      },
      "geometry": {
        "type": "Point",
        "coordinates": [
          -42.6156033317958,
          -12.675250837531827
        ]
      }
    },
    {
      "type": "Feature",
      "properties": {
        "municipality": "Ituaçu",
        "state": "BA",
        "crop": "Alho",
        "hectares": 60.0,
        "production": 60.0,
        "year": 2023,
        "region": "Nordeste",
        "ibge_code": "2917201"
      },
      "geometry": {
        "type": "Point",
        "coordinates": [
          -41.73434358429819,
          -13.746749171231817
        ]
      }
    },
    {
      "type": "Feature",
      "properties": {
        "municipality": "Jacobina",
        "state": "BA",
        "crop": "Alho",
        "hectares": 3.0,
        "production": 3.0,
        "year": 2023,
        "region": "Nordeste",
        "ibge_code": "2917508"
      },
      "geometry": {
        "type": "Point",
        "coordinates": [
          -42.39969205452306,
          -14.08743624434574
        ]
      }
    },
    {
      "type": "Feature",
      "properties": {
        "municipality": "Mirangaba",
        "state": "BA",
        "crop": "Alho",
        "hectares": 8.0,
        "production": 8.0,
        "year": 2023,
        "region": "Nordeste",
        "ibge_code": "2921401"
      },
      "geometry": {
        "type": "Point",
        "coordinates": [
          -41.14634192683142,
          -13.118304463088085
        ]
      }
    },
    {
      "type": "Feature",
      "properties": {
        "municipality": "Mucugê",
        "state": "BA",
        "crop": "Alho",
        "hectares": 150.0,
        "production": 150.0,
        "year": 2023,
        "region": "Nordeste",
        "ibge_code": "2921906"
      },
      "geometry": {
        "type": "Point",
        "coordinates": [
          -40.85415170687514,
          -14.144371763578713
        ]
      }
    },
    {
      "type": "Feature",
      "properties": {
        "municipality": "Novo Horizonte",
        "state": "BA",
        "crop": "Alho",
        "hectares": 60.0,
        "production": 60.0,
        "year": 2023,
        "region": "Nordeste",
        "ibge_code": "2923035"
      },
      "geometry": {
        "type": "Point",
        "coordinates": [
          -41.73166263307539,
          -14.182542632205356
        ]
      }
    },
    {
      "type": "Feature",
      "properties": {
        "municipality": "Pindaí",
        "state": "BA",
        "crop": "Alho",
        "hectares": 28.0,
        "production": 28.0,
        "year": 2023,
        "region": "Nordeste",
        "ibge_code": "2924504"
      },
      "geometry": {
        "type": "Point",
        "coordinates": [
          -41.70040281984373,
          -14.104414731811717
        ]
      }
    },
    {
      "type": "Feature",
      "properties": {
        "municipality": "Açucena",
        "state": "MG",
        "crop": "Alho",
        "hectares": 1.0,
        "production": 1.0,
        "year": 2023,
        "region": "Sudeste",
        "ibge_code": "3100500"
      },
      "geometry": {
        "type": "Point",
        "coordinates": [
          -43.81127262595486,
          -17.592278139610087
        ]
      }
    },
    {
      "type": "Feature",
      "properties": {
        "municipality": "Alvinópolis",
        "state": "MG",
        "crop": "Alho",
        "hectares": 1.0,
        "production": 1.0,
        "year": 2023,
        "region": "Sudeste",
        "ibge_code": "3102308"
      },
      "geometry": {
        "type": "Point",
        "coordinates": [
          -43.678934352288195,
          -19.090857924063414
        ]
      }
    },
    {
      "type": "Feature",
      "properties": {
        "municipality": "Cachoeira de Pajeú",
        "state": "MG",
        "crop": "Alho",
        "hectares": 1.0,
        "production": 1.0,
        "year": 2023,
        "region": "Sudeste",
        "ibge_code": "3102704"
      },
      "geometry": {
        "type": "Point",
        "coordinates": [
          -44.3343402279546,
          -19.489279508243346
        ]
      }
    },
    {
      "type": "Feature",
      "properties": {
        "municipality": "Angelândia",
        "state": "MG",
        "crop": "Alho",
        "hectares": 2.0,
        "production": 2.0,
        "year": 2023,
        "region": "Sudeste",
        "ibge_code": "3102852"
      },
      "geometry": {
        "type": "Point",
        "coordinates": [
          -44.43545522783901,
          -18.607440892980364
        ]
      }
    },
    {
      "type": "Feature",
      "properties": {
        "municipality": "Araçuaí",
        "state": "MG",
        "crop": "Alho",
        "hectares": 1.0,
        "production": 1.0,
        "year": 2023,
        "region": "Sudeste",
        "ibge_code": "3103405"
      },
      "geometry": {
        "type": "Point",
        "coordinates": [
          -44.561295217940064,
          -19.113936222566963
        ]
      }
    },
    {
      "type": "Feature",
      "properties": {
        "municipality": "Araguari",
        "state": "MG",
        "crop": "Alho",
        "hectares": 20.0,
        "production": 20.0,
        "year": 2023,
        "region": "Sudeste",
        "ibge_code": "3103504"
      },
      "geometry": {
        "type": "Point",
        "coordinates": [
          -45.32057858646141,
          -18.03710081975363
        ]
      }
    },
    {
      "type": "Feature",
      "properties": {
        "municipality": "Araxá",
        "state": "MG",
        "crop": "Alho",
        "hectares": 20.0,
        "production": 20.0,
        "year": 2023,
        "region": "Sudeste",
        "ibge_code": "3104007"
      },
      "geometry": {
        "type": "Point",
        "coordinates": [
          -43.969063556370294,
          -17.98146769978391
        ]
      }
    },
    {
      "type": "Feature",
      "properties": {
        "municipality": "Aricanduva",
        "state": "MG",
        "crop": "Alho",
        "hectares": 7.0,
        "production": 7.0,
        "year": 2023,
        "region": "Sudeste",
        "ibge_code": "3104452"
      },
      "geometry": {
        "type": "Point",
        "coordinates": [
          -45.251792048479906,
          -18.29140368765939
        ]
      }
    },
    {
      "type": "Feature",
      "properties": {
        "municipality": "Bambuí",
        "state": "MG",
        "crop": "Alho",
        "hectares": 2.0,
        "production": 2.0,
        "year": 2023,
        "region": "Sudeste",
        "ibge_code": "3105103"
      },
      "geometry": {
        "type": "Point",
        "coordinates": [
          -44.49780642620482,
          -19.014529848391632
        ]
      }
    },
    {
      "type": "Feature",
      "properties": {
        "municipality": "Barbacena",
        "state": "MG",
        "crop": "Alho",
        "hectares": 2.0,
        "production": 2.0,
        "year": 2023,
        "region": "Sudeste",
        "ibge_code": "3105608"
      },
      "geometry": {
        "type": "Point",
        "coordinates": [
          -45.37179478384087,
          -18.148190878824046
        ]
      }
    },
    {
      "type": "Feature",
      "properties": {
        "municipality": "Belo Oriente",
        "state": "MG",
        "crop": "Alho",
        "hectares": 1.0,
        "production": 1.0,
        "year": 2023,
        "region": "Sudeste",
        "ibge_code": "3106309"
      },
      "geometry": {
        "type": "Point",
        "coordinates": [
          -44.7946355541557,
          -19.411605003898323
        ]
      }
    },
    {
      "type": "Feature",
      "properties": {
        "municipality": "Belo Vale",
        "state": "MG",
        "crop": "Alho",
        "hectares": 1.0,
        "production": 1.0,
        "year": 2023,
        "region": "Sudeste",
        "ibge_code": "3106408"
      },
      "geometry": {
        "type": "Point",
        "coordinates": [
          -43.95113470905889,
          -18.389031271279006
        ]
      }
    },
    {
      "type": "Feature",
      "properties": {
        "municipality": "Betim",
        "state": "MG",
        "crop": "Alho",
        "hectares": 1.0,
        "production": 1.0,
        "year": 2023,
        "region": "Sudeste",
        "ibge_code": "3106705"
      },
      "geometry": {
        "type": "Point",
        "coordinates": [
          -43.831441281387036,
          -17.764426215743217
        ]
      }
    },
    {
      "type": "Feature",
      "properties": {
        "municipality": "Boa Esperança",
        "state": "MG",
        "crop": "Alho",
        "hectares": 1.0,
        "production": 1.0,
        "year": 2023,
        "region": "Sudeste",
        "ibge_code": "3107109"
      },
      "geometry": {
        "type": "Point",
        "coordinates": [
          -44.21931636983657,
          -19.235714748610064
        ]
      }
    },
    {
      "type": "Feature",
      "properties": {
        "municipality": "Bocaiúva",
        "state": "MG",
        "crop": "Alho",
        "hectares": 5.0,
        "production": 5.0,
        "year": 2023,
        "region": "Sudeste",
        "ibge_code": "3107307"
      },
      "geometry": {
        "type": "Point",
        "coordinates": [
          -45.390285527318014,
          -19.38921997292881
        ]
      }
    },
    {
      "type": "Feature",
      "properties": {
        "municipality": "Bom Despacho",
        "state": "MG",
        "crop": "Alho",
        "hectares": 10.0,
        "production": 10.0,
        "year": 2023,
        "region": "Sudeste",
        "ibge_code": "3107406"
      },
      "geometry": {
        "type": "Point",
        "coordinates": [
          -43.71675724287319,
          -17.70935359674158
        ]
      }
    },
    {
      "type": "Feature",
      "properties": {
        "municipality": "Bom Repouso",
        "state": "MG",
        "crop": "Alho",
        "hectares": 2.0,
        "production": 2.0,
        "year": 2023,
        "region": "Sudeste",
        "ibge_code": "3107901"
      },
      "geometry": {
        "type": "Point",
        "coordinates": [
          -44.75132496934533,
          -17.76471751361353
        ]
      }
    },
    {
      "type": "Feature",
      "properties": {
        "municipality": "Botumirim",
        "state": "MG",
        "crop": "Alho",
        "hectares": 3.0,
        "production": 3.0,
        "year": 2023,
        "region": "Sudeste",
        "ibge_code": "3108503"
      },
      "geometry": {
        "type": "Point",
        "coordinates": [
          -45.17664935655705,
          -19.220290398640707
        ]
      }
    },
    {
      "type": "Feature",
      "properties": {
        "municipality": "Brasília de Minas",
        "state": "MG",
        "crop": "Alho",
        "hectares": 2.0,
        "production": 2.0,
        "year": 2023,
        "region": "Sudeste",
        "ibge_code": "3108602"
      },
      "geometry": {
        "type": "Point",
        "coordinates": [
          -44.664715646347545,
          -18.779384544016946
        ]
      }
    },
    {
      "type": "Feature",
      "properties": {
        "municipality": "Bueno Brandão",
        "state": "MG",
        "crop": "Alho",
        "hectares": 3.0,
        "production": 3.0,
        "year": 2023,
        "region": "Sudeste",
        "ibge_code": "3109105"
      },
      "geometry": {
        "type": "Point",
        "coordinates": [
          -44.31982750044917,
          -18.905667186059027
        ]
      }
    },
    {
      "type": "Feature",
      "properties": {
        "municipality": "Buritis",
        "state": "MG",
        "crop": "Alho",
        "hectares": 1.0,
        "production": 1.0,
        "year": 2023,
        "region": "Sudeste",
        "ibge_code": "3109303"
      },
      "geometry": {
        "type": "Point",
        "coordinates": [
          -45.16099542109238,
          -17.659653199456272
        ]
      }
    },
    {
      "type": "Feature",
      "properties": {
        "municipality": "Caeté",
        "state": "MG",
        "crop": "Alho",
        "hectares": 4.0,
        "production": 4.0,
        "year": 2023,
        "region": "Sudeste",
        "ibge_code": "3110004"
      },
      "geometry": {
        "type": "Point",
        "coordinates": [
          -43.97690533500761,
          -18.321933579821167
        ]
      }
    },
    {
      "type": "Feature",
      "properties": {
        "municipality": "Cambuí",
        "state": "MG",
        "crop": "Alho",
        "hectares": 2.0,
        "production": 2.0,
        "year": 2023,
        "region": "Sudeste",
        "ibge_code": "3110608"
      },
      "geometry": {
        "type": "Point",
        "coordinates": [
          -43.75278487862293,
          -18.090832533875016
        ]
      }
    },
    {
      "type": "Feature",
      "properties": {
        "municipality": "Campos Altos",
        "state": "MG",
        "crop": "Alho",
        "hectares": 550.0,
        "production": 550.0,
        "year": 2023,
        "region": "Sudeste",
        "ibge_code": "3111507"
      },
      "geometry": {
        "type": "Point",
        "coordinates": [
          -44.38707187883402,
          -19.352509538961776
        ]
      }
    },
    {
      "type": "Feature",
      "properties": {
        "municipality": "Capelinha",
        "state": "MG",
        "crop": "Alho",
        "hectares": 5.0,
        "production": 5.0,
        "year": 2023,
        "region": "Sudeste",
        "ibge_code": "3112307"
      },
      "geometry": {
        "type": "Point",
        "coordinates": [
          -44.105916506371884,
          -18.643366376445115
        ]
      }
    },
    {
      "type": "Feature",
      "properties": {
        "municipality": "Capim Branco",
        "state": "MG",
        "crop": "Alho",
        "hectares": 15.0,
        "production": 15.0,
        "year": 2023,
        "region": "Sudeste",
        "ibge_code": "3112505"
      },
      "geometry": {
        "type": "Point",
        "coordinates": [
          -44.07163112964595,
          -19.185045490766612
        ]
      }
    },
    {
      "type": "Feature",
      "properties": {
        "municipality": "Caraí",
        "state": "MG",
        "crop": "Alho",
        "hectares": 1.0,
        "production": 1.0,
        "year": 2023,
        "region": "Sudeste",
        "ibge_code": "3113008"
      },
      "geometry": {
        "type": "Point",
        "coordinates": [
          -44.29914209844991,
          -18.915144923248167
        ]
      }
    },
    {
      "type": "Feature",
      "properties": {
        "municipality": "Carandaí",
        "state": "MG",
        "crop": "Alho",
        "hectares": 8.0,
        "production": 8.0,
        "year": 2023,
        "region": "Sudeste",
        "ibge_code": "3113206"
      },
      "geometry": {
        "type": "Point",
        "coordinates": [
          -44.11492721177462,
          -19.387354777078542
        ]
      }
    },
    {
      "type": "Feature",
      "properties": {
        "municipality": "Caratinga",
        "state": "MG",
        "crop": "Alho",
        "hectares": 2.0,
        "production": 2.0,
        "year": 2023,
        "region": "Sudeste",
        "ibge_code": "3113404"
      },
      "geometry": {
        "type": "Point",
        "coordinates": [
          -44.94194086309207,
          -17.67255888745479
        ]
      }
    },
    {
      "type": "Feature",
      "properties": {
        "municipality": "Carbonita",
        "state": "MG",
        "crop": "Alho",
        "hectares": 2.0,
        "production": 2.0,
        "year": 2023,
        "region": "Sudeste",
        "ibge_code": "3113503"
      },
      "geometry": {
        "type": "Point",
        "coordinates": [
          -43.75278487862293,
          -18.090832533875016
        ]
      }
    },
    {
      "type": "Feature",
      "properties": {
        "municipality": "Carmópolis de Minas",
        "state": "MG",
        "crop": "Alho",
        "hectares": 1.0,
        "production": 1.0,
        "year": 2023,
        "region": "Sudeste",
        "ibge_code": "3114501"
      },
      "geometry": {
        "type": "Point",
        "coordinates": [
          -44.78712119003692,
          -18.192506739129854
        ]
      }
    },
    {
      "type": "Feature",
      "properties": {
        "municipality": "Cascalho Rico",
        "state": "MG",
        "crop": "Alho",
        "hectares": 12.0,
        "production": 12.0,
        "year": 2023,
        "region": "Sudeste",
        "ibge_code": "3115003"
      },
      "geometry": {
        "type": "Point",
        "coordinates": [
          -44.69717619536036,
          -18.68926168774937
        ]
      }
    },
    {
      "type": "Feature",
      "properties": {
        "municipality": "Chapada do Norte",
        "state": "MG",
        "crop": "Alho",
        "hectares": 6.0,
        "production": 6.0,
        "year": 2023,
        "region": "Sudeste",
        "ibge_code": "3116100"
      },
      "geometry": {
        "type": "Point",
        "coordinates": [
          -44.39098220856418,
          -18.548586456472854
        ]
      }
    },
    {
      "type": "Feature",
      "properties": {
        "municipality": "Conceição do Mato Dentro",
        "state": "MG",
        "crop": "Alho",
        "hectares": 1.0,
        "production": 1.0,
        "year": 2023,
        "region": "Sudeste",
        "ibge_code": "3117504"
      },
      "geometry": {
        "type": "Point",
        "coordinates": [
          -43.75885353186815,
          -18.278858836389606
        ]
      }
    },
    {
      "type": "Feature",
      "properties": {
        "municipality": "Coração de Jesus",
        "state": "MG",
        "crop": "Alho",
        "hectares": 75.0,
        "production": 75.0,
        "year": 2023,
        "region": "Sudeste",
        "ibge_code": "3118809"
      },
      "geometry": {
        "type": "Point",
        "coordinates": [
          -45.51292409865088,
          -18.770840030970383
        ]
      }
    },
    {
      "type": "Feature",
      "properties": {
        "municipality": "Coromandel",
        "state": "MG",
        "crop": "Alho",
        "hectares": 15.0,
        "production": 15.0,
        "year": 2023,
        "region": "Sudeste",
        "ibge_code": "3119302"
      },
      "geometry": {
        "type": "Point",
        "coordinates": [
          -43.72892912997211,
          -18.902387177850606
        ]
      }
    },
    {
      "type": "Feature",
      "properties": {
        "municipality": "Coronel Murta",
        "state": "MG",
        "crop": "Alho",
        "hectares": 1.0,
        "production": 1.0,
        "year": 2023,
        "region": "Sudeste",
        "ibge_code": "3119500"
      },
      "geometry": {
        "type": "Point",
        "coordinates": [
          -44.32489479631006,
          -19.1130225872918
        ]
      }
    },
    {
      "type": "Feature",
      "properties": {
        "municipality": "Cristália",
        "state": "MG",
        "crop": "Alho",
        "hectares": 3.0,
        "production": 3.0,
        "year": 2023,
        "region": "Sudeste",
        "ibge_code": "3120300"
      },
      "geometry": {
        "type": "Point",
        "coordinates": [
          -45.3038937769166,
          -18.96128107234622
        ]
      }
    },
    {
      "type": "Feature",
      "properties": {
        "municipality": "Datas",
        "state": "MG",
        "crop": "Alho",
        "hectares": 12.0,
        "production": 12.0,
        "year": 2023,
        "region": "Sudeste",
        "ibge_code": "3121001"
      },
      "geometry": {
        "type": "Point",
        "coordinates": [
          -44.47132004556577,
          -17.58008013771476
        ]
      }
    },
    {
      "type": "Feature",
      "properties": {
        "municipality": "Diamantina",
        "state": "MG",
        "crop": "Alho",
        "hectares": 3.0,
        "production": 3.0,
        "year": 2023,
        "region": "Sudeste",
        "ibge_code": "3121605"
      },
      "geometry": {
        "type": "Point",
        "coordinates": [
          -44.84873050904634,
          -18.402529087513567
        ]
      }
    },
    {
      "type": "Feature",
      "properties": {
        "municipality": "Engenheiro Navarro",
        "state": "MG",
        "crop": "Alho",
        "hectares": 2.0,
        "production": 2.0,
        "year": 2023,
        "region": "Sudeste",
        "ibge_code": "3123809"
      },
      "geometry": {
        "type": "Point",
        "coordinates": [
          -43.80164938859449,
          -18.23314389823118
        ]
      }
    },
    {
      "type": "Feature",
      "properties": {
        "municipality": "São Gonçalo do Rio Preto",
        "state": "MG",
        "crop": "Alho",
        "hectares": 2.0,
        "production": 2.0,
        "year": 2023,
        "region": "Sudeste",
        "ibge_code": "3125507"
      },
      "geometry": {
        "type": "Point",
        "coordinates": [
          -43.71678304687498,
          -19.488660154160726
        ]
      }
    },
    {
      "type": "Feature",
      "properties": {
        "municipality": "Francisco Badaró",
        "state": "MG",
        "crop": "Alho",
        "hectares": 1.0,
        "production": 1.0,
        "year": 2023,
        "region": "Sudeste",
        "ibge_code": "3126505"
      },
      "geometry": {
        "type": "Point",
        "coordinates": [
          -44.57840420295389,
          -19.29385952583359
        ]
      }
    },
    {
      "type": "Feature",
      "properties": {
        "municipality": "Francisco Sá",
        "state": "MG",
        "crop": "Alho",
        "hectares": 45.0,
        "production": 45.0,
        "year": 2023,
        "region": "Sudeste",
        "ibge_code": "3126703"
      },
      "geometry": {
        "type": "Point",
        "coordinates": [
          -44.25836445045625,
          -19.44490400596057
        ]
      }
    },
    {
      "type": "Feature",
      "properties": {
        "municipality": "Gouveia",
        "state": "MG",
        "crop": "Alho",
        "hectares": 15.0,
        "production": 15.0,
        "year": 2023,
        "region": "Sudeste",
        "ibge_code": "3127602"
      },
      "geometry": {
        "type": "Point",
        "coordinates": [
          -44.81736099976972,
          -17.90554412035001
        ]
      }
    },
    {
      "type": "Feature",
      "properties": {
        "municipality": "Guaraciama",
        "state": "MG",
        "crop": "Alho",
        "hectares": 1.0,
        "production": 1.0,
        "year": 2023,
        "region": "Sudeste",
        "ibge_code": "3128253"
      },
      "geometry": {
        "type": "Point",
        "coordinates": [
          -44.21963407057174,
          -19.071037686599162
        ]
      }
    },
    {
      "type": "Feature",
      "properties": {
        "municipality": "Guarda-Mor",
        "state": "MG",
        "crop": "Alho",
        "hectares": 70.0,
        "production": 70.0,
        "year": 2023,
        "region": "Sudeste",
        "ibge_code": "3128600"
      },
      "geometry": {
        "type": "Point",
        "coordinates": [
          -44.158200919392506,
          -18.068187461367206
        ]
      }
    },
    {
      "type": "Feature",
      "properties": {
        "municipality": "Ibiá",
        "state": "MG",
        "crop": "Alho",
        "hectares": 125.0,
        "production": 125.0,
        "year": 2023,
        "region": "Sudeste",
        "ibge_code": "3129509"
      },
      "geometry": {
        "type": "Point",
        "coordinates": [
          -43.6556938766949,
          -19.369227378967103
        ]
      }
    },
    {
      "type": "Feature",
      "properties": {
        "municipality": "Igarapé",
        "state": "MG",
        "crop": "Alho",
        "hectares": 1.0,
        "production": 1.0,
        "year": 2023,
        "region": "Sudeste",
        "ibge_code": "3130101"
      },
      "geometry": {
        "type": "Point",
        "coordinates": [
          -44.164147404781446,
          -17.672963401456396
        ]
      }
    },
    {
      "type": "Feature",
      "properties": {
        "municipality": "Inconfidentes",
        "state": "MG",
        "crop": "Alho",
        "hectares": 6.0,
        "production": 6.0,
        "year": 2023,
        "region": "Sudeste",
        "ibge_code": "3130606"
      },
      "geometry": {
        "type": "Point",
        "coordinates": [
          -45.15864408605245,
          -17.70919718271924
        ]
      }
    },
    {
      "type": "Feature",
      "properties": {
        "municipality": "Indianópolis",
        "state": "MG",
        "crop": "Alho",
        "hectares": 120.0,
        "production": 120.0,
        "year": 2023,
        "region": "Sudeste",
        "ibge_code": "3130705"
      },
      "geometry": {
        "type": "Point",
        "coordinates": [
          -44.64184329255285,
          -19.337263656828206
        ]
      }
    },
    {
      "type": "Feature",
      "properties": {
        "municipality": "Iraí de Minas",
        "state": "MG",
        "crop": "Alho",
        "hectares": 30.0,
        "production": 30.0,
        "year": 2023,
        "region": "Sudeste",
        "ibge_code": "3131604"
      },
      "geometry": {
        "type": "Point",
        "coordinates": [
          -43.942845397067835,
          -19.12312550413364
        ]
      }
    },
    {
      "type": "Feature",
      "properties": {
        "municipality": "Itacambira",
        "state": "MG",
        "crop": "Alho",
        "hectares": 1.0,
        "production": 1.0,
        "year": 2023,
        "region": "Sudeste",
        "ibge_code": "3132008"
      },
      "geometry": {
        "type": "Point",
        "coordinates": [
          -43.841646734495974,
          -18.10615093514762
        ]
      }
    },
    {
      "type": "Feature",
      "properties": {
        "municipality": "Itamarandiba",
        "state": "MG",
        "crop": "Alho",
        "hectares": 4.0,
        "production": 4.0,
        "year": 2023,
        "region": "Sudeste",
        "ibge_code": "3132503"
      },
      "geometry": {
        "type": "Point",
        "coordinates": [
          -45.41301917257433,
          -19.006213919387136
        ]
      }
    },
    {
      "type": "Feature",
      "properties": {
        "municipality": "Jaboticatubas",
        "state": "MG",
        "crop": "Alho",
        "hectares": 2.0,
        "production": 2.0,
        "year": 2023,
        "region": "Sudeste",
        "ibge_code": "3134608"
      },
      "geometry": {
        "type": "Point",
        "coordinates": [
          -44.99596298357027,
          -18.181157117918914
        ]
      }
    },
    {
      "type": "Feature",
      "properties": {
        "municipality": "Jaíba",
        "state": "MG",
        "crop": "Alho",
        "hectares": 15.0,
        "production": 15.0,
        "year": 2023,
        "region": "Sudeste",
        "ibge_code": "3135050"
      },
      "geometry": {
        "type": "Point",
        "coordinates": [
          -43.905226459995845,
          -18.310350641612214
        ]
      }
    },
    {
      "type": "Feature",
      "properties": {
        "municipality": "Janaúba",
        "state": "MG",
        "crop": "Alho",
        "hectares": 1.0,
        "production": 1.0,
        "year": 2023,
        "region": "Sudeste",
        "ibge_code": "3135100"
      },
      "geometry": {
        "type": "Point",
        "coordinates": [
          -44.97660711272056,
          -18.43403687078838
        ]
      }
    },
    {
      "type": "Feature",
      "properties": {
        "municipality": "Jeceaba",
        "state": "MG",
        "crop": "Alho",
        "hectares": 2.0,
        "production": 2.0,
        "year": 2023,
        "region": "Sudeste",
        "ibge_code": "3135407"
      },
      "geometry": {
        "type": "Point",
        "coordinates": [
          -43.98279616855336,
          -17.901133232193455
        ]
      }
    },
    {
      "type": "Feature",
      "properties": {
        "municipality": "Jenipapo de Minas",
        "state": "MG",
        "crop": "Alho",
        "hectares": 1.0,
        "production": 1.0,
        "year": 2023,
        "region": "Sudeste",
        "ibge_code": "3135456"
      },
      "geometry": {
        "type": "Point",
        "coordinates": [
          -44.25507402771335,
          -18.78343766462821
        ]
      }
    },
    {
      "type": "Feature",
      "properties": {
        "municipality": "Jequitibá",
        "state": "MG",
        "crop": "Alho",
        "hectares": 1.0,
        "production": 1.0,
        "year": 2023,
        "region": "Sudeste",
        "ibge_code": "3135704"
      },
      "geometry": {
        "type": "Point",
        "coordinates": [
          -45.093561627379046,
          -18.750158620008456
        ]
      }
    },
    {
      "type": "Feature",
      "properties": {
        "municipality": "Juiz de Fora",
        "state": "MG",
        "crop": "Alho",
        "hectares": 10.0,
        "production": 10.0,
        "year": 2023,
        "region": "Sudeste",
        "ibge_code": "3136702"
      },
      "geometry": {
        "type": "Point",
        "coordinates": [
          -44.665393658887254,
          -19.116831706746204
        ]
      }
    },
    {
      "type": "Feature",
      "properties": {
        "municipality": "Juramento",
        "state": "MG",
        "crop": "Alho",
        "hectares": 4.0,
        "production": 4.0,
        "year": 2023,
        "region": "Sudeste",
        "ibge_code": "3136801"
      },
      "geometry": {
        "type": "Point",
        "coordinates": [
          -44.965978779885894,
          -18.464846352101862
        ]
      }
    },
    {
      "type": "Feature",
      "properties": {
        "municipality": "Lagoa Dourada",
        "state": "MG",
        "crop": "Alho",
        "hectares": 10.0,
        "production": 10.0,
        "year": 2023,
        "region": "Sudeste",
        "ibge_code": "3137403"
      },
      "geometry": {
        "type": "Point",
        "coordinates": [
          -44.154874670653506,
          -18.352582063353058
        ]
      }
    },
    {
      "type": "Feature",
      "properties": {
        "municipality": "Mamonas",
        "state": "MG",
        "crop": "Alho",
        "hectares": 5.0,
        "production": 5.0,
        "year": 2023,
        "region": "Sudeste",
        "ibge_code": "3139250"
      },
      "geometry": {
        "type": "Point",
        "coordinates": [
          -44.42945136712569,
          -19.42484762238351
        ]
      }
    },
    {
      "type": "Feature",
      "properties": {
        "municipality": "Martinho Campos",
        "state": "MG",
        "crop": "Alho",
        "hectares": 2.0,
        "production": 2.0,
        "year": 2023,
        "region": "Sudeste",
        "ibge_code": "3140506"
      },
      "geometry": {
        "type": "Point",
        "coordinates": [
          -43.57048112556692,
          -18.058621863969922
        ]
      }
    },
    {
      "type": "Feature",
      "properties": {
        "municipality": "Mateus Leme",
        "state": "MG",
        "crop": "Alho",
        "hectares": 1.0,
        "production": 1.0,
        "year": 2023,
        "region": "Sudeste",
        "ibge_code": "3140704"
      },
      "geometry": {
        "type": "Point",
        "coordinates": [
          -43.6556938766949,
          -19.369227378967103
        ]
      }
    },
    {
      "type": "Feature",
      "properties": {
        "municipality": "Matutina",
        "state": "MG",
        "crop": "Alho",
        "hectares": 6.0,
        "production": 6.0,
        "year": 2023,
        "region": "Sudeste",
        "ibge_code": "3141207"
      },
      "geometry": {
        "type": "Point",
        "coordinates": [
          -44.480319808460635,
          -18.894264569240985
        ]
      }
    },
    {
      "type": "Feature",
      "properties": {
        "municipality": "Miravânia",
        "state": "MG",
        "crop": "Alho",
        "hectares": 3.0,
        "production": 3.0,
        "year": 2023,
        "region": "Sudeste",
        "ibge_code": "3142254"
      },
      "geometry": {
        "type": "Point",
        "coordinates": [
          -44.18347622560592,
          -18.180979049667094
        ]
      }
    },
    {
      "type": "Feature",
      "properties": {
        "municipality": "Monte Carmelo",
        "state": "MG",
        "crop": "Alho",
        "hectares": 3.0,
        "production": 3.0,
        "year": 2023,
        "region": "Sudeste",
        "ibge_code": "3143104"
      },
      "geometry": {
        "type": "Point",
        "coordinates": [
          -44.10980299700879,
          -18.263611979160306
        ]
      }
    },
    {
      "type": "Feature",
      "properties": {
        "municipality": "Montes Claros",
        "state": "MG",
        "crop": "Alho",
        "hectares": 3.0,
        "production": 3.0,
        "year": 2023,
        "region": "Sudeste",
        "ibge_code": "3143302"
      },
      "geometry": {
        "type": "Point",
        "coordinates": [
          -44.75055139129463,
          -17.521110080263934
        ]
      }
    },
    {
      "type": "Feature",
      "properties": {
        "municipality": "Montezuma",
        "state": "MG",
        "crop": "Alho",
        "hectares": 4.0,
        "production": 4.0,
        "year": 2023,
        "region": "Sudeste",
        "ibge_code": "3143450"
      },
      "geometry": {
        "type": "Point",
        "coordinates": [
          -44.54600915443188,
          -17.85314672211669
        ]
      }
    },
    {
      "type": "Feature",
      "properties": {
        "municipality": "Nova Lima",
        "state": "MG",
        "crop": "Alho",
        "hectares": 1.0,
        "production": 1.0,
        "year": 2023,
        "region": "Sudeste",
        "ibge_code": "3144805"
      },
      "geometry": {
        "type": "Point",
        "coordinates": [
          -44.86333635332389,
          -18.4159618923766
        ]
      }
    },
    {
      "type": "Feature",
      "properties": {
        "municipality": "Nova Ponte",
        "state": "MG",
        "crop": "Alho",
        "hectares": 45.0,
        "production": 45.0,
        "year": 2023,
        "region": "Sudeste",
        "ibge_code": "3145000"
      },
      "geometry": {
        "type": "Point",
        "coordinates": [
          -44.42051978370509,
          -19.126860625377606
        ]
      }
    },
    {
      "type": "Feature",
      "properties": {
        "municipality": "Novo Cruzeiro",
        "state": "MG",
        "crop": "Alho",
        "hectares": 6.0,
        "production": 6.0,
        "year": 2023,
        "region": "Sudeste",
        "ibge_code": "3145307"
      },
      "geometry": {
        "type": "Point",
        "coordinates": [
          -45.45171023888958,
          -19.0023861272997
        ]
      }
    },
    {
      "type": "Feature",
      "properties": {
        "municipality": "Ouro Branco",
        "state": "MG",
        "crop": "Alho",
        "hectares": 25.0,
        "production": 25.0,
        "year": 2023,
        "region": "Sudeste",
        "ibge_code": "3145901"
      },
      "geometry": {
        "type": "Point",
        "coordinates": [
          -43.643032548604,
          -18.143035226405775
        ]
      }
    },
    {
      "type": "Feature",
      "properties": {
        "municipality": "Ouro Fino",
        "state": "MG",
        "crop": "Alho",
        "hectares": 5.0,
        "production": 5.0,
        "year": 2023,
        "region": "Sudeste",
        "ibge_code": "3146008"
      },
      "geometry": {
        "type": "Point",
        "coordinates": [
          -45.500806633824546,
          -18.24300599138503
        ]
      }
    },
    {
      "type": "Feature",
      "properties": {
        "municipality": "Papagaios",
        "state": "MG",
        "crop": "Alho",
        "hectares": 1.0,
        "production": 1.0,
        "year": 2023,
        "region": "Sudeste",
        "ibge_code": "3146909"
      },
      "geometry": {
        "type": "Point",
        "coordinates": [
          -45.46685525295033,
          -18.362565880439504
        ]
      }
    },
    {
      "type": "Feature",
      "properties": {
        "municipality": "Paraisópolis",
        "state": "MG",
        "crop": "Alho",
        "hectares": 1.0,
        "production": 1.0,
        "year": 2023,
        "region": "Sudeste",
        "ibge_code": "3147303"
      },
      "geometry": {
        "type": "Point",
        "coordinates": [
          -44.60798436368998,
          -17.70947687930321
        ]
      }
    },
    {
      "type": "Feature",
      "properties": {
        "municipality": "Paraopeba",
        "state": "MG",
        "crop": "Alho",
        "hectares": 1.0,
        "production": 1.0,
        "year": 2023,
        "region": "Sudeste",
        "ibge_code": "3147402"
      },
      "geometry": {
        "type": "Point",
        "coordinates": [
          -43.59835089391452,
          -18.116777897813634
        ]
      }
    },
    {
      "type": "Feature",
      "properties": {
        "municipality": "Passa Quatro",
        "state": "MG",
        "crop": "Alho",
        "hectares": 3.0,
        "production": 3.0,
        "year": 2023,
        "region": "Sudeste",
        "ibge_code": "3147600"
      },
      "geometry": {
        "type": "Point",
        "coordinates": [
          -44.75055139129463,
          -17.521110080263934
        ]
      }
    },
    {
      "type": "Feature",
      "properties": {
        "municipality": "Patrocínio",
        "state": "MG",
        "crop": "Alho",
        "hectares": 100.0,
        "production": 100.0,
        "year": 2023,
        "region": "Sudeste",
        "ibge_code": "3148103"
      },
      "geometry": {
        "type": "Point",
        "coordinates": [
          -44.94265725993869,
          -19.06000252645475
        ]
      }
    },
    {
      "type": "Feature",
      "properties": {
        "municipality": "Pedrinópolis",
        "state": "MG",
        "crop": "Alho",
        "hectares": 8.0,
        "production": 8.0,
        "year": 2023,
        "region": "Sudeste",
        "ibge_code": "3149200"
      },
      "geometry": {
        "type": "Point",
        "coordinates": [
          -44.81600304098882,
          -19.223230789332245
        ]
      }
    },
    {
      "type": "Feature",
      "properties": {
        "municipality": "Perdizes",
        "state": "MG",
        "crop": "Alho",
        "hectares": 220.0,
        "production": 220.0,
        "year": 2023,
        "region": "Sudeste",
        "ibge_code": "3149804"
      },
      "geometry": {
        "type": "Point",
        "coordinates": [
          -44.598870883744134,
          -17.89356881005411
        ]
      }
    },
    {
      "type": "Feature",
      "properties": {
        "municipality": "Piedade de Caratinga",
        "state": "MG",
        "crop": "Alho",
        "hectares": 2.0,
        "production": 2.0,
        "year": 2023,
        "region": "Sudeste",
        "ibge_code": "3150158"
      },
      "geometry": {
        "type": "Point",
        "coordinates": [
          -44.57894358429819,
          -18.968449171231818
        ]
      }
    },
    {
      "type": "Feature",
      "properties": {
        "municipality": "Pintópolis",
        "state": "MG",
        "crop": "Alho",
        "hectares": 2.0,
        "production": 2.0,
        "year": 2023,
        "region": "Sudeste",
        "ibge_code": "3150570"
      },
      "geometry": {
        "type": "Point",
        "coordinates": [
          -44.935915756771486,
          -19.41544512341487
        ]
      }
    },
    {
      "type": "Feature",
      "properties": {
        "municipality": "Pouso Alegre",
        "state": "MG",
        "crop": "Alho",
        "hectares": 2.0,
        "production": 2.0,
        "year": 2023,
        "region": "Sudeste",
        "ibge_code": "3152501"
      },
      "geometry": {
        "type": "Point",
        "coordinates": [
          -44.11520238938425,
          -18.479323181044474
        ]
      }
    },
    {
      "type": "Feature",
      "properties": {
        "municipality": "Pouso Alto",
        "state": "MG",
        "crop": "Alho",
        "hectares": 10.0,
        "production": 10.0,
        "year": 2023,
        "region": "Sudeste",
        "ibge_code": "3152600"
      },
      "geometry": {
        "type": "Point",
        "coordinates": [
          -44.108143038164634,
          -19.1145429014375
        ]
      }
    },
    {
      "type": "Feature",
      "properties": {
        "municipality": "Presidente Olegário",
        "state": "MG",
        "crop": "Alho",
        "hectares": 5.0,
        "production": 5.0,
        "year": 2023,
        "region": "Sudeste",
        "ibge_code": "3153400"
      },
      "geometry": {
        "type": "Point",
        "coordinates": [
          -43.99094192683142,
          -18.340004463088086
        ]
      }
    },
    {
      "type": "Feature",
      "properties": {
        "municipality": "Rio Paranaíba",
        "state": "MG",
        "crop": "Alho",
        "hectares": 2400.0,
        "production": 2400.0,
        "year": 2023,
        "region": "Sudeste",
        "ibge_code": "3155504"
      },
      "geometry": {
        "type": "Point",
        "coordinates": [
          -44.71711346699854,
          -19.23065814787833
        ]
      }
    },
    {
      "type": "Feature",
      "properties": {
        "municipality": "Rio Pardo de Minas",
        "state": "MG",
        "crop": "Alho",
        "hectares": 2.0,
        "production": 2.0,
        "year": 2023,
        "region": "Sudeste",
        "ibge_code": "3155603"
      },
      "geometry": {
        "type": "Point",
        "coordinates": [
          -43.86013252612553,
          -19.243471511775198
        ]
      }
    },
    {
      "type": "Feature",
      "properties": {
        "municipality": "Sacramento",
        "state": "MG",
        "crop": "Alho",
        "hectares": 700.0,
        "production": 700.0,
        "year": 2023,
        "region": "Sudeste",
        "ibge_code": "3156908"
      },
      "geometry": {
        "type": "Point",
        "coordinates": [
          -44.170974480620416,
          -19.122569164586476
        ]
      }
    },
    {
      "type": "Feature",
      "properties": {
        "municipality": "Salinas",
        "state": "MG",
        "crop": "Alho",
        "hectares": 2.0,
        "production": 2.0,
        "year": 2023,
        "region": "Sudeste",
        "ibge_code": "3157005"
      },
      "geometry": {
        "type": "Point",
        "coordinates": [
          -45.55414812843725,
          -19.385304329448655
        ]
      }
    },
    {
      "type": "Feature",
      "properties": {
        "municipality": "Santa Bárbara do Leste",
        "state": "MG",
        "crop": "Alho",
        "hectares": 1.0,
        "production": 1.0,
        "year": 2023,
        "region": "Sudeste",
        "ibge_code": "3157252"
      },
      "geometry": {
        "type": "Point",
        "coordinates": [
          -43.58028362105074,
          -18.98602637518097
        ]
      }
    },
    {
      "type": "Feature",
      "properties": {
        "municipality": "Santa Bárbara do Tugúrio",
        "state": "MG",
        "crop": "Alho",
        "hectares": 1.0,
        "production": 1.0,
        "year": 2023,
        "region": "Sudeste",
        "ibge_code": "3157302"
      },
      "geometry": {
        "type": "Point",
        "coordinates": [
          -44.81736099976972,
          -17.90554412035001
        ]
      }
    },
    {
      "type": "Feature",
      "properties": {
        "municipality": "Santa Juliana",
        "state": "MG",
        "crop": "Alho",
        "hectares": 160.0,
        "production": 160.0,
        "year": 2023,
        "region": "Sudeste",
        "ibge_code": "3157708"
      },
      "geometry": {
        "type": "Point",
        "coordinates": [
          -44.65702169544111,
          -17.803621123652285
        ]
      }
    },
    {
      "type": "Feature",
      "properties": {
        "municipality": "Santa Rosa da Serra",
        "state": "MG",
        "crop": "Alho",
        "hectares": 40.0,
        "production": 40.0,
        "year": 2023,
        "region": "Sudeste",
        "ibge_code": "3159704"
      },
      "geometry": {
        "type": "Point",
        "coordinates": [
          -43.562652818705395,
          -18.64543675116041
        ]
      }
    },
    {
      "type": "Feature",
      "properties": {
        "municipality": "Santo Antônio do Retiro",
        "state": "MG",
        "crop": "Alho",
        "hectares": 2.0,
        "production": 2.0,
        "year": 2023,
        "region": "Sudeste",
        "ibge_code": "3160454"
      },
      "geometry": {
        "type": "Point",
        "coordinates": [
          -44.10303286455515,
          -17.69977531256126
        ]
      }
    },
    {
      "type": "Feature",
      "properties": {
        "municipality": "São Domingos das Dores",
        "state": "MG",
        "crop": "Alho",
        "hectares": 1.0,
        "production": 1.0,
        "year": 2023,
        "region": "Sudeste",
        "ibge_code": "3160959"
      },
      "geometry": {
        "type": "Point",
        "coordinates": [
          -44.734809759175086,
          -19.36746685146106
        ]
      }
    },
    {
      "type": "Feature",
      "properties": {
        "municipality": "São Gotardo",
        "state": "MG",
        "crop": "Alho",
        "hectares": 600.0,
        "production": 600.0,
        "year": 2023,
        "region": "Sudeste",
        "ibge_code": "3162104"
      },
      "geometry": {
        "type": "Point",
        "coordinates": [
          -44.935915756771486,
          -19.41544512341487
        ]
      }
    },
    {
      "type": "Feature",
      "properties": {
        "municipality": "São João da Lagoa",
        "state": "MG",
        "crop": "Alho",
        "hectares": 2.0,
        "production": 2.0,
        "year": 2023,
        "region": "Sudeste",
        "ibge_code": "3162252"
      },
      "geometry": {
        "type": "Point",
        "coordinates": [
          -44.909090264673964,
          -18.49607377581997
        ]
      }
    },
    {
      "type": "Feature",
      "properties": {
        "municipality": "São João da Mata",
        "state": "MG",
        "crop": "Alho",
        "hectares": 1.0,
        "production": 1.0,
        "year": 2023,
        "region": "Sudeste",
        "ibge_code": "3162302"
      },
      "geometry": {
        "type": "Point",
        "coordinates": [
          -44.865580283887844,
          -18.316808429127345
        ]
      }
    },
    {
      "type": "Feature",
      "properties": {
        "municipality": "São João do Pacuí",
        "state": "MG",
        "crop": "Alho",
        "hectares": 1.0,
        "production": 1.0,
        "year": 2023,
        "region": "Sudeste",
        "ibge_code": "3162658"
      },
      "geometry": {
        "type": "Point",
        "coordinates": [
          -44.62798423388291,
          -18.859165361819013
        ]
      }
    },
    {
      "type": "Feature",
      "properties": {
        "municipality": "São Roque de Minas",
        "state": "MG",
        "crop": "Alho",
        "hectares": 8.0,
        "production": 8.0,
        "year": 2023,
        "region": "Sudeste",
        "ibge_code": "3164308"
      },
      "geometry": {
        "type": "Point",
        "coordinates": [
          -44.99496778892766,
          -18.798383642945527
        ]
      }
    },
    {
      "type": "Feature",
      "properties": {
        "municipality": "Senador Modestino Gonçalves",
        "state": "MG",
        "crop": "Alho",
        "hectares": 2.0,
        "production": 2.0,
        "year": 2023,
        "region": "Sudeste",
        "ibge_code": "3165909"
      },
      "geometry": {
        "type": "Point",
        "coordinates": [
          -43.71067091420064,
          -19.105915387248945
        ]
      }
    },
    {
      "type": "Feature",
      "properties": {
        "municipality": "Serra do Salitre",
        "state": "MG",
        "crop": "Alho",
        "hectares": 25.0,
        "production": 25.0,
        "year": 2023,
        "region": "Sudeste",
        "ibge_code": "3166808"
      },
      "geometry": {
        "type": "Point",
        "coordinates": [
          -43.923966095329114,
          -19.184865333549862
        ]
      }
    },
    {
      "type": "Feature",
      "properties": {
        "municipality": "Simonésia",
        "state": "MG",
        "crop": "Alho",
        "hectares": 3.0,
        "production": 3.0,
        "year": 2023,
        "region": "Sudeste",
        "ibge_code": "3167608"
      },
      "geometry": {
        "type": "Point",
        "coordinates": [
          -44.72612296206888,
          -18.890828125806557
        ]
      }
    },
    {
      "type": "Feature",
      "properties": {
        "municipality": "Tapira",
        "state": "MG",
        "crop": "Alho",
        "hectares": 100.0,
        "production": 100.0,
        "year": 2023,
        "region": "Sudeste",
        "ibge_code": "3168101"
      },
      "geometry": {
        "type": "Point",
        "coordinates": [
          -44.25836445045625,
          -19.44490400596057
        ]
      }
    },
    {
      "type": "Feature",
      "properties": {
        "municipality": "Tiros",
        "state": "MG",
        "crop": "Alho",
        "hectares": 150.0,
        "production": 150.0,
        "year": 2023,
        "region": "Sudeste",
        "ibge_code": "3168903"
      },
      "geometry": {
        "type": "Point",
        "coordinates": [
          -43.88673056443912,
          -19.45213269172884
        ]
      }
    },
    {
      "type": "Feature",
      "properties": {
        "municipality": "Tocantins",
        "state": "MG",
        "crop": "Alho",
        "hectares": 1.0,
        "production": 1.0,
        "year": 2023,
        "region": "Sudeste",
        "ibge_code": "3169000"
      },
      "geometry": {
        "type": "Point",
        "coordinates": [
          -44.09773661604918,
          -18.84935197446353
        ]
      }
    },
    {
      "type": "Feature",
      "properties": {
        "municipality": "Turmalina",
        "state": "MG",
        "crop": "Alho",
        "hectares": 2.0,
        "production": 2.0,
        "year": 2023,
        "region": "Sudeste",
        "ibge_code": "3169703"
      },
      "geometry": {
        "type": "Point",
        "coordinates": [
          -44.48627410883724,
          -19.03802738697818
        ]
      }
    },
    {
      "type": "Feature",
      "properties": {
        "municipality": "Uberaba",
        "state": "MG",
        "crop": "Alho",
        "hectares": 50.0,
        "production": 50.0,
        "year": 2023,
        "region": "Sudeste",
        "ibge_code": "3170107"
      },
      "geometry": {
        "type": "Point",
        "coordinates": [
          -44.84220876636503,
          -18.98553890566625
        ]
      }
    },
    {
      "type": "Feature",
      "properties": {
        "municipality": "Uberlândia",
        "state": "MG",
        "crop": "Alho",
        "hectares": 30.0,
        "production": 30.0,
        "year": 2023,
        "region": "Sudeste",
        "ibge_code": "3170206"
      },
      "geometry": {
        "type": "Point",
        "coordinates": [
          -45.420571773329655,
          -17.882416926893683
        ]
      }
    },
    {
      "type": "Feature",
      "properties": {
        "municipality": "Vazante",
        "state": "MG",
        "crop": "Alho",
        "hectares": 2.0,
        "production": 2.0,
        "year": 2023,
        "region": "Sudeste",
        "ibge_code": "3171006"
      },
      "geometry": {
        "type": "Point",
        "coordinates": [
          -44.31976595437556,
          -18.54787548279025
        ]
      }
    },
    {
      "type": "Feature",
      "properties": {
        "municipality": "Afonso Cláudio",
        "state": "ES",
        "crop": "Alho",
        "hectares": 20.0,
        "production": 20.0,
        "year": 2023,
        "region": "Sudeste",
        "ibge_code": "3200102"
      },
      "geometry": {
        "type": "Point",
        "coordinates": [
          -39.73669616855336,
          -18.572333232193454
        ]
      }
    },
    {
      "type": "Feature",
      "properties": {
        "municipality": "Domingos Martins",
        "state": "ES",
        "crop": "Alho",
        "hectares": 14.0,
        "production": 14.0,
        "year": 2023,
        "region": "Sudeste",
        "ibge_code": "3201902"
      },
      "geometry": {
        "type": "Point",
        "coordinates": [
          -40.85866159015723,
          -18.53262462929523
        ]
      }
    },
    {
      "type": "Feature",
      "properties": {
        "municipality": "Itarana",
        "state": "ES",
        "crop": "Alho",
        "hectares": 10.0,
        "production": 10.0,
        "year": 2023,
        "region": "Sudeste",
        "ibge_code": "3202900"
      },
      "geometry": {
        "type": "Point",
        "coordinates": [
          -40.35561172753846,
          -19.571822207086853
        ]
      }
    },
    {
      "type": "Feature",
      "properties": {
        "municipality": "Santa Maria de Jetibá",
        "state": "ES",
        "crop": "Alho",
        "hectares": 100.0,
        "production": 100.0,
        "year": 2023,
        "region": "Sudeste",
        "ibge_code": "3204559"
      },
      "geometry": {
        "type": "Point",
        "coordinates": [
          -39.374148240358195,
          -20.096340052381514
        ]
      }
    },
    {
      "type": "Feature",
      "properties": {
        "municipality": "Corumbataí",
        "state": "SP",
        "crop": "Alho",
        "hectares": 1.0,
        "production": 1.0,
        "year": 2023,
        "region": "Sudeste",
        "ibge_code": "3512704"
      },
      "geometry": {
        "type": "Point",
        "coordinates": [
          -45.679174912488065,
          -24.009549334486632
        ]
      }
    },
    {
      "type": "Feature",
      "properties": {
        "municipality": "Guatapará",
        "state": "SP",
        "crop": "Alho",
        "hectares": 5.0,
        "production": 5.0,
        "year": 2023,
        "region": "Sudeste",
        "ibge_code": "3518859"
      },
      "geometry": {
        "type": "Point",
        "coordinates": [
          -47.50364066020871,
          -22.602029705739035
        ]
      }
    },
    {
      "type": "Feature",
      "properties": {
        "municipality": "Ibiúna",
        "state": "SP",
        "crop": "Alho",
        "hectares": 2.0,
        "production": 2.0,
        "year": 2023,
        "region": "Sudeste",
        "ibge_code": "3519709"
      },
      "geometry": {
        "type": "Point",
        "coordinates": [
          -47.32332002838497,
          -22.57459406615929
        ]
      }
    },
    {
      "type": "Feature",
      "properties": {
        "municipality": "Itaberá",
        "state": "SP",
        "crop": "Alho",
        "hectares": 2.0,
        "production": 2.0,
        "year": 2023,
        "region": "Sudeste",
        "ibge_code": "3521705"
      },
      "geometry": {
        "type": "Point",
        "coordinates": [
          -47.448260177917625,
          -22.846253595772534
        ]
      }
    },
    {
      "type": "Feature",
      "properties": {
        "municipality": "Piedade",
        "state": "SP",
        "crop": "Alho",
        "hectares": 3.0,
        "production": 3.0,
        "year": 2023,
        "region": "Sudeste",
        "ibge_code": "3537800"
      },
      "geometry": {
        "type": "Point",
        "coordinates": [
          -46.40101528453992,
          -24.23217954518688
        ]
      }
    },
    {
      "type": "Feature",
      "properties": {
        "municipality": "Pitangueiras",
        "state": "SP",
        "crop": "Alho",
        "hectares": 7.0,
        "production": 7.0,
        "year": 2023,
        "region": "Sudeste",
        "ibge_code": "3539509"
      },
      "geometry": {
        "type": "Point",
        "coordinates": [
          -46.55041495314338,
          -23.086906864935717
        ]
      }
    },
    {
      "type": "Feature",
      "properties": {
        "municipality": "Ampére",
        "state": "PR",
        "crop": "Alho",
        "hectares": 1.0,
        "production": 1.0,
        "year": 2023,
        "region": "Sul",
        "ibge_code": "4101002"
      },
      "geometry": {
        "type": "Point",
        "coordinates": [
          -51.1371634693573,
          -24.81975394772189
        ]
      }
    },
    {
      "type": "Feature",
      "properties": {
        "municipality": "Antônio Olinto",
        "state": "PR",
        "crop": "Alho",
        "hectares": 1.0,
        "production": 1.0,
        "year": 2023,
        "region": "Sul",
        "ibge_code": "4101309"
      },
      "geometry": {
        "type": "Point",
        "coordinates": [
          -51.24488424564992,
          -25.277586490532446
        ]
      }
    },
    {
      "type": "Feature",
      "properties": {
        "municipality": "Araruna",
        "state": "PR",
        "crop": "Alho",
        "hectares": 1.0,
        "production": 1.0,
        "year": 2023,
        "region": "Sul",
        "ibge_code": "4101705"
      },
      "geometry": {
        "type": "Point",
        "coordinates": [
          -52.31651565498298,
          -24.702162532942346
        ]
      }
    },
    {
      "type": "Feature",
      "properties": {
        "municipality": "Barbosa Ferraz",
        "state": "PR",
        "crop": "Alho",
        "hectares": 1.0,
        "production": 1.0,
        "year": 2023,
        "region": "Sul",
        "ibge_code": "4102505"
      },
      "geometry": {
        "type": "Point",
        "coordinates": [
          -51.83976754880271,
          -25.67413100469985
        ]
      }
    },
    {
      "type": "Feature",
      "properties": {
        "municipality": "Barracão",
        "state": "PR",
        "crop": "Alho",
        "hectares": 1.0,
        "production": 1.0,
        "year": 2023,
        "region": "Sul",
        "ibge_code": "4102604"
      },
      "geometry": {
        "type": "Point",
        "coordinates": [
          -50.76618471569123,
          -24.326589349926717
        ]
      }
    },
    {
      "type": "Feature",
      "properties": {
        "municipality": "Bela Vista da Caroba",
        "state": "PR",
        "crop": "Alho",
        "hectares": 1.0,
        "production": 1.0,
        "year": 2023,
        "region": "Sul",
        "ibge_code": "4102752"
      },
      "geometry": {
        "type": "Point",
        "coordinates": [
          -51.24876144805803,
          -25.47708545279548
        ]
      }
    },
    {
      "type": "Feature",
      "properties": {
        "municipality": "Bituruna",
        "state": "PR",
        "crop": "Alho",
        "hectares": 1.0,
        "production": 1.0,
        "year": 2023,
        "region": "Sul",
        "ibge_code": "4102901"
      },
      "geometry": {
        "type": "Point",
        "coordinates": [
          -50.44342503992046,
          -25.03906221706622
        ]
      }
    },
    {
      "type": "Feature",
      "properties": {
        "municipality": "Boa Esperança do Iguaçu",
        "state": "PR",
        "crop": "Alho",
        "hectares": 1.0,
        "production": 1.0,
        "year": 2023,
        "region": "Sul",
        "ibge_code": "4103024"
      },
      "geometry": {
        "type": "Point",
        "coordinates": [
          -50.86852048652647,
          -24.443440273890207
        ]
      }
    },
    {
      "type": "Feature",
      "properties": {
        "municipality": "Boa Vista da Aparecida",
        "state": "PR",
        "crop": "Alho",
        "hectares": 1.0,
        "production": 1.0,
        "year": 2023,
        "region": "Sul",
        "ibge_code": "4103057"
      },
      "geometry": {
        "type": "Point",
        "coordinates": [
          -51.32654053396104,
          -24.44004559821946
        ]
      }
    },
    {
      "type": "Feature",
      "properties": {
        "municipality": "Bom Jesus do Sul",
        "state": "PR",
        "crop": "Alho",
        "hectares": 1.0,
        "production": 1.0,
        "year": 2023,
        "region": "Sul",
        "ibge_code": "4103156"
      },
      "geometry": {
        "type": "Point",
        "coordinates": [
          -50.877030975482334,
          -25.68178159947719
        ]
      }
    },
    {
      "type": "Feature",
      "properties": {
        "municipality": "Bom Sucesso do Sul",
        "state": "PR",
        "crop": "Alho",
        "hectares": 1.0,
        "production": 1.0,
        "year": 2023,
        "region": "Sul",
        "ibge_code": "4103222"
      },
      "geometry": {
        "type": "Point",
        "coordinates": [
          -51.349033489323666,
          -25.451520778129773
        ]
      }
    },
    {
      "type": "Feature",
      "properties": {
        "municipality": "Braganey",
        "state": "PR",
        "crop": "Alho",
        "hectares": 2.0,
        "production": 2.0,
        "year": 2023,
        "region": "Sul",
        "ibge_code": "4103354"
      },
      "geometry": {
        "type": "Point",
        "coordinates": [
          -51.343606426204815,
          -25.395529848391632
        ]
      }
    },
    {
      "type": "Feature",
      "properties": {
        "municipality": "Califórnia",
        "state": "PR",
        "crop": "Alho",
        "hectares": 5.0,
        "production": 5.0,
        "year": 2023,
        "region": "Sul",
        "ibge_code": "4103503"
      },
      "geometry": {
        "type": "Point",
        "coordinates": [
          -50.572676418964505,
          -24.43013773919958
        ]
      }
    },
    {
      "type": "Feature",
      "properties": {
        "municipality": "Campina da Lagoa",
        "state": "PR",
        "crop": "Alho",
        "hectares": 1.0,
        "production": 1.0,
        "year": 2023,
        "region": "Sul",
        "ibge_code": "4103909"
      },
      "geometry": {
        "type": "Point",
        "coordinates": [
          -51.70675465246426,
          -24.525038480446277
        ]
      }
    },
    {
      "type": "Feature",
      "properties": {
        "municipality": "Campina do Simão",
        "state": "PR",
        "crop": "Alho",
        "hectares": 1.0,
        "production": 1.0,
        "year": 2023,
        "region": "Sul",
        "ibge_code": "4103958"
      },
      "geometry": {
        "type": "Point",
        "coordinates": [
          -51.76167051346922,
          -24.953386363238785
        ]
      }
    },
    {
      "type": "Feature",
      "properties": {
        "municipality": "Campo Bonito",
        "state": "PR",
        "crop": "Alho",
        "hectares": 2.0,
        "production": 2.0,
        "year": 2023,
        "region": "Sul",
        "ibge_code": "4104055"
      },
      "geometry": {
        "type": "Point",
        "coordinates": [
          -50.550095582124,
          -25.298058517488997
        ]
      }
    },
    {
      "type": "Feature",
      "properties": {
        "municipality": "Campo Mourão",
        "state": "PR",
        "crop": "Alho",
        "hectares": 1.0,
        "production": 1.0,
        "year": 2023,
        "region": "Sul",
        "ibge_code": "4104303"
      },
      "geometry": {
        "type": "Point",
        "coordinates": [
          -51.846920720954394,
          -24.88562116822001
        ]
      }
    },
    {
      "type": "Feature",
      "properties": {
        "municipality": "Candói",
        "state": "PR",
        "crop": "Alho",
        "hectares": 1.0,
        "production": 1.0,
        "year": 2023,
        "region": "Sul",
        "ibge_code": "4104428"
      },
      "geometry": {
        "type": "Point",
        "coordinates": [
          -51.919816344920775,
          -25.34136417980492
        ]
      }
    },
    {
      "type": "Feature",
      "properties": {
        "municipality": "Capanema",
        "state": "PR",
        "crop": "Alho",
        "hectares": 1.0,
        "production": 1.0,
        "year": 2023,
        "region": "Sul",
        "ibge_code": "4104501"
      },
      "geometry": {
        "type": "Point",
        "coordinates": [
          -51.92750372418071,
          -24.01313181929831
        ]
      }
    },
    {
      "type": "Feature",
      "properties": {
        "municipality": "Cascavel",
        "state": "PR",
        "crop": "Alho",
        "hectares": 8.0,
        "production": 8.0,
        "year": 2023,
        "region": "Sul",
        "ibge_code": "4104808"
      },
      "geometry": {
        "type": "Point",
        "coordinates": [
          -51.58539706529497,
          -24.68168224406555
        ]
      }
    },
    {
      "type": "Feature",
      "properties": {
        "municipality": "Castro",
        "state": "PR",
        "crop": "Alho",
        "hectares": 3.0,
        "production": 3.0,
        "year": 2023,
        "region": "Sul",
        "ibge_code": "4104907"
      },
      "geometry": {
        "type": "Point",
        "coordinates": [
          -51.92750372418071,
          -24.01313181929831
        ]
      }
    },
    {
      "type": "Feature",
      "properties": {
        "municipality": "Catanduvas",
        "state": "PR",
        "crop": "Alho",
        "hectares": 2.0,
        "production": 2.0,
        "year": 2023,
        "region": "Sul",
        "ibge_code": "4105003"
      },
      "geometry": {
        "type": "Point",
        "coordinates": [
          -51.056585838288605,
          -25.54930138332676
        ]
      }
    },
    {
      "type": "Feature",
      "properties": {
        "municipality": "Céu Azul",
        "state": "PR",
        "crop": "Alho",
        "hectares": 3.0,
        "production": 3.0,
        "year": 2023,
        "region": "Sul",
        "ibge_code": "4105300"
      },
      "geometry": {
        "type": "Point",
        "coordinates": [
          -52.035722887203534,
          -24.47123546440743
        ]
      }
    },
    {
      "type": "Feature",
      "properties": {
        "municipality": "Chopinzinho",
        "state": "PR",
        "crop": "Alho",
        "hectares": 1.0,
        "production": 1.0,
        "year": 2023,
        "region": "Sul",
        "ibge_code": "4105409"
      },
      "geometry": {
        "type": "Point",
        "coordinates": [
          -50.48600633387573,
          -25.368785168630648
        ]
      }
    },
    {
      "type": "Feature",
      "properties": {
        "municipality": "Cianorte",
        "state": "PR",
        "crop": "Alho",
        "hectares": 1.0,
        "production": 1.0,
        "year": 2023,
        "region": "Sul",
        "ibge_code": "4105508"
      },
      "geometry": {
        "type": "Point",
        "coordinates": [
          -51.35497047269042,
          -24.176641428066382
        ]
      }
    },
    {
      "type": "Feature",
      "properties": {
        "municipality": "Congonhinhas",
        "state": "PR",
        "crop": "Alho",
        "hectares": 6.0,
        "production": 6.0,
        "year": 2023,
        "region": "Sul",
        "ibge_code": "4106001"
      },
      "geometry": {
        "type": "Point",
        "coordinates": [
          -51.60590894582834,
          -25.481275300097764
        ]
      }
    },
    {
      "type": "Feature",
      "properties": {
        "municipality": "Conselheiro Mairinck",
        "state": "PR",
        "crop": "Alho",
        "hectares": 1.0,
        "production": 1.0,
        "year": 2023,
        "region": "Sul",
        "ibge_code": "4106100"
      },
      "geometry": {
        "type": "Point",
        "coordinates": [
          -52.302539531640264,
          -25.75396065939014
        ]
      }
    },
    {
      "type": "Feature",
      "properties": {
        "municipality": "Corbélia",
        "state": "PR",
        "crop": "Alho",
        "hectares": 1.0,
        "production": 1.0,
        "year": 2023,
        "region": "Sul",
        "ibge_code": "4106308"
      },
      "geometry": {
        "type": "Point",
        "coordinates": [
          -51.83247115204024,
          -25.113000120042308
        ]
      }
    },
    {
      "type": "Feature",
      "properties": {
        "municipality": "Cornélio Procópio",
        "state": "PR",
        "crop": "Alho",
        "hectares": 1.0,
        "production": 1.0,
        "year": 2023,
        "region": "Sul",
        "ibge_code": "4106407"
      },
      "geometry": {
        "type": "Point",
        "coordinates": [
          -51.25197381928332,
          -25.548761538296265
        ]
      }
    },
    {
      "type": "Feature",
      "properties": {
        "municipality": "Coronel Domingos Soares",
        "state": "PR",
        "crop": "Alho",
        "hectares": 1.0,
        "production": 1.0,
        "year": 2023,
        "region": "Sul",
        "ibge_code": "4106456"
      },
      "geometry": {
        "type": "Point",
        "coordinates": [
          -52.21433972032972,
          -24.13726201545291
        ]
      }
    },
    {
      "type": "Feature",
      "properties": {
        "municipality": "Coronel Vivida",
        "state": "PR",
        "crop": "Alho",
        "hectares": 1.0,
        "production": 1.0,
        "year": 2023,
        "region": "Sul",
        "ibge_code": "4106506"
      },
      "geometry": {
        "type": "Point",
        "coordinates": [
          -51.930309227217194,
          -24.335567134870608
        ]
      }
    },
    {
      "type": "Feature",
      "properties": {
        "municipality": "Cruzeiro do Iguaçu",
        "state": "PR",
        "crop": "Alho",
        "hectares": 1.0,
        "production": 1.0,
        "year": 2023,
        "region": "Sul",
        "ibge_code": "4106571"
      },
      "geometry": {
        "type": "Point",
        "coordinates": [
          -50.83964205525845,
          -25.335075226414148
        ]
      }
    },
    {
      "type": "Feature",
      "properties": {
        "municipality": "Cruz Machado",
        "state": "PR",
        "crop": "Alho",
        "hectares": 2.0,
        "production": 2.0,
        "year": 2023,
        "region": "Sul",
        "ibge_code": "4106803"
      },
      "geometry": {
        "type": "Point",
        "coordinates": [
          -52.006930007246375,
          -24.101395249985966
        ]
      }
    },
    {
      "type": "Feature",
      "properties": {
        "municipality": "Curiúva",
        "state": "PR",
        "crop": "Alho",
        "hectares": 2.0,
        "production": 2.0,
        "year": 2023,
        "region": "Sul",
        "ibge_code": "4107009"
      },
      "geometry": {
        "type": "Point",
        "coordinates": [
          -51.385526720023385,
          -25.446369884762174
        ]
      }
    },
    {
      "type": "Feature",
      "properties": {
        "municipality": "Diamante D'Oeste",
        "state": "PR",
        "crop": "Alho",
        "hectares": 2.0,
        "production": 2.0,
        "year": 2023,
        "region": "Sul",
        "ibge_code": "4107157"
      },
      "geometry": {
        "type": "Point",
        "coordinates": [
          -51.0040009193925,
          -24.449187461367206
        ]
      }
    },
    {
      "type": "Feature",
      "properties": {
        "municipality": "Dois Vizinhos",
        "state": "PR",
        "crop": "Alho",
        "hectares": 1.0,
        "production": 1.0,
        "year": 2023,
        "region": "Sul",
        "ibge_code": "4107207"
      },
      "geometry": {
        "type": "Point",
        "coordinates": [
          -51.77826724281921,
          -25.06298782462215
        ]
      }
    },
    {
      "type": "Feature",
      "properties": {
        "municipality": "Enéas Marques",
        "state": "PR",
        "crop": "Alho",
        "hectares": 1.0,
        "production": 1.0,
        "year": 2023,
        "region": "Sul",
        "ibge_code": "4107405"
      },
      "geometry": {
        "type": "Point",
        "coordinates": [
          -52.006930007246375,
          -24.101395249985966
        ]
      }
    },
    {
      "type": "Feature",
      "properties": {
        "municipality": "Fernandes Pinheiro",
        "state": "PR",
        "crop": "Alho",
        "hectares": 2.0,
        "production": 2.0,
        "year": 2023,
        "region": "Sul",
        "ibge_code": "4107736"
      },
      "geometry": {
        "type": "Point",
        "coordinates": [
          -51.08074262281275,
          -25.137297159343085
        ]
      }
    },
    {
      "type": "Feature",
      "properties": {
        "municipality": "Figueira",
        "state": "PR",
        "crop": "Alho",
        "hectares": 1.0,
        "production": 1.0,
        "year": 2023,
        "region": "Sul",
        "ibge_code": "4107751"
      },
      "geometry": {
        "type": "Point",
        "coordinates": [
          -50.83964205525845,
          -25.335075226414148
        ]
      }
    },
    {
      "type": "Feature",
      "properties": {
        "municipality": "Flor da Serra do Sul",
        "state": "PR",
        "crop": "Alho",
        "hectares": 1.0,
        "production": 1.0,
        "year": 2023,
        "region": "Sul",
        "ibge_code": "4107850"
      },
      "geometry": {
        "type": "Point",
        "coordinates": [
          -52.20616826411123,
          -24.24938626341732
        ]
      }
    },
    {
      "type": "Feature",
      "properties": {
        "municipality": "Foz do Iguaçu",
        "state": "PR",
        "crop": "Alho",
        "hectares": 1.0,
        "production": 1.0,
        "year": 2023,
        "region": "Sul",
        "ibge_code": "4108304"
      },
      "geometry": {
        "type": "Point",
        "coordinates": [
          -51.405426612692544,
          -24.079499781597697
        ]
      }
    },
    {
      "type": "Feature",
      "properties": {
        "municipality": "Francisco Beltrão",
        "state": "PR",
        "crop": "Alho",
        "hectares": 1.0,
        "production": 1.0,
        "year": 2023,
        "region": "Sul",
        "ibge_code": "4108403"
      },
      "geometry": {
        "type": "Point",
        "coordinates": [
          -52.091338056516925,
          -25.79294177899794
        ]
      }
    },
    {
      "type": "Feature",
      "properties": {
        "municipality": "Foz do Jordão",
        "state": "PR",
        "crop": "Alho",
        "hectares": 1.0,
        "production": 1.0,
        "year": 2023,
        "region": "Sul",
        "ibge_code": "4108452"
      },
      "geometry": {
        "type": "Point",
        "coordinates": [
          -51.74282215733508,
          -25.089828523662092
        ]
      }
    },
    {
      "type": "Feature",
      "properties": {
        "municipality": "General Carneiro",
        "state": "PR",
        "crop": "Alho",
        "hectares": 1.0,
        "production": 1.0,
        "year": 2023,
        "region": "Sul",
        "ibge_code": "4108502"
      },
      "geometry": {
        "type": "Point",
        "coordinates": [
          -51.194306646051125,
          -25.5357712908445
        ]
      }
    },
    {
      "type": "Feature",
      "properties": {
        "municipality": "Goioerê",
        "state": "PR",
        "crop": "Alho",
        "hectares": 1.0,
        "production": 1.0,
        "year": 2023,
        "region": "Sul",
        "ibge_code": "4108601"
      },
      "geometry": {
        "type": "Point",
        "coordinates": [
          -51.76731425521419,
          -24.909579981153286
        ]
      }
    },
    {
      "type": "Feature",
      "properties": {
        "municipality": "Goioxim",
        "state": "PR",
        "crop": "Alho",
        "hectares": 1.0,
        "production": 1.0,
        "year": 2023,
        "region": "Sul",
        "ibge_code": "4108650"
      },
      "geometry": {
        "type": "Point",
        "coordinates": [
          -51.454613446666386,
          -24.630998612824463
        ]
      }
    },
    {
      "type": "Feature",
      "properties": {
        "municipality": "Guamiranga",
        "state": "PR",
        "crop": "Alho",
        "hectares": 1.0,
        "production": 1.0,
        "year": 2023,
        "region": "Sul",
        "ibge_code": "4108957"
      },
      "geometry": {
        "type": "Point",
        "coordinates": [
          -51.64633530216167,
          -25.698096725881076
        ]
      }
    },
    {
      "type": "Feature",
      "properties": {
        "municipality": "Guapirama",
        "state": "PR",
        "crop": "Alho",
        "hectares": 4.0,
        "production": 4.0,
        "year": 2023,
        "region": "Sul",
        "ibge_code": "4109005"
      },
      "geometry": {
        "type": "Point",
        "coordinates": [
          -51.412684513060974,
          -24.24821749903331
        ]
      }
    },
    {
      "type": "Feature",
      "properties": {
        "municipality": "Guarapuava",
        "state": "PR",
        "crop": "Alho",
        "hectares": 8.0,
        "production": 8.0,
        "year": 2023,
        "region": "Sul",
        "ibge_code": "4109401"
      },
      "geometry": {
        "type": "Point",
        "coordinates": [
          -51.238220139218434,
          -25.400236080661283
        ]
      }
    },
    {
      "type": "Feature",
      "properties": {
        "municipality": "Ibaiti",
        "state": "PR",
        "crop": "Alho",
        "hectares": 5.0,
        "production": 5.0,
        "year": 2023,
        "region": "Sul",
        "ibge_code": "4109708"
      },
      "geometry": {
        "type": "Point",
        "coordinates": [
          -51.62473054076062,
          -24.024676074592055
        ]
      }
    },
    {
      "type": "Feature",
      "properties": {
        "municipality": "Iguatu",
        "state": "PR",
        "crop": "Alho",
        "hectares": 2.0,
        "production": 2.0,
        "year": 2023,
        "region": "Sul",
        "ibge_code": "4110052"
      },
      "geometry": {
        "type": "Point",
        "coordinates": [
          -51.454613446666386,
          -24.630998612824463
        ]
      }
    },
    {
      "type": "Feature",
      "properties": {
        "municipality": "Imbaú",
        "state": "PR",
        "crop": "Alho",
        "hectares": 1.0,
        "production": 1.0,
        "year": 2023,
        "region": "Sul",
        "ibge_code": "4110078"
      },
      "geometry": {
        "type": "Point",
        "coordinates": [
          -50.59324461603196,
          -25.862150426500378
        ]
      }
    },
    {
      "type": "Feature",
      "properties": {
        "municipality": "Imbituva",
        "state": "PR",
        "crop": "Alho",
        "hectares": 3.0,
        "production": 3.0,
        "year": 2023,
        "region": "Sul",
        "ibge_code": "4110102"
      },
      "geometry": {
        "type": "Point",
        "coordinates": [
          -50.4887221959319,
          -25.599031860221547
        ]
      }
    },
    {
      "type": "Feature",
      "properties": {
        "municipality": "Inácio Martins",
        "state": "PR",
        "crop": "Alho",
        "hectares": 1.0,
        "production": 1.0,
        "year": 2023,
        "region": "Sul",
        "ibge_code": "4110201"
      },
      "geometry": {
        "type": "Point",
        "coordinates": [
          -52.39605976141473,
          -24.970371396488478
        ]
      }
    },
    {
      "type": "Feature",
      "properties": {
        "municipality": "Ipiranga",
        "state": "PR",
        "crop": "Alho",
        "hectares": 1.0,
        "production": 1.0,
        "year": 2023,
        "region": "Sul",
        "ibge_code": "4110508"
      },
      "geometry": {
        "type": "Point",
        "coordinates": [
          -50.63622562632207,
          -25.82512501192528
        ]
      }
    },
    {
      "type": "Feature",
      "properties": {
        "municipality": "Irati",
        "state": "PR",
        "crop": "Alho",
        "hectares": 3.0,
        "production": 3.0,
        "year": 2023,
        "region": "Sul",
        "ibge_code": "4110706"
      },
      "geometry": {
        "type": "Point",
        "coordinates": [
          -50.81486355637029,
          -24.36246769978391
        ]
      }
    },
    {
      "type": "Feature",
      "properties": {
        "municipality": "Iretama",
        "state": "PR",
        "crop": "Alho",
        "hectares": 1.0,
        "production": 1.0,
        "year": 2023,
        "region": "Sul",
        "ibge_code": "4110805"
      },
      "geometry": {
        "type": "Point",
        "coordinates": [
          -51.65490953584427,
          -24.21141066703455
        ]
      }
    },
    {
      "type": "Feature",
      "properties": {
        "municipality": "Itapejara d'Oeste",
        "state": "PR",
        "crop": "Alho",
        "hectares": 1.0,
        "production": 1.0,
        "year": 2023,
        "region": "Sul",
        "ibge_code": "4111209"
      },
      "geometry": {
        "type": "Point",
        "coordinates": [
          -50.98366848059414,
          -25.847736448570743
        ]
      }
    },
    {
      "type": "Feature",
      "properties": {
        "municipality": "Ivaí",
        "state": "PR",
        "crop": "Alho",
        "hectares": 1.0,
        "production": 1.0,
        "year": 2023,
        "region": "Sul",
        "ibge_code": "4111407"
      },
      "geometry": {
        "type": "Point",
        "coordinates": [
          -51.969943684803,
          -23.937071724679814
        ]
      }
    },
    {
      "type": "Feature",
      "properties": {
        "municipality": "Jaboti",
        "state": "PR",
        "crop": "Alho",
        "hectares": 2.0,
        "production": 2.0,
        "year": 2023,
        "region": "Sul",
        "ibge_code": "4111704"
      },
      "geometry": {
        "type": "Point",
        "coordinates": [
          -50.66960949649852,
          -25.20949368268311
        ]
      }
    },
    {
      "type": "Feature",
      "properties": {
        "municipality": "Jacarezinho",
        "state": "PR",
        "crop": "Alho",
        "hectares": 2.0,
        "production": 2.0,
        "year": 2023,
        "region": "Sul",
        "ibge_code": "4111803"
      },
      "geometry": {
        "type": "Point",
        "coordinates": [
          -51.243349639610926,
          -25.60544685720712
        ]
      }
    },
    {
      "type": "Feature",
      "properties": {
        "municipality": "Jaguariaíva",
        "state": "PR",
        "crop": "Alho",
        "hectares": 1.0,
        "production": 1.0,
        "year": 2023,
        "region": "Sul",
        "ibge_code": "4112009"
      },
      "geometry": {
        "type": "Point",
        "coordinates": [
          -50.49953287087311,
          -25.712520291461303
        ]
      }
    },
    {
      "type": "Feature",
      "properties": {
        "municipality": "Janiópolis",
        "state": "PR",
        "crop": "Alho",
        "hectares": 1.0,
        "production": 1.0,
        "year": 2023,
        "region": "Sul",
        "ibge_code": "4112207"
      },
      "geometry": {
        "type": "Point",
        "coordinates": [
          -51.90183396624022,
          -25.42577423095132
        ]
      }
    },
    {
      "type": "Feature",
      "properties": {
        "municipality": "Japira",
        "state": "PR",
        "crop": "Alho",
        "hectares": 2.0,
        "production": 2.0,
        "year": 2023,
        "region": "Sul",
        "ibge_code": "4112306"
      },
      "geometry": {
        "type": "Point",
        "coordinates": [
          -50.46604824035819,
          -25.806140052381515
        ]
      }
    },
    {
      "type": "Feature",
      "properties": {
        "municipality": "Joaquim Távora",
        "state": "PR",
        "crop": "Alho",
        "hectares": 6.0,
        "production": 6.0,
        "year": 2023,
        "region": "Sul",
        "ibge_code": "4112801"
      },
      "geometry": {
        "type": "Point",
        "coordinates": [
          -51.23318382826209,
          -25.718597026268366
        ]
      }
    },
    {
      "type": "Feature",
      "properties": {
        "municipality": "Jundiaí do Sul",
        "state": "PR",
        "crop": "Alho",
        "hectares": 3.0,
        "production": 3.0,
        "year": 2023,
        "region": "Sul",
        "ibge_code": "4112900"
      },
      "geometry": {
        "type": "Point",
        "coordinates": [
          -50.58662363759442,
          -25.1308413318966
        ]
      }
    },
    {
      "type": "Feature",
      "properties": {
        "municipality": "Mallet",
        "state": "PR",
        "crop": "Alho",
        "hectares": 2.0,
        "production": 2.0,
        "year": 2023,
        "region": "Sul",
        "ibge_code": "4113908"
      },
      "geometry": {
        "type": "Point",
        "coordinates": [
          -51.76731425521419,
          -24.909579981153286
        ]
      }
    },
    {
      "type": "Feature",
      "properties": {
        "municipality": "Mamborê",
        "state": "PR",
        "crop": "Alho",
        "hectares": 1.0,
        "production": 1.0,
        "year": 2023,
        "region": "Sul",
        "ibge_code": "4114005"
      },
      "geometry": {
        "type": "Point",
        "coordinates": [
          -50.787464013258756,
          -25.489830562748136
        ]
      }
    },
    {
      "type": "Feature",
      "properties": {
        "municipality": "Mandaguari",
        "state": "PR",
        "crop": "Alho",
        "hectares": 5.0,
        "production": 5.0,
        "year": 2023,
        "region": "Sul",
        "ibge_code": "4114203"
      },
      "geometry": {
        "type": "Point",
        "coordinates": [
          -51.49094599097195,
          -25.60186148979174
        ]
      }
    },
    {
      "type": "Feature",
      "properties": {
        "municipality": "Manfrinópolis",
        "state": "PR",
        "crop": "Alho",
        "hectares": 1.0,
        "production": 1.0,
        "year": 2023,
        "region": "Sul",
        "ibge_code": "4114351"
      },
      "geometry": {
        "type": "Point",
        "coordinates": [
          -51.357446083487865,
          -25.277885439429678
        ]
      }
    },
    {
      "type": "Feature",
      "properties": {
        "municipality": "Marilândia do Sul",
        "state": "PR",
        "crop": "Alho",
        "hectares": 2.0,
        "production": 2.0,
        "year": 2023,
        "region": "Sul",
        "ibge_code": "4114906"
      },
      "geometry": {
        "type": "Point",
        "coordinates": [
          -51.50058742976618,
          -25.506327330215235
        ]
      }
    },
    {
      "type": "Feature",
      "properties": {
        "municipality": "Maringá",
        "state": "PR",
        "crop": "Alho",
        "hectares": 2.0,
        "production": 2.0,
        "year": 2023,
        "region": "Sul",
        "ibge_code": "4115200"
      },
      "geometry": {
        "type": "Point",
        "coordinates": [
          -50.49953287087311,
          -25.712520291461303
        ]
      }
    },
    {
      "type": "Feature",
      "properties": {
        "municipality": "Mariópolis",
        "state": "PR",
        "crop": "Alho",
        "hectares": 1.0,
        "production": 1.0,
        "year": 2023,
        "region": "Sul",
        "ibge_code": "4115309"
      },
      "geometry": {
        "type": "Point",
        "coordinates": [
          -50.47620992833123,
          -25.439788281237902
        ]
      }
    },
    {
      "type": "Feature",
      "properties": {
        "municipality": "Marmeleiro",
        "state": "PR",
        "crop": "Alho",
        "hectares": 1.0,
        "production": 1.0,
        "year": 2023,
        "region": "Sul",
        "ibge_code": "4115408"
      },
      "geometry": {
        "type": "Point",
        "coordinates": [
          -51.340549424278734,
          -25.8241704162861
        ]
      }
    },
    {
      "type": "Feature",
      "properties": {
        "municipality": "Marumbi",
        "state": "PR",
        "crop": "Alho",
        "hectares": 1.0,
        "production": 1.0,
        "year": 2023,
        "region": "Sul",
        "ibge_code": "4115507"
      },
      "geometry": {
        "type": "Point",
        "coordinates": [
          -51.510732079385456,
          -25.403698770366795
        ]
      }
    },
    {
      "type": "Feature",
      "properties": {
        "municipality": "Medianeira",
        "state": "PR",
        "crop": "Alho",
        "hectares": 1.0,
        "production": 1.0,
        "year": 2023,
        "region": "Sul",
        "ibge_code": "4115804"
      },
      "geometry": {
        "type": "Point",
        "coordinates": [
          -52.27114066020871,
          -23.944729705739036
        ]
      }
    },
    {
      "type": "Feature",
      "properties": {
        "municipality": "Moreira Sales",
        "state": "PR",
        "crop": "Alho",
        "hectares": 2.0,
        "production": 2.0,
        "year": 2023,
        "region": "Sul",
        "ibge_code": "4116109"
      },
      "geometry": {
        "type": "Point",
        "coordinates": [
          -50.96072721177462,
          -25.768354777078542
        ]
      }
    },
    {
      "type": "Feature",
      "properties": {
        "municipality": "Nova Aurora",
        "state": "PR",
        "crop": "Alho",
        "hectares": 2.0,
        "production": 2.0,
        "year": 2023,
        "region": "Sul",
        "ibge_code": "4116703"
      },
      "geometry": {
        "type": "Point",
        "coordinates": [
          -51.65490953584427,
          -24.21141066703455
        ]
      }
    },
    {
      "type": "Feature",
      "properties": {
        "municipality": "Nova Esperança do Sudoeste",
        "state": "PR",
        "crop": "Alho",
        "hectares": 1.0,
        "production": 1.0,
        "year": 2023,
        "region": "Sul",
        "ibge_code": "4116950"
      },
      "geometry": {
        "type": "Point",
        "coordinates": [
          -50.86106336389782,
          -25.26232962239311
        ]
      }
    },
    {
      "type": "Feature",
      "properties": {
        "municipality": "Nova Fátima",
        "state": "PR",
        "crop": "Alho",
        "hectares": 3.0,
        "production": 3.0,
        "year": 2023,
        "region": "Sul",
        "ibge_code": "4117008"
      },
      "geometry": {
        "type": "Point",
        "coordinates": [
          -51.63292119003692,
          -24.573506739129854
        ]
      }
    },
    {
      "type": "Feature",
      "properties": {
        "municipality": "Nova Laranjeiras",
        "state": "PR",
        "crop": "Alho",
        "hectares": 1.0,
        "production": 1.0,
        "year": 2023,
        "region": "Sul",
        "ibge_code": "4117057"
      },
      "geometry": {
        "type": "Point",
        "coordinates": [
          -52.229882907362025,
          -25.099387026795604
        ]
      }
    },
    {
      "type": "Feature",
      "properties": {
        "municipality": "Nova Prata do Iguaçu",
        "state": "PR",
        "crop": "Alho",
        "hectares": 1.0,
        "production": 1.0,
        "year": 2023,
        "region": "Sul",
        "ibge_code": "4117255"
      },
      "geometry": {
        "type": "Point",
        "coordinates": [
          -50.572676418964505,
          -24.43013773919958
        ]
      }
    },
    {
      "type": "Feature",
      "properties": {
        "municipality": "Ortigueira",
        "state": "PR",
        "crop": "Alho",
        "hectares": 1.0,
        "production": 1.0,
        "year": 2023,
        "region": "Sul",
        "ibge_code": "4117305"
      },
      "geometry": {
        "type": "Point",
        "coordinates": [
          -51.68978506851128,
          -24.926061953155056
        ]
      }
    },
    {
      "type": "Feature",
      "properties": {
        "municipality": "Paiçandu",
        "state": "PR",
        "crop": "Alho",
        "hectares": 3.0,
        "production": 3.0,
        "year": 2023,
        "region": "Sul",
        "ibge_code": "4117503"
      },
      "geometry": {
        "type": "Point",
        "coordinates": [
          -51.68952708458986,
          -23.9052545196779
        ]
      }
    },
    {
      "type": "Feature",
      "properties": {
        "municipality": "Palmas",
        "state": "PR",
        "crop": "Alho",
        "hectares": 1.0,
        "production": 1.0,
        "year": 2023,
        "region": "Sul",
        "ibge_code": "4117602"
      },
      "geometry": {
        "type": "Point",
        "coordinates": [
          -50.46319247708827,
          -25.829885051915305
        ]
      }
    },
    {
      "type": "Feature",
      "properties": {
        "municipality": "Palmeira",
        "state": "PR",
        "crop": "Alho",
        "hectares": 4.0,
        "production": 4.0,
        "year": 2023,
        "region": "Sul",
        "ibge_code": "4117701"
      },
      "geometry": {
        "type": "Point",
        "coordinates": [
          -51.6255625206871,
          -24.73158484760864
        ]
      }
    },
    {
      "type": "Feature",
      "properties": {
        "municipality": "Pato Branco",
        "state": "PR",
        "crop": "Alho",
        "hectares": 2.0,
        "production": 2.0,
        "year": 2023,
        "region": "Sul",
        "ibge_code": "4118501"
      },
      "geometry": {
        "type": "Point",
        "coordinates": [
          -51.63590979512252,
          -25.0036285469629
        ]
      }
    },
    {
      "type": "Feature",
      "properties": {
        "municipality": "Paula Freitas",
        "state": "PR",
        "crop": "Alho",
        "hectares": 1.0,
        "production": 1.0,
        "year": 2023,
        "region": "Sul",
        "ibge_code": "4118600"
      },
      "geometry": {
        "type": "Point",
        "coordinates": [
          -50.83964205525845,
          -25.335075226414148
        ]
      }
    },
    {
      "type": "Feature",
      "properties": {
        "municipality": "Paulo Frontin",
        "state": "PR",
        "crop": "Alho",
        "hectares": 1.0,
        "production": 1.0,
        "year": 2023,
        "region": "Sul",
        "ibge_code": "4118709"
      },
      "geometry": {
        "type": "Point",
        "coordinates": [
          -51.63292119003692,
          -24.573506739129854
        ]
      }
    },
    {
      "type": "Feature",
      "properties": {
        "municipality": "Peabiru",
        "state": "PR",
        "crop": "Alho",
        "hectares": 1.0,
        "production": 1.0,
        "year": 2023,
        "region": "Sul",
        "ibge_code": "4118808"
      },
      "geometry": {
        "type": "Point",
        "coordinates": [
          -50.533183155660986,
          -24.719871459036742
        ]
      }
    },