{
  "type": "FeatureCollection",
  "name": "Amendoim (em casca)_production",
  "features": [
    {
      "type": "Feature",
      "properties": {
        "municipality": "Alta Floresta D'Oeste",
        "state": "RO",
        "crop": "Amendoim (em casca)",
        "hectares": 3.0,
        "production": 3.0,
        "year": 2023,
        "region": "Norte",
        "ibge_code": "1100015"
      },
      "geometry": {
        "type": "Point",
        "coordinates": [
          -63.47108362081896,
          -10.656134520148264
        ]
      }
    },
    {
      "type": "Feature",
      "properties": {
        "municipality": "Cabixi",
        "state": "RO",
        "crop": "Amendoim (em casca)",
        "hectares": 2.0,
        "production": 2.0,
        "year": 2023,
        "region": "Norte",
        "ibge_code": "1100031"
      },
      "geometry": {
        "type": "Point",
        "coordinates": [
          -63.09702602147854,
          -11.259896610220595
        ]
      }
    },
    {
      "type": "Feature",
      "properties": {
        "municipality": "Cacoal",
        "state": "RO",
        "crop": "Amendoim (em casca)",
        "hectares": 4.0,
        "production": 4.0,
        "year": 2023,
        "region": "Norte",
        "ibge_code": "1100049"
      },
      "geometry": {
        "type": "Point",
        "coordinates": [
          -62.79958886846444,
          -12.106099838063882
        ]
      }
    },
    {
      "type": "Feature",
      "properties": {
        "municipality": "Cerejeiras",
        "state": "RO",
        "crop": "Amendoim (em casca)",
        "hectares": 3.0,
        "production": 3.0,
        "year": 2023,
        "region": "Norte",
        "ibge_code": "1100056"
      },
      "geometry": {
        "type": "Point",
        "coordinates": [
          -64.47696670463657,
          -11.617781211289145
        ]
      }
    },
    {
      "type": "Feature",
      "properties": {
        "municipality": "Colorado do Oeste",
        "state": "RO",
        "crop": "Amendoim (em casca)",
        "hectares": 1.0,
        "production": 1.0,
        "year": 2023,
        "region": "Norte",
        "ibge_code": "1100064"
      },
      "geometry": {
        "type": "Point",
        "coordinates": [
          -64.20053708514064,
          -12.378133038890928
        ]
      }
    },
    {
      "type": "Feature",
      "properties": {
        "municipality": "Corumbiara",
        "state": "RO",
        "crop": "Amendoim (em casca)",
        "hectares": 3.0,
        "production": 3.0,
        "year": 2023,
        "region": "Norte",
        "ibge_code": "1100072"
      },
      "geometry": {
        "type": "Point",
        "coordinates": [
          -63.15845788701966,
          -11.206901103516405
        ]
      }
    },
    {
      "type": "Feature",
      "properties": {
        "municipality": "Jaru",
        "state": "RO",
        "crop": "Amendoim (em casca)",
        "hectares": 3.0,
        "production": 3.0,
        "year": 2023,
        "region": "Norte",
        "ibge_code": "1100114"
      },
      "geometry": {
        "type": "Point",
        "coordinates": [
          -63.67403057367075,
          -11.493819172459503
        ]
      }
    },
    {
      "type": "Feature",
      "properties": {
        "municipality": "Ji-Paraná",
        "state": "RO",
        "crop": "Amendoim (em casca)",
        "hectares": 1.0,
        "production": 1.0,
        "year": 2023,
        "region": "Norte",
        "ibge_code": "1100122"
      },
      "geometry": {
        "type": "Point",
        "coordinates": [
          -63.54652753575108,
          -11.014580747632994
        ]
      }
    },
    {
      "type": "Feature",
      "properties": {
        "municipality": "Machadinho D'Oeste",
        "state": "RO",
        "crop": "Amendoim (em casca)",
        "hectares": 9.0,
        "production": 9.0,
        "year": 2023,
        "region": "Norte",
        "ibge_code": "1100130"
      },
      "geometry": {
        "type": "Point",
        "coordinates": [
          -63.35799059545948,
          -11.196820362076354
        ]
      }
    },
    {
      "type": "Feature",
      "properties": {
        "municipality": "Nova Brasilândia D'Oeste",
        "state": "RO",
        "crop": "Amendoim (em casca)",
        "hectares": 2.0,
        "production": 2.0,
        "year": 2023,
        "region": "Norte",
        "ibge_code": "1100148"
      },
      "geometry": {
        "type": "Point",
        "coordinates": [
          -63.36481135333994,
          -11.38568795223679
        ]
      }
    },
    {
      "type": "Feature",
      "properties": {
        "municipality": "Porto Velho",
        "state": "RO",
        "crop": "Amendoim (em casca)",
        "hectares": 2.0,
        "production": 2.0,
        "year": 2023,
        "region": "Norte",
        "ibge_code": "1100205"
      },
      "geometry": {
        "type": "Point",
        "coordinates": [
          -63.63358436368998,
          -10.70297687930321
        ]
      }
    },
    {
      "type": "Feature",
      "properties": {
        "municipality": "Presidente Médici",
        "state": "RO",
        "crop": "Amendoim (em casca)",
        "hectares": 2.0,
        "production": 2.0,
        "year": 2023,
        "region": "Norte",
        "ibge_code": "1100254"
      },
      "geometry": {
        "type": "Point",
        "coordinates": [
          -63.804530540760624,
          -10.637176074592054
        ]
      }
    },
    {
      "type": "Feature",
      "properties": {
        "municipality": "Rolim de Moura",
        "state": "RO",
        "crop": "Amendoim (em casca)",
        "hectares": 3.0,
        "production": 3.0,
        "year": 2023,
        "region": "Norte",
        "ibge_code": "1100288"
      },
      "geometry": {
        "type": "Point",
        "coordinates": [
          -64.27038086711889,
          -10.87933364579586
        ]
      }
    },
    {
      "type": "Feature",
      "properties": {
        "municipality": "Vilhena",
        "state": "RO",
        "crop": "Amendoim (em casca)",
        "hectares": 3.0,
        "production": 3.0,
        "year": 2023,
        "region": "Norte",
        "ibge_code": "1100304"
      },
      "geometry": {
        "type": "Point",
        "coordinates": [
          -63.86284000241561,
          -10.54799261760644
        ]
      }
    },
    {
      "type": "Feature",
      "properties": {
        "municipality": "Nova Mamoré",
        "state": "RO",
        "crop": "Amendoim (em casca)",
        "hectares": 2.0,
        "production": 2.0,
        "year": 2023,
        "region": "Norte",
        "ibge_code": "1100338"
      },
      "geometry": {
        "type": "Point",
        "coordinates": [
          -62.836082238306204,
          -11.40668837618645
        ]
      }
    },
    {
      "type": "Feature",
      "properties": {
        "municipality": "Alto Alegre dos Parecis",
        "state": "RO",
        "crop": "Amendoim (em casca)",
        "hectares": 1.0,
        "production": 1.0,
        "year": 2023,
        "region": "Norte",
        "ibge_code": "1100379"
      },
      "geometry": {
        "type": "Point",
        "coordinates": [
          -63.599844517858365,
          -10.990922536568295
        ]
      }
    },
    {
      "type": "Feature",
      "properties": {
        "municipality": "Buritis",
        "state": "RO",
        "crop": "Amendoim (em casca)",
        "hectares": 3.0,
        "production": 3.0,
        "year": 2023,
        "region": "Norte",
        "ibge_code": "1100452"
      },
      "geometry": {
        "type": "Point",
        "coordinates": [
          -64.18659542109238,
          -10.653153199456273
        ]
      }
    },
    {
      "type": "Feature",
      "properties": {
        "municipality": "Campo Novo de Rondônia",
        "state": "RO",
        "crop": "Amendoim (em casca)",
        "hectares": 3.0,
        "production": 3.0,
        "year": 2023,
        "region": "Norte",
        "ibge_code": "1100700"
      },
      "geometry": {
        "type": "Point",
        "coordinates": [
          -64.10129994498661,
          -10.976126157271931
        ]
      }
    },
    {
      "type": "Feature",
      "properties": {
        "municipality": "Chupinguaia",
        "state": "RO",
        "crop": "Amendoim (em casca)",
        "hectares": 2.0,
        "production": 2.0,
        "year": 2023,
        "region": "Norte",
        "ibge_code": "1100924"
      },
      "geometry": {
        "type": "Point",
        "coordinates": [
          -62.759677440502905,
          -12.190954971005938
        ]
      }
    },
    {
      "type": "Feature",
      "properties": {
        "municipality": "Cujubim",
        "state": "RO",
        "crop": "Amendoim (em casca)",
        "hectares": 2.0,
        "production": 2.0,
        "year": 2023,
        "region": "Norte",
        "ibge_code": "1100940"
      },
      "geometry": {
        "type": "Point",
        "coordinates": [
          -62.66580633387573,
          -11.981285168630647
        ]
      }
    },
    {
      "type": "Feature",
      "properties": {
        "municipality": "Governador Jorge Teixeira",
        "state": "RO",
        "crop": "Amendoim (em casca)",
        "hectares": 7.0,
        "production": 7.0,
        "year": 2023,
        "region": "Norte",
        "ibge_code": "1101005"
      },
      "geometry": {
        "type": "Point",
        "coordinates": [
          -63.20907622560592,
          -11.174479049667092
        ]
      }
    },
    {
      "type": "Feature",
      "properties": {
        "municipality": "Mirante da Serra",
        "state": "RO",
        "crop": "Amendoim (em casca)",
        "hectares": 4.0,
        "production": 4.0,
        "year": 2023,
        "region": "Norte",
        "ibge_code": "1101302"
      },
      "geometry": {
        "type": "Point",
        "coordinates": [
          -63.48499549300005,
          -11.961857622275188
        ]
      }
    },
    {
      "type": "Feature",
      "properties": {
        "municipality": "Primavera de Rondônia",
        "state": "RO",
        "crop": "Amendoim (em casca)",
        "hectares": 2.0,
        "production": 2.0,
        "year": 2023,
        "region": "Norte",
        "ibge_code": "1101476"
      },
      "geometry": {
        "type": "Point",
        "coordinates": [
          -64.44617177332965,
          -10.875916926893682
        ]
      }
    },
    {
      "type": "Feature",
      "properties": {
        "municipality": "São Felipe D'Oeste",
        "state": "RO",
        "crop": "Amendoim (em casca)",
        "hectares": 3.0,
        "production": 3.0,
        "year": 2023,
        "region": "Norte",
        "ibge_code": "1101484"
      },
      "geometry": {
        "type": "Point",
        "coordinates": [
          -63.023236007096536,
          -11.741252601805476
        ]
      }
    },
    {
      "type": "Feature",
      "properties": {
        "municipality": "Seringueiras",
        "state": "RO",
        "crop": "Amendoim (em casca)",
        "hectares": 2.0,
        "production": 2.0,
        "year": 2023,
        "region": "Norte",
        "ibge_code": "1101500"
      },
      "geometry": {
        "type": "Point",
        "coordinates": [
          -62.949331273934966,
          -12.244659540198658
        ]
      }
    },
    {
      "type": "Feature",
      "properties": {
        "municipality": "Vale do Anari",
        "state": "RO",
        "crop": "Amendoim (em casca)",
        "hectares": 4.0,
        "production": 4.0,
        "year": 2023,
        "region": "Norte",
        "ibge_code": "1101757"
      },
      "geometry": {
        "type": "Point",
        "coordinates": [
          -62.836872625954854,
          -10.585778139610088
        ]
      }
    },
    {
      "type": "Feature",
      "properties": {
        "municipality": "Vale do Paraíso",
        "state": "RO",
        "crop": "Amendoim (em casca)",
        "hectares": 1.0,
        "production": 1.0,
        "year": 2023,
        "region": "Norte",
        "ibge_code": "1101807"
      },
      "geometry": {
        "type": "Point",
        "coordinates": [
          -64.3959981009997,
          -10.511338329591068
        ]
      }
    },
    {
      "type": "Feature",
      "properties": {
        "municipality": "Capixaba",
        "state": "AC",
        "crop": "Amendoim (em casca)",
        "hectares": 7.0,
        "production": 7.0,
        "year": 2023,
        "region": "Norte",
        "ibge_code": "1200179"
      },
      "geometry": {
        "type": "Point",
        "coordinates": [
          -70.47982488555012,
          -9.061306731853383
        ]
      }
    },
    {
      "type": "Feature",
      "properties": {
        "municipality": "Plácido de Castro",
        "state": "AC",
        "crop": "Amendoim (em casca)",
        "hectares": 5.0,
        "production": 5.0,
        "year": 2023,
        "region": "Norte",
        "ibge_code": "1200385"
      },
      "geometry": {
        "type": "Point",
        "coordinates": [
          -70.44148401407092,
          -9.505783016569053
        ]
      }
    },
    {
      "type": "Feature",
      "properties": {
        "municipality": "Santa Rosa do Purus",
        "state": "AC",
        "crop": "Amendoim (em casca)",
        "hectares": 50.0,
        "production": 50.0,
        "year": 2023,
        "region": "Norte",
        "ibge_code": "1200435"
      },
      "geometry": {
        "type": "Point",
        "coordinates": [
          -71.60137584075909,
          -8.861916188365523
        ]
      }
    },
    {
      "type": "Feature",
      "properties": {
        "municipality": "Senador Guiomard",
        "state": "AC",
        "crop": "Amendoim (em casca)",
        "hectares": 4.0,
        "production": 4.0,
        "year": 2023,
        "region": "Norte",
        "ibge_code": "1200450"
      },
      "geometry": {
        "type": "Point",
        "coordinates": [
          -70.43474447329871,
          -8.769959231713251
        ]
      }
    },
    {
      "type": "Feature",
      "properties": {
        "municipality": "Porto Acre",
        "state": "AC",
        "crop": "Amendoim (em casca)",
        "hectares": 3.0,
        "production": 3.0,
        "year": 2023,
        "region": "Norte",
        "ibge_code": "1200807"
      },
      "geometry": {
        "type": "Point",
        "coordinates": [
          -70.2144387294905,
          -8.114400206944513
        ]
      }
    },
    {
      "type": "Feature",
      "properties": {
        "municipality": "Altamira",
        "state": "PA",
        "crop": "Amendoim (em casca)",
        "hectares": 3.0,
        "production": 3.0,
        "year": 2023,
        "region": "Norte",
        "ibge_code": "1500602"
      },
      "geometry": {
        "type": "Point",
        "coordinates": [
          -52.35017657269312,
          -3.3428432995326123
        ]
      }
    },
    {
      "type": "Feature",
      "properties": {
        "municipality": "Aveiro",
        "state": "PA",
        "crop": "Amendoim (em casca)",
        "hectares": 5.0,
        "production": 5.0,
        "year": 2023,
        "region": "Norte",
        "ibge_code": "1501006"
      },
      "geometry": {
        "type": "Point",
        "coordinates": [
          -52.464400505399674,
          -2.887313281280502
        ]
      }
    },
    {
      "type": "Feature",
      "properties": {
        "municipality": "Bom Jesus do Tocantins",
        "state": "PA",
        "crop": "Amendoim (em casca)",
        "hectares": 5.0,
        "production": 5.0,
        "year": 2023,
        "region": "Norte",
        "ibge_code": "1501576"
      },
      "geometry": {
        "type": "Point",
        "coordinates": [
          -51.63019099079526,
          -3.977939276799733
        ]
      }
    },
    {
      "type": "Feature",
      "properties": {
        "municipality": "Dom Eliseu",
        "state": "PA",
        "crop": "Amendoim (em casca)",
        "hectares": 6.0,
        "production": 6.0,
        "year": 2023,
        "region": "Norte",
        "ibge_code": "1502939"
      },
      "geometry": {
        "type": "Point",
        "coordinates": [
          -53.3583033317958,
          -3.096750837531827
        ]
      }
    },
    {
      "type": "Feature",
      "properties": {
        "municipality": "Itaituba",
        "state": "PA",
        "crop": "Amendoim (em casca)",
        "hectares": 5.0,
        "production": 5.0,
        "year": 2023,
        "region": "Norte",
        "ibge_code": "1503606"
      },
      "geometry": {
        "type": "Point",
        "coordinates": [
          -51.84811027495047,
          -2.9321150601668453
        ]
      }
    },
    {
      "type": "Feature",
      "properties": {
        "municipality": "Monte Alegre",
        "state": "PA",
        "crop": "Amendoim (em casca)",
        "hectares": 8.0,
        "production": 8.0,
        "year": 2023,
        "region": "Norte",
        "ibge_code": "1504802"
      },
      "geometry": {
        "type": "Point",
        "coordinates": [
          -53.0767883117854,
          -3.3428924084353797
        ]
      }
    },
    {
      "type": "Feature",
      "properties": {
        "municipality": "Novo Progresso",
        "state": "PA",
        "crop": "Amendoim (em casca)",
        "hectares": 2.0,
        "production": 2.0,
        "year": 2023,
        "region": "Norte",
        "ibge_code": "1505031"
      },
      "geometry": {
        "type": "Point",
        "coordinates": [
          -51.65695353186815,
          -3.4786588363896054
        ]
      }
    },
    {
      "type": "Feature",
      "properties": {
        "municipality": "Pacajá",
        "state": "PA",
        "crop": "Amendoim (em casca)",
        "hectares": 3.0,
        "production": 3.0,
        "year": 2023,
        "region": "Norte",
        "ibge_code": "1505486"
      },
      "geometry": {
        "type": "Point",
        "coordinates": [
          -51.8555387294905,
          -2.802600206944514
        ]
      }
    },
    {
      "type": "Feature",
      "properties": {
        "municipality": "Ulianópolis",
        "state": "PA",
        "crop": "Amendoim (em casca)",
        "hectares": 50.0,
        "production": 50.0,
        "year": 2023,
        "region": "Norte",
        "ibge_code": "1508126"
      },
      "geometry": {
        "type": "Point",
        "coordinates": [
          -51.64721390084523,
          -4.604591659871788
        ]
      }
    },
    {
      "type": "Feature",
      "properties": {
        "municipality": "Araguatins",
        "state": "TO",
        "crop": "Amendoim (em casca)",
        "hectares": 2.0,
        "production": 2.0,
        "year": 2023,
        "region": "Norte",
        "ibge_code": "1702208"
      },
      "geometry": {
        "type": "Point",
        "coordinates": [
          -49.20052092251334,
          -10.86490723877946
        ]
      }
    },
    {
      "type": "Feature",
      "properties": {
        "municipality": "Carrasco Bonito",
        "state": "TO",
        "crop": "Amendoim (em casca)",
        "hectares": 2.0,
        "production": 2.0,
        "year": 2023,
        "region": "Norte",
        "ibge_code": "1703891"
      },
      "geometry": {
        "type": "Point",
        "coordinates": [
          -48.093360581409726,
          -10.66760436636211
        ]
      }
    },
    {
      "type": "Feature",
      "properties": {
        "municipality": "Esperantina",
        "state": "TO",
        "crop": "Amendoim (em casca)",
        "hectares": 2.0,
        "production": 2.0,
        "year": 2023,
        "region": "Norte",
        "ibge_code": "1707405"
      },
      "geometry": {
        "type": "Point",
        "coordinates": [
          -49.255632588358765,
          -9.662042241292966
        ]
      }
    },
    {
      "type": "Feature",
      "properties": {
        "municipality": "São Miguel do Tocantins",
        "state": "TO",
        "crop": "Amendoim (em casca)",
        "hectares": 2.0,
        "production": 2.0,
        "year": 2023,
        "region": "Norte",
        "ibge_code": "1720200"
      },
      "geometry": {
        "type": "Point",
        "coordinates": [
          -48.05039421713804,
          -11.086148410243318
        ]
      }
    },
    {
      "type": "Feature",
      "properties": {
        "municipality": "São Sebastião do Tocantins",
        "state": "TO",
        "crop": "Amendoim (em casca)",
        "hectares": 1.0,
        "production": 1.0,
        "year": 2023,
        "region": "Norte",
        "ibge_code": "1720309"
      },
      "geometry": {
        "type": "Point",
        "coordinates": [
          -48.30757953605917,
          -9.828808329829258
        ]
      }
    },
    {
      "type": "Feature",
      "properties": {
        "municipality": "Sítio Novo do Tocantins",
        "state": "TO",
        "crop": "Amendoim (em casca)",
        "hectares": 2.0,
        "production": 2.0,
        "year": 2023,
        "region": "Norte",
        "ibge_code": "1720804"
      },
      "geometry": {
        "type": "Point",
        "coordinates": [
          -49.21745402393395,
          -9.549556707700297
        ]
      }
    },
    {
      "type": "Feature",
      "properties": {
        "municipality": "Açailândia",
        "state": "MA",
        "crop": "Amendoim (em casca)",
        "hectares": 6.0,
        "production": 6.0,
        "year": 2023,
        "region": "Nordeste",
        "ibge_code": "2100055"
      },
      "geometry": {
        "type": "Point",
        "coordinates": [
          -45.48886088406008,
          -4.731406210845574
        ]
      }
    },
    {
      "type": "Feature",
      "properties": {
        "municipality": "Cidelândia",
        "state": "MA",
        "crop": "Amendoim (em casca)",
        "hectares": 4.0,
        "production": 4.0,
        "year": 2023,
        "region": "Nordeste",
        "ibge_code": "2103257"
      },
      "geometry": {
        "type": "Point",
        "coordinates": [
          -46.19011565498298,
          -4.769862532942345
        ]
      }
    },
    {
      "type": "Feature",
      "properties": {
        "municipality": "Estreito",
        "state": "MA",
        "crop": "Amendoim (em casca)",
        "hectares": 4.0,
        "production": 4.0,
        "year": 2023,
        "region": "Nordeste",
        "ibge_code": "2104057"
      },
      "geometry": {
        "type": "Point",
        "coordinates": [
          -45.77248948621039,
          -5.211292489120542
        ]
      }
    },
    {
      "type": "Feature",
      "properties": {
        "municipality": "Governador Eugênio Barros",
        "state": "MA",
        "crop": "Amendoim (em casca)",
        "hectares": 18.0,
        "production": 18.0,
        "year": 2023,
        "region": "Nordeste",
        "ibge_code": "2104602"
      },
      "geometry": {
        "type": "Point",
        "coordinates": [
          -45.277327431162945,
          -4.02521965206867
        ]
      }
    },
    {
      "type": "Feature",
      "properties": {
        "municipality": "Imperatriz",
        "state": "MA",
        "crop": "Amendoim (em casca)",
        "hectares": 1.0,
        "production": 1.0,
        "year": 2023,
        "region": "Nordeste",
        "ibge_code": "2105302"
      },
      "geometry": {
        "type": "Point",
        "coordinates": [
          -45.38795810873852,
          -4.817094300099886
        ]
      }
    },
    {
      "type": "Feature",
      "properties": {
        "municipality": "Itinga do Maranhão",
        "state": "MA",
        "crop": "Amendoim (em casca)",
        "hectares": 6.0,
        "production": 6.0,
        "year": 2023,
        "region": "Nordeste",
        "ibge_code": "2105427"
      },
      "geometry": {
        "type": "Point",
        "coordinates": [
          -44.66106401325876,
          -5.557530562748136
        ]
      }
    },
    {
      "type": "Feature",
      "properties": {
        "municipality": "João Lisboa",
        "state": "MA",
        "crop": "Amendoim (em casca)",
        "hectares": 3.0,
        "production": 3.0,
        "year": 2023,
        "region": "Nordeste",
        "ibge_code": "2105500"
      },
      "geometry": {
        "type": "Point",
        "coordinates": [
          -44.96343717009833,
          -5.859951602483494
        ]
      }
    },
    {
      "type": "Feature",
      "properties": {
        "municipality": "Marajá do Sena",
        "state": "MA",
        "crop": "Amendoim (em casca)",
        "hectares": 2.0,
        "production": 2.0,
        "year": 2023,
        "region": "Nordeste",
        "ibge_code": "2106359"
      },
      "geometry": {
        "type": "Point",
        "coordinates": [
          -45.383207653309576,
          -5.502231820996938
        ]
      }
    },
    {
      "type": "Feature",
      "properties": {
        "municipality": "Pindaré-Mirim",
        "state": "MA",
        "crop": "Amendoim (em casca)",
        "hectares": 23.0,
        "production": 23.0,
        "year": 2023,
        "region": "Nordeste",
        "ibge_code": "2108504"
      },
      "geometry": {
        "type": "Point",
        "coordinates": [
          -45.46987725992147,
          -5.533453169011138
        ]
      }
    },
    {
      "type": "Feature",
      "properties": {
        "municipality": "Porto Franco",
        "state": "MA",
        "crop": "Amendoim (em casca)",
        "hectares": 3.0,
        "production": 3.0,
        "year": 2023,
        "region": "Nordeste",
        "ibge_code": "2109007"
      },
      "geometry": {
        "type": "Point",
        "coordinates": [
          -44.75063097548234,
          -5.749481599477188
        ]
      }
    },
    {
      "type": "Feature",
      "properties": {
        "municipality": "Santa Inês",
        "state": "MA",
        "crop": "Amendoim (em casca)",
        "hectares": 17.0,
        "production": 17.0,
        "year": 2023,
        "region": "Nordeste",
        "ibge_code": "2109908"
      },
      "geometry": {
        "type": "Point",
        "coordinates": [
          -45.456565586101064,
          -5.546190060770028
        ]
      }
    },
    {
      "type": "Feature",
      "properties": {
        "municipality": "São Francisco do Brejão",
        "state": "MA",
        "crop": "Amendoim (em casca)",
        "hectares": 6.0,
        "production": 6.0,
        "year": 2023,
        "region": "Nordeste",
        "ibge_code": "2110856"
      },
      "geometry": {
        "type": "Point",
        "coordinates": [
          -44.571599249969104,
          -4.148157689477076
        ]
      }
    },
    {
      "type": "Feature",
      "properties": {
        "municipality": "São Pedro da Água Branca",
        "state": "MA",
        "crop": "Amendoim (em casca)",
        "hectares": 6.0,
        "production": 6.0,
        "year": 2023,
        "region": "Nordeste",
        "ibge_code": "2111532"
      },
      "geometry": {
        "type": "Point",
        "coordinates": [
          -44.833967668957875,
          -4.616331527922901
        ]
      }
    },
    {
      "type": "Feature",
      "properties": {
        "municipality": "Vila Nova dos Martírios",
        "state": "MA",
        "crop": "Amendoim (em casca)",
        "hectares": 5.0,
        "production": 5.0,
        "year": 2023,
        "region": "Nordeste",
        "ibge_code": "2112852"
      },
      "geometry": {
        "type": "Point",
        "coordinates": [
          -44.70026902450206,
          -4.442549614460047
        ]
      }
    },
    {
      "type": "Feature",
      "properties": {
        "municipality": "Francisco Macedo",
        "state": "PI",
        "crop": "Amendoim (em casca)",
        "hectares": 20.0,
        "production": 20.0,
        "year": 2023,
        "region": "Nordeste",
        "ibge_code": "2204154"
      },
      "geometry": {
        "type": "Point",
        "coordinates": [
          -42.33358536195706,
          -8.773636594590045
        ]
      }
    },
    {
      "type": "Feature",
      "properties": {
        "municipality": "Itaueira",
        "state": "PI",
        "crop": "Amendoim (em casca)",
        "hectares": 15.0,
        "production": 15.0,
        "year": 2023,
        "region": "Nordeste",
        "ibge_code": "2205102"
      },
      "geometry": {
        "type": "Point",
        "coordinates": [
          -43.46071657457131,
          -8.745668715326172
        ]
      }
    },
    {
      "type": "Feature",
      "properties": {
        "municipality": "Padre Marcos",
        "state": "PI",
        "crop": "Amendoim (em casca)",
        "hectares": 12.0,
        "production": 12.0,
        "year": 2023,
        "region": "Nordeste",
        "ibge_code": "2207207"
      },
      "geometry": {
        "type": "Point",
        "coordinates": [
          -43.148841918482645,
          -7.737361524152257
        ]
      }
    },
    {
      "type": "Feature",
      "properties": {
        "municipality": "Santa Luz",
        "state": "PI",
        "crop": "Amendoim (em casca)",
        "hectares": 4.0,
        "production": 4.0,
        "year": 2023,
        "region": "Nordeste",
        "ibge_code": "2209302"
      },
      "geometry": {
        "type": "Point",
        "coordinates": [
          -42.707585573170775,
          -8.863263601609127
        ]
      }
    },
    {
      "type": "Feature",
      "properties": {
        "municipality": "Abaiara",
        "state": "CE",
        "crop": "Amendoim (em casca)",
        "hectares": 10.0,
        "production": 10.0,
        "year": 2023,
        "region": "Nordeste",
        "ibge_code": "2300101"
      },
      "geometry": {
        "type": "Point",
        "coordinates": [
          -38.73466355637029,
          -4.96766769978391
        ]
      }
    },
    {
      "type": "Feature",
      "properties": {
        "municipality": "Acopiara",
        "state": "CE",
        "crop": "Amendoim (em casca)",
        "hectares": 2.0,
        "production": 2.0,
        "year": 2023,
        "region": "Nordeste",
        "ibge_code": "2300309"
      },
      "geometry": {
        "type": "Point",
        "coordinates": [
          -39.56613530216167,
          -6.303296725881075
        ]
      }
    },
    {
      "type": "Feature",
      "properties": {
        "municipality": "Altaneira",
        "state": "CE",
        "crop": "Amendoim (em casca)",
        "hectares": 2.0,
        "production": 2.0,
        "year": 2023,
        "region": "Nordeste",
        "ibge_code": "2300606"
      },
      "geometry": {
        "type": "Point",
        "coordinates": [
          -38.50642363759442,
          -5.736041331896602
        ]
      }
    },
    {
      "type": "Feature",
      "properties": {
        "municipality": "Assaré",
        "state": "CE",
        "crop": "Amendoim (em casca)",
        "hectares": 12.0,
        "production": 12.0,
        "year": 2023,
        "region": "Nordeste",
        "ibge_code": "2301604"
      },
      "geometry": {
        "type": "Point",
        "coordinates": [
          -39.2072165397052,
          -5.509425128041131
        ]
      }
    },
    {
      "type": "Feature",
      "properties": {
        "municipality": "Barbalha",
        "state": "CE",
        "crop": "Amendoim (em casca)",
        "hectares": 4.0,
        "production": 4.0,
        "year": 2023,
        "region": "Nordeste",
        "ibge_code": "2301901"
      },
      "geometry": {
        "type": "Point",
        "coordinates": [
          -39.429407653309575,
          -6.039731820996939
        ]
      }
    },
    {
      "type": "Feature",
      "properties": {
        "municipality": "Brejo Santo",
        "state": "CE",
        "crop": "Amendoim (em casca)",
        "hectares": 12.0,
        "production": 12.0,
        "year": 2023,
        "region": "Nordeste",
        "ibge_code": "2302503"
      },
      "geometry": {
        "type": "Point",
        "coordinates": [
          -39.89289680335442,
          -6.462805043332061
        ]
      }
    },
    {
      "type": "Feature",
      "properties": {
        "municipality": "Campos Sales",
        "state": "CE",
        "crop": "Amendoim (em casca)",
        "hectares": 5.0,
        "production": 5.0,
        "year": 2023,
        "region": "Nordeste",
        "ibge_code": "2302701"
      },
      "geometry": {
        "type": "Point",
        "coordinates": [
          -39.37407982207067,
          -5.142425732708682
        ]
      }
    },
    {
      "type": "Feature",
      "properties": {
        "municipality": "Caririaçu",
        "state": "CE",
        "crop": "Amendoim (em casca)",
        "hectares": 19.0,
        "production": 19.0,
        "year": 2023,
        "region": "Nordeste",
        "ibge_code": "2303204"
      },
      "geometry": {
        "type": "Point",
        "coordinates": [
          -40.0636654501673,
          -6.413305885597737
        ]
      }
    },
    {
      "type": "Feature",
      "properties": {
        "municipality": "Cariús",
        "state": "CE",
        "crop": "Amendoim (em casca)",
        "hectares": 3.0,
        "production": 3.0,
        "year": 2023,
        "region": "Nordeste",
        "ibge_code": "2303303"
      },
      "geometry": {
        "type": "Point",
        "coordinates": [
          -38.62247294355672,
          -5.712703231724526
        ]
      }
    },
    {
      "type": "Feature",
      "properties": {
        "municipality": "Crato",
        "state": "CE",
        "crop": "Amendoim (em casca)",
        "hectares": 110.0,
        "production": 110.0,
        "year": 2023,
        "region": "Nordeste",
        "ibge_code": "2304202"
      },
      "geometry": {
        "type": "Point",
        "coordinates": [
          -39.219310200990265,
          -5.40110882612946
        ]
      }
    },
    {
      "type": "Feature",
      "properties": {
        "municipality": "Farias Brito",
        "state": "CE",
        "crop": "Amendoim (em casca)",
        "hectares": 75.0,
        "production": 75.0,
        "year": 2023,
        "region": "Nordeste",
        "ibge_code": "2304301"
      },
      "geometry": {
        "type": "Point",
        "coordinates": [
          -40.01431384552595,
          -6.022075625354872
        ]
      }
    },
    {
      "type": "Feature",
      "properties": {
        "municipality": "Frecheirinha",
        "state": "CE",
        "crop": "Amendoim (em casca)",
        "hectares": 3.0,
        "production": 3.0,
        "year": 2023,
        "region": "Nordeste",
        "ibge_code": "2304509"
      },
      "geometry": {
        "type": "Point",
        "coordinates": [
          -40.14074120467018,
          -4.906671262479917
        ]
      }
    },
    {
      "type": "Feature",
      "properties": {
        "municipality": "Granjeiro",
        "state": "CE",
        "crop": "Amendoim (em casca)",
        "hectares": 3.0,
        "production": 3.0,
        "year": 2023,
        "region": "Nordeste",
        "ibge_code": "2304806"
      },
      "geometry": {
        "type": "Point",
        "coordinates": [
          -40.16758604431639,
          -4.877254228119114
        ]
      }
    },
    {
      "type": "Feature",
      "properties": {
        "municipality": "Ibiapina",
        "state": "CE",
        "crop": "Amendoim (em casca)",
        "hectares": 4.0,
        "production": 4.0,
        "year": 2023,
        "region": "Nordeste",
        "ibge_code": "2305308"
      },
      "geometry": {
        "type": "Point",
        "coordinates": [
          -39.46522860193161,
          -5.503027181569804
        ]
      }
    },
    {
      "type": "Feature",
      "properties": {
        "municipality": "Icó",
        "state": "CE",
        "crop": "Amendoim (em casca)",
        "hectares": 4.0,
        "production": 4.0,
        "year": 2023,
        "region": "Nordeste",
        "ibge_code": "2305407"
      },
      "geometry": {
        "type": "Point",
        "coordinates": [
          -39.0565414324755,
          -5.885665719822244
        ]
      }
    },
    {
      "type": "Feature",
      "properties": {
        "municipality": "Mauriti",
        "state": "CE",
        "crop": "Amendoim (em casca)",
        "hectares": 11.0,
        "production": 11.0,
        "year": 2023,
        "region": "Nordeste",
        "ibge_code": "2308104"
      },
      "geometry": {
        "type": "Point",
        "coordinates": [
          -38.87540299700879,
          -5.249811979160307
        ]
      }
    },
    {
      "type": "Feature",
      "properties": {
        "municipality": "Milagres",
        "state": "CE",
        "crop": "Amendoim (em casca)",
        "hectares": 2.0,
        "production": 2.0,
        "year": 2023,
        "region": "Nordeste",
        "ibge_code": "2308302"
      },
      "geometry": {
        "type": "Point",
        "coordinates": [
          -39.94470244347728,
          -5.120631178391333
        ]
      }
    },
    {
      "type": "Feature",
      "properties": {
        "municipality": "Missão Velha",
        "state": "CE",
        "crop": "Amendoim (em casca)",
        "hectares": 30.0,
        "production": 30.0,
        "year": 2023,
        "region": "Nordeste",
        "ibge_code": "2308401"
      },
      "geometry": {
        "type": "Point",
        "coordinates": [
          -38.78832048652647,
          -5.048640273890207
        ]
      }
    },
    {
      "type": "Feature",
      "properties": {
        "municipality": "Mombaça",
        "state": "CE",
        "crop": "Amendoim (em casca)",
        "hectares": 5.0,
        "production": 5.0,
        "year": 2023,
        "region": "Nordeste",
        "ibge_code": "2308500"
      },
      "geometry": {
        "type": "Point",
        "coordinates": [
          -40.166923092884225,
          -6.036241970062189
        ]
      }
    },
    {
      "type": "Feature",
      "properties": {
        "municipality": "Porteiras",
        "state": "CE",
        "crop": "Amendoim (em casca)",
        "hectares": 10.0,
        "production": 10.0,
        "year": 2023,
        "region": "Nordeste",
        "ibge_code": "2311108"
      },
      "geometry": {
        "type": "Point",
        "coordinates": [
          -40.30822234568401,
          -5.7264889258959935
        ]
      }
    },
    {
      "type": "Feature",
      "properties": {
        "municipality": "Santana do Cariri",
        "state": "CE",
        "crop": "Amendoim (em casca)",
        "hectares": 4.0,
        "production": 4.0,
        "year": 2023,
        "region": "Nordeste",
        "ibge_code": "2312106"
      },
      "geometry": {
        "type": "Point",
        "coordinates": [
          -39.64535744996065,
          -5.3682108083228846
        ]
      }
    },
    {
      "type": "Feature",
      "properties": {
        "municipality": "São Benedito",
        "state": "CE",
        "crop": "Amendoim (em casca)",
        "hectares": 5.0,
        "production": 5.0,
        "year": 2023,
        "region": "Nordeste",
        "ibge_code": "2312304"
      },
      "geometry": {
        "type": "Point",
        "coordinates": [
          -39.776124343099305,
          -4.799549968045135
        ]
      }
    },
    {
      "type": "Feature",
      "properties": {
        "municipality": "Tianguá",
        "state": "CE",
        "crop": "Amendoim (em casca)",
        "hectares": 25.0,
        "production": 25.0,
        "year": 2023,
        "region": "Nordeste",
        "ibge_code": "2313401"
      },
      "geometry": {
        "type": "Point",
        "coordinates": [
          -39.48271346699854,
          -6.216858147878329
        ]
      }
    },
    {
      "type": "Feature",
      "properties": {
        "municipality": "Várzea Alegre",
        "state": "CE",
        "crop": "Amendoim (em casca)",
        "hectares": 13.0,
        "production": 13.0,
        "year": 2023,
        "region": "Nordeste",
        "ibge_code": "2314003"
      },
      "geometry": {
        "type": "Point",
        "coordinates": [
          -38.55054570129768,
          -6.235758798620354
        ]
      }
    },
    {
      "type": "Feature",
      "properties": {
        "municipality": "Viçosa do Ceará",
        "state": "CE",
        "crop": "Amendoim (em casca)",
        "hectares": 170.0,
        "production": 170.0,
        "year": 2023,
        "region": "Nordeste",
        "ibge_code": "2314102"
      },
      "geometry": {
        "type": "Point",
        "coordinates": [
          -40.044316574571305,
          -5.687168715326172
        ]
      }
    },
    {
      "type": "Feature",
      "properties": {
        "municipality": "Caldas Brandão",
        "state": "PB",
        "crop": "Amendoim (em casca)",
        "hectares": 8.0,
        "production": 8.0,
        "year": 2023,
        "region": "Nordeste",
        "ibge_code": "2503803"
      },
      "geometry": {
        "type": "Point",
        "coordinates": [
          -36.17938966806201,
          -6.377918776310933
        ]
      }
    },
    {
      "type": "Feature",
      "properties": {
        "municipality": "Conde",
        "state": "PB",
        "crop": "Amendoim (em casca)",
        "hectares": 4.0,
        "production": 4.0,
        "year": 2023,
        "region": "Nordeste",
        "ibge_code": "2504603"
      },
      "geometry": {
        "type": "Point",
        "coordinates": [
          -36.75258557317077,
          -7.5463636016091264
        ]
      }
    },
    {
      "type": "Feature",
      "properties": {
        "municipality": "Itabaiana",
        "state": "PB",
        "crop": "Amendoim (em casca)",
        "hectares": 260.0,
        "production": 260.0,
        "year": 2023,
        "region": "Nordeste",
        "ibge_code": "2506905"
      },
      "geometry": {
        "type": "Point",
        "coordinates": [
          -36.478997602963105,
          -7.733559381870173
        ]
      }
    },
    {
      "type": "Feature",
      "properties": {
        "municipality": "Jacaraú",
        "state": "PB",
        "crop": "Amendoim (em casca)",
        "hectares": 1.0,
        "production": 1.0,
        "year": 2023,
        "region": "Nordeste",
        "ibge_code": "2507309"
      },
      "geometry": {
        "type": "Point",
        "coordinates": [
          -36.648525356073975,
          -7.958227570193668
        ]
      }
    },
    {
      "type": "Feature",
      "properties": {
        "municipality": "Mogeiro",
        "state": "PB",
        "crop": "Amendoim (em casca)",
        "hectares": 350.0,
        "production": 350.0,
        "year": 2023,
        "region": "Nordeste",
        "ibge_code": "2509404"
      },
      "geometry": {
        "type": "Point",
        "coordinates": [
          -37.570620431029866,
          -6.482608288990961
        ]
      }
    },
    {
      "type": "Feature",
      "properties": {
        "municipality": "Monte Horebe",
        "state": "PB",
        "crop": "Amendoim (em casca)",
        "hectares": 3.0,
        "production": 3.0,
        "year": 2023,
        "region": "Nordeste",
        "ibge_code": "2509602"
      },
      "geometry": {
        "type": "Point",
        "coordinates": [
          -35.94472617816014,
          -7.884125537533519
        ]
      }
    },
    {
      "type": "Feature",
      "properties": {
        "municipality": "Pedras de Fogo",
        "state": "PB",
        "crop": "Amendoim (em casca)",
        "hectares": 10.0,
        "production": 10.0,
        "year": 2023,
        "region": "Nordeste",
        "ibge_code": "2511202"
      },
      "geometry": {
        "type": "Point",
        "coordinates": [
          -36.87214599097195,
          -7.948661489791739
        ]
      }
    },
    {
      "type": "Feature",
      "properties": {
        "municipality": "Pilar",
        "state": "PB",
        "crop": "Amendoim (em casca)",
        "hectares": 8.0,
        "production": 8.0,
        "year": 2023,
        "region": "Nordeste",
        "ibge_code": "2511509"
      },
      "geometry": {
        "type": "Point",
        "coordinates": [
          -36.78328321195784,
          -6.745720149284881
        ]
      }
    },
    {
      "type": "Feature",
      "properties": {
        "municipality": "Remígio",
        "state": "PB",
        "crop": "Amendoim (em casca)",
        "hectares": 6.0,
        "production": 6.0,
        "year": 2023,
        "region": "Nordeste",
        "ibge_code": "2512705"
      },
      "geometry": {
        "type": "Point",
        "coordinates": [
          -37.22196778892766,
          -7.5261836429455276
        ]
      }
    },
    {
      "type": "Feature",
      "properties": {
        "municipality": "Riachão do Poço",
        "state": "PB",
        "crop": "Amendoim (em casca)",
        "hectares": 72.0,
        "production": 72.0,
        "year": 2023,
        "region": "Nordeste",
        "ibge_code": "2512762"
      },
      "geometry": {
        "type": "Point",
        "coordinates": [
          -35.999877564106804,
          -7.320497642283616
        ]
      }
    },
    {
      "type": "Feature",
      "properties": {
        "municipality": "São José dos Ramos",
        "state": "PB",
        "crop": "Amendoim (em casca)",
        "hectares": 37.0,
        "production": 37.0,
        "year": 2023,
        "region": "Nordeste",
        "ibge_code": "2514453"
      },
      "geometry": {
        "type": "Point",
        "coordinates": [
          -37.07424843732492,
          -7.201270016897179
        ]
      }
    },
    {
      "type": "Feature",
      "properties": {
        "municipality": "São Miguel de Taipu",
        "state": "PB",
        "crop": "Amendoim (em casca)",
        "hectares": 2.0,
        "production": 2.0,
        "year": 2023,
        "region": "Nordeste",
        "ibge_code": "2515005"
      },
      "geometry": {
        "type": "Point",
        "coordinates": [
          -36.995562550445165,
          -7.551508435841191
        ]
      }
    },
    {
      "type": "Feature",
      "properties": {
        "municipality": "Sapé",
        "state": "PB",
        "crop": "Amendoim (em casca)",
        "hectares": 10.0,
        "production": 10.0,
        "year": 2023,
        "region": "Nordeste",
        "ibge_code": "2515302"
      },
      "geometry": {
        "type": "Point",
        "coordinates": [
          -35.985853531868145,
          -7.006658836389605
        ]
      }
    },
    {
      "type": "Feature",
      "properties": {
        "municipality": "Sobrado",
        "state": "PB",
        "crop": "Amendoim (em casca)",
        "hectares": 70.0,
        "production": 70.0,
        "year": 2023,
        "region": "Nordeste",
        "ibge_code": "2515971"
      },
      "geometry": {
        "type": "Point",
        "coordinates": [
          -37.1643700769015,
          -6.58012379533367
        ]
      }
    },
    {
      "type": "Feature",
      "properties": {
        "municipality": "Petrolândia",
        "state": "PE",
        "crop": "Amendoim (em casca)",
        "hectares": 35.0,
        "production": 35.0,
        "year": 2023,
        "region": "Nordeste",
        "ibge_code": "2611002"
      },
      "geometry": {
        "type": "Point",
        "coordinates": [
          -36.914685731558386,
          -8.670728410031892
        ]
      }
    },
    {
      "type": "Feature",
      "properties": {
        "municipality": "Tacaratu",
        "state": "PE",
        "crop": "Amendoim (em casca)",
        "hectares": 4.0,
        "production": 4.0,
        "year": 2023,
        "region": "Nordeste",
        "ibge_code": "2614808"
      },
      "geometry": {
        "type": "Point",
        "coordinates": [
          -37.26966039864061,
          -8.399243810826324
        ]
      }
    },
    {
      "type": "Feature",
      "properties": {
        "municipality": "Anadia",
        "state": "AL",
        "crop": "Amendoim (em casca)",
        "hectares": 55.0,
        "production": 55.0,
        "year": 2023,
        "region": "Nordeste",
        "ibge_code": "2700201"
      },
      "geometry": {
        "type": "Point",
        "coordinates": [
          -37.592190454303314,
          -9.771306714834617
        ]
      }
    },
    {
      "type": "Feature",
      "properties": {
        "municipality": "Arapiraca",
        "state": "AL",
        "crop": "Amendoim (em casca)",
        "hectares": 45.0,
        "production": 45.0,
        "year": 2023,
        "region": "Nordeste",
        "ibge_code": "2700300"
      },
      "geometry": {
        "type": "Point",
        "coordinates": [
          -36.06053897048522,
          -9.875540352545965
        ]
      }
    },
    {
      "type": "Feature",
      "properties": {
        "municipality": "Atalaia",
        "state": "AL",
        "crop": "Amendoim (em casca)",
        "hectares": 18.0,
        "production": 18.0,
        "year": 2023,
        "region": "Nordeste",
        "ibge_code": "2700409"
      },
      "geometry": {
        "type": "Point",
        "coordinates": [
          -37.249070581440186,
          -9.589187306229848
        ]
      }
    },
    {
      "type": "Feature",
      "properties": {
        "municipality": "Boca da Mata",
        "state": "AL",
        "crop": "Amendoim (em casca)",
        "hectares": 75.0,
        "production": 75.0,
        "year": 2023,
        "region": "Nordeste",
        "ibge_code": "2701001"
      },
      "geometry": {
        "type": "Point",
        "coordinates": [
          -36.04676392430218,
          -10.510189359625253
        ]
      }
    },
    {
      "type": "Feature",
      "properties": {
        "municipality": "Branquinha",
        "state": "AL",
        "crop": "Amendoim (em casca)",
        "hectares": 5.0,
        "production": 5.0,
        "year": 2023,
        "region": "Nordeste",
        "ibge_code": "2701100"
      },
      "geometry": {
        "type": "Point",
        "coordinates": [
          -36.41897588538379,
          -8.617772911776287
        ]
      }
    },
    {
      "type": "Feature",
      "properties": {
        "municipality": "Cajueiro",
        "state": "AL",
        "crop": "Amendoim (em casca)",
        "hectares": 2.0,
        "production": 2.0,
        "year": 2023,
        "region": "Nordeste",
        "ibge_code": "2701308"
      },
      "geometry": {
        "type": "Point",
        "coordinates": [
          -37.17992707571001,
          -10.380630199043253
        ]
      }
    },
    {
      "type": "Feature",
      "properties": {
        "municipality": "Campo Alegre",
        "state": "AL",
        "crop": "Amendoim (em casca)",
        "hectares": 70.0,
        "production": 70.0,
        "year": 2023,
        "region": "Nordeste",
        "ibge_code": "2701407"
      },
      "geometry": {
        "type": "Point",
        "coordinates": [
          -36.40246615156486,
          -10.241401040333605
        ]
      }
    },
    {
      "type": "Feature",
      "properties": {
        "municipality": "Campo Grande",
        "state": "AL",
        "crop": "Amendoim (em casca)",
        "hectares": 12.0,
        "production": 12.0,
        "year": 2023,
        "region": "Nordeste",
        "ibge_code": "2701506"
      },
      "geometry": {
        "type": "Point",
        "coordinates": [
          -37.505978812410184,
          -10.457914005802104
        ]
      }
    },
    {
      "type": "Feature",
      "properties": {
        "municipality": "Capela",
        "state": "AL",
        "crop": "Amendoim (em casca)",
        "hectares": 2.0,
        "production": 2.0,
        "year": 2023,
        "region": "Nordeste",
        "ibge_code": "2701704"
      },
      "geometry": {
        "type": "Point",
        "coordinates": [
          -36.87262327242698,
          -9.627612262630949
        ]
      }
    },
    {
      "type": "Feature",
      "properties": {
        "municipality": "Carneiros",
        "state": "AL",
        "crop": "Amendoim (em casca)",
        "hectares": 1.0,
        "production": 1.0,
        "year": 2023,
        "region": "Nordeste",
        "ibge_code": "2701803"
      },
      "geometry": {
        "type": "Point",
        "coordinates": [
          -37.03610953584427,
          -8.889510667034552
        ]
      }
    },
    {
      "type": "Feature",
      "properties": {
        "municipality": "Coité do Nóia",
        "state": "AL",
        "crop": "Amendoim (em casca)",
        "hectares": 4.0,
        "production": 4.0,
        "year": 2023,
        "region": "Nordeste",
        "ibge_code": "2702009"
      },
      "geometry": {
        "type": "Point",
        "coordinates": [
          -37.22296298357027,
          -9.240257117918915
        ]
      }
    },
    {
      "type": "Feature",
      "properties": {
        "municipality": "Coruripe",
        "state": "AL",
        "crop": "Amendoim (em casca)",
        "hectares": 10.0,
        "production": 10.0,
        "year": 2023,
        "region": "Nordeste",
        "ibge_code": "2702306"
      },
      "geometry": {
        "type": "Point",
        "coordinates": [
          -36.00098886846444,
          -10.171699838063883
        ]
      }
    },
    {
      "type": "Feature",
      "properties": {
        "municipality": "Craíbas",
        "state": "AL",
        "crop": "Amendoim (em casca)",
        "hectares": 5.0,
        "production": 5.0,
        "year": 2023,
        "region": "Nordeste",
        "ibge_code": "2702355"
      },
      "geometry": {
        "type": "Point",
        "coordinates": [
          -37.07098506851128,
          -9.604161953155057
        ]
      }
    },
    {
      "type": "Feature",
      "properties": {
        "municipality": "Feira Grande",
        "state": "AL",
        "crop": "Amendoim (em casca)",
        "hectares": 240.0,
        "production": 240.0,
        "year": 2023,
        "region": "Nordeste",
        "ibge_code": "2702603"
      },
      "geometry": {
        "type": "Point",
        "coordinates": [
          -37.63962496417243,
          -9.04176787493127
        ]
      }
    },
    {
      "type": "Feature",
      "properties": {
        "municipality": "Feliz Deserto",
        "state": "AL",
        "crop": "Amendoim (em casca)",
        "hectares": 3.0,
        "production": 3.0,
        "year": 2023,
        "region": "Nordeste",
        "ibge_code": "2702702"
      },
      "geometry": {
        "type": "Point",
        "coordinates": [
          -35.97978487862293,
          -9.149932533875015
        ]
      }
    },
    {
      "type": "Feature",
      "properties": {
        "municipality": "Igreja Nova",
        "state": "AL",
        "crop": "Amendoim (em casca)",
        "hectares": 19.0,
        "production": 19.0,
        "year": 2023,
        "region": "Nordeste",
        "ibge_code": "2703205"
      },
      "geometry": {
        "type": "Point",
        "coordinates": [
          -36.61798220856418,
          -9.607686456472855
        ]
      }
    },
    {
      "type": "Feature",
      "properties": {
        "municipality": "Jequiá da Praia",
        "state": "AL",
        "crop": "Amendoim (em casca)",
        "hectares": 40.0,
        "production": 40.0,
        "year": 2023,
        "region": "Nordeste",
        "ibge_code": "2703759"
      },
      "geometry": {
        "type": "Point",
        "coordinates": [
          -36.805943584298184,
          -10.027549171231819
        ]
      }
    },
    {
      "type": "Feature",
      "properties": {
        "municipality": "Junqueiro",
        "state": "AL",
        "crop": "Amendoim (em casca)",
        "hectares": 190.0,
        "production": 190.0,
        "year": 2023,
        "region": "Nordeste",
        "ibge_code": "2704005"
      },
      "geometry": {
        "type": "Point",
        "coordinates": [
          -36.20136301863547,
          -9.635007691643745
        ]
      }
    },
    {
      "type": "Feature",
      "properties": {
        "municipality": "Lagoa da Canoa",
        "state": "AL",
        "crop": "Amendoim (em casca)",
        "hectares": 1.0,
        "production": 1.0,
        "year": 2023,
        "region": "Nordeste",
        "ibge_code": "2704104"
      },
      "geometry": {
        "type": "Point",
        "coordinates": [
          -37.65234066020871,
          -8.622829705739035
        ]
      }
    },
    {
      "type": "Feature",
      "properties": {
        "municipality": "Limoeiro de Anadia",
        "state": "AL",
        "crop": "Amendoim (em casca)",
        "hectares": 263.0,
        "production": 263.0,
        "year": 2023,
        "region": "Nordeste",
        "ibge_code": "2704203"
      },
      "geometry": {
        "type": "Point",
        "coordinates": [
          -36.68133386194668,
          -9.534879860267583
        ]
      }
    },
    {
      "type": "Feature",
      "properties": {
        "municipality": "Novo Lino",
        "state": "AL",
        "crop": "Amendoim (em casca)",
        "hectares": 1.0,
        "production": 1.0,
        "year": 2023,
        "region": "Nordeste",
        "ibge_code": "2705606"
      },
      "geometry": {
        "type": "Point",
        "coordinates": [
          -36.48812977989674,
          -8.600550289902799
        ]
      }
    },
    {
      "type": "Feature",
      "properties": {
        "municipality": "Olho d'Água Grande",
        "state": "AL",
        "crop": "Amendoim (em casca)",
        "hectares": 13.0,
        "production": 13.0,
        "year": 2023,
        "region": "Nordeste",
        "ibge_code": "2705903"
      },
      "geometry": {
        "type": "Point",
        "coordinates": [
          -35.78484991353287,
          -8.761614596018468
        ]
      }
    },
    {
      "type": "Feature",
      "properties": {
        "municipality": "Penedo",
        "state": "AL",
        "crop": "Amendoim (em casca)",
        "hectares": 10.0,
        "production": 10.0,
        "year": 2023,
        "region": "Nordeste",
        "ibge_code": "2706703"
      },
      "geometry": {
        "type": "Point",
        "coordinates": [
          -36.068580627537024,
          -9.603198110630256
        ]
      }
    },
    {
      "type": "Feature",
      "properties": {
        "municipality": "Porto Real do Colégio",
        "state": "AL",
        "crop": "Amendoim (em casca)",
        "hectares": 17.0,
        "production": 17.0,
        "year": 2023,
        "region": "Nordeste",
        "ibge_code": "2707503"
      },
      "geometry": {
        "type": "Point",
        "coordinates": [
          -36.06053897048522,
          -9.875540352545965
        ]
      }
    },
    {
      "type": "Feature",
      "properties": {
        "municipality": "Roteiro",
        "state": "AL",
        "crop": "Amendoim (em casca)",
        "hectares": 1.0,
        "production": 1.0,
        "year": 2023,
        "region": "Nordeste",
        "ibge_code": "2707800"
      },
      "geometry": {
        "type": "Point",
        "coordinates": [
          -35.96218612538054,
          -8.996497283253252
        ]
      }
    },
    {
      "type": "Feature",
      "properties": {
        "municipality": "Santana do Mundaú",
        "state": "AL",
        "crop": "Amendoim (em casca)",
        "hectares": 5.0,
        "production": 5.0,
        "year": 2023,
        "region": "Nordeste",
        "ibge_code": "2708105"
      },
      "geometry": {
        "type": "Point",
        "coordinates": [
          -36.17502673337718,
          -10.215740443505181
        ]
      }
    },
    {
      "type": "Feature",
      "properties": {
        "municipality": "São Miguel dos Campos",
        "state": "AL",
        "crop": "Amendoim (em casca)",
        "hectares": 1.0,
        "production": 1.0,
        "year": 2023,
        "region": "Nordeste",
        "ibge_code": "2708600"
      },
      "geometry": {
        "type": "Point",
        "coordinates": [
          -37.678366704636574,
          -9.683381211289147
        ]
      }
    },
    {
      "type": "Feature",
      "properties": {
        "municipality": "São Miguel dos Milagres",
        "state": "AL",
        "crop": "Amendoim (em casca)",
        "hectares": 1.0,
        "production": 1.0,
        "year": 2023,
        "region": "Nordeste",
        "ibge_code": "2708709"
      },
      "geometry": {
        "type": "Point",
        "coordinates": [
          -36.96655579784139,
          -9.746442345491444
        ]
      }
    },
    {
      "type": "Feature",
      "properties": {
        "municipality": "São Sebastião",
        "state": "AL",
        "crop": "Amendoim (em casca)",
        "hectares": 230.0,
        "production": 230.0,
        "year": 2023,
        "region": "Nordeste",
        "ibge_code": "2708808"
      },
      "geometry": {
        "type": "Point",
        "coordinates": [
          -36.87424896322359,
          -9.184683971547633
        ]
      }
    },
    {
      "type": "Feature",
      "properties": {
        "municipality": "Tanque d'Arca",
        "state": "AL",
        "crop": "Amendoim (em casca)",
        "hectares": 10.0,
        "production": 10.0,
        "year": 2023,
        "region": "Nordeste",
        "ibge_code": "2709004"
      },
      "geometry": {
        "type": "Point",
        "coordinates": [
          -36.333654205827514,
          -8.897755259085542
        ]
      }
    },
    {
      "type": "Feature",
      "properties": {
        "municipality": "Taquarana",
        "state": "AL",
        "crop": "Amendoim (em casca)",
        "hectares": 515.0,
        "production": 515.0,
        "year": 2023,
        "region": "Nordeste",
        "ibge_code": "2709103"
      },
      "geometry": {
        "type": "Point",
        "coordinates": [
          -36.65217054036131,
          -9.729210771426708
        ]
      }
    },
    {
      "type": "Feature",
      "properties": {
        "municipality": "Teotônio Vilela",
        "state": "AL",
        "crop": "Amendoim (em casca)",
        "hectares": 80.0,
        "production": 80.0,
        "year": 2023,
        "region": "Nordeste",
        "ibge_code": "2709152"
      },
      "geometry": {
        "type": "Point",
        "coordinates": [
          -37.60516398103177,
          -9.51292078925932
        ]
      }
    },
    {
      "type": "Feature",
      "properties": {
        "municipality": "União dos Palmares",
        "state": "AL",
        "crop": "Amendoim (em casca)",
        "hectares": 50.0,
        "production": 50.0,
        "year": 2023,
        "region": "Nordeste",
        "ibge_code": "2709301"
      },
      "geometry": {
        "type": "Point",
        "coordinates": [
          -36.012552657452176,
          -10.49154162372427
        ]
      }
    },
    {
      "type": "Feature",
      "properties": {
        "municipality": "Aquidabã",
        "state": "SE",
        "crop": "Amendoim (em casca)",
        "hectares": 3.0,
        "production": 3.0,
        "year": 2023,
        "region": "Nordeste",
        "ibge_code": "2800209"
      },
      "geometry": {
        "type": "Point",
        "coordinates": [
          -36.68637339753504,
          -10.585921639255497
        ]
      }
    },
    {
      "type": "Feature",
      "properties": {
        "municipality": "Arauá",
        "state": "SE",
        "crop": "Amendoim (em casca)",
        "hectares": 18.0,
        "production": 18.0,
        "year": 2023,
        "region": "Nordeste",
        "ibge_code": "2800407"
      },
      "geometry": {
        "type": "Point",
        "coordinates": [
          -38.2909033317958,
          -9.958850837531827
        ]
      }
    },
    {
      "type": "Feature",
      "properties": {
        "municipality": "Areia Branca",
        "state": "SE",
        "crop": "Amendoim (em casca)",
        "hectares": 60.0,
        "production": 60.0,
        "year": 2023,
        "region": "Nordeste",
        "ibge_code": "2800506"
      },
      "geometry": {
        "type": "Point",
        "coordinates": [
          -37.82566778892766,
          -10.860283642945527
        ]
      }
    },
    {
      "type": "Feature",
      "properties": {
        "municipality": "Boquim",
        "state": "SE",
        "crop": "Amendoim (em casca)",
        "hectares": 24.0,
        "production": 24.0,
        "year": 2023,
        "region": "Nordeste",
        "ibge_code": "2800670"
      },
      "geometry": {
        "type": "Point",
        "coordinates": [
          -38.27815948338317,
          -10.170955723815815
        ]
      }
    },
    {
      "type": "Feature",
      "properties": {
        "municipality": "Campo do Brito",
        "state": "SE",
        "crop": "Amendoim (em casca)",
        "hectares": 12.0,
        "production": 12.0,
        "year": 2023,
        "region": "Nordeste",
        "ibge_code": "2801009"
      },
      "geometry": {
        "type": "Point",
        "coordinates": [
          -36.630989133188045,
          -10.779139787979778
        ]
      }
    },
    {
      "type": "Feature",
      "properties": {
        "municipality": "Capela",
        "state": "SE",
        "crop": "Amendoim (em casca)",
        "hectares": 2.0,
        "production": 2.0,
        "year": 2023,
        "region": "Nordeste",
        "ibge_code": "2801306"
      },
      "geometry": {
        "type": "Point",
        "coordinates": [
          -37.47632327242698,
          -10.630412262630948
        ]
      }
    },
    {
      "type": "Feature",
      "properties": {
        "municipality": "Carmópolis",
        "state": "SE",
        "crop": "Amendoim (em casca)",
        "hectares": 10.0,
        "production": 10.0,
        "year": 2023,
        "region": "Nordeste",
        "ibge_code": "2801504"
      },
      "geometry": {
        "type": "Point",
        "coordinates": [
          -36.70095099448683,
          -9.994772167733789
        ]
      }
    },
    {
      "type": "Feature",
      "properties": {
        "municipality": "Cristinápolis",
        "state": "SE",
        "crop": "Amendoim (em casca)",
        "hectares": 8.0,
        "production": 8.0,
        "year": 2023,
        "region": "Nordeste",
        "ibge_code": "2801702"
      },
      "geometry": {
        "type": "Point",
        "coordinates": [
          -37.591409369227364,
          -9.683915609257443
        ]
      }
    },
    {
      "type": "Feature",
      "properties": {
        "municipality": "Cumbe",
        "state": "SE",
        "crop": "Amendoim (em casca)",
        "hectares": 2.0,
        "production": 2.0,
        "year": 2023,
        "region": "Nordeste",
        "ibge_code": "2801900"
      },
      "geometry": {
        "type": "Point",
        "coordinates": [
          -37.839056626860554,
          -10.53454411621296
        ]
      }
    },
    {
      "type": "Feature",
      "properties": {
        "municipality": "Estância",
        "state": "SE",
        "crop": "Amendoim (em casca)",
        "hectares": 15.0,
        "production": 15.0,
        "year": 2023,
        "region": "Nordeste",
        "ibge_code": "2802106"
      },
      "geometry": {
        "type": "Point",
        "coordinates": [
          -37.55182175429162,
          -10.732066927759792
        ]
      }
    },
    {
      "type": "Feature",
      "properties": {
        "municipality": "General Maynard",
        "state": "SE",
        "crop": "Amendoim (em casca)",
        "hectares": 5.0,
        "production": 5.0,
        "year": 2023,
        "region": "Nordeste",
        "ibge_code": "2802502"
      },
      "geometry": {
        "type": "Point",
        "coordinates": [
          -36.80506301863547,
          -10.637807691643744
        ]
      }
    },
    {
      "type": "Feature",
      "properties": {
        "municipality": "Indiaroba",
        "state": "SE",
        "crop": "Amendoim (em casca)",
        "hectares": 110.0,
        "production": 110.0,
        "year": 2023,
        "region": "Nordeste",
        "ibge_code": "2802809"
      },
      "geometry": {
        "type": "Point",
        "coordinates": [
          -37.9788060502752,
          -11.482881395829212
        ]
      }
    },
    {
      "type": "Feature",
      "properties": {
        "municipality": "Itabaiana",
        "state": "SE",
        "crop": "Amendoim (em casca)",
        "hectares": 120.0,
        "production": 120.0,
        "year": 2023,
        "region": "Nordeste",
        "ibge_code": "2802908"
      },
      "geometry": {
        "type": "Point",
        "coordinates": [
          -37.08269760296311,
          -11.067659381870174
        ]
      }
    },
    {
      "type": "Feature",
      "properties": {
        "municipality": "Itabaianinha",
        "state": "SE",
        "crop": "Amendoim (em casca)",
        "hectares": 10.0,
        "production": 10.0,
        "year": 2023,
        "region": "Nordeste",
        "ibge_code": "2803005"
      },
      "geometry": {
        "type": "Point",
        "coordinates": [
          -37.74512361734619,
          -11.319055739253061
        ]
      }
    },
    {
      "type": "Feature",
      "properties": {
        "municipality": "Itaporanga d'Ajuda",
        "state": "SE",
        "crop": "Amendoim (em casca)",
        "hectares": 62.0,
        "production": 62.0,
        "year": 2023,
        "region": "Nordeste",
        "ibge_code": "2803203"
      },
      "geometry": {
        "type": "Point",
        "coordinates": [
          -38.07600495100362,
          -9.58602509449667
        ]
      }
    },
    {
      "type": "Feature",
      "properties": {
        "municipality": "Japaratuba",
        "state": "SE",
        "crop": "Amendoim (em casca)",
        "hectares": 26.0,
        "production": 26.0,
        "year": 2023,
        "region": "Nordeste",
        "ibge_code": "2803302"
      },
      "geometry": {
        "type": "Point",
        "coordinates": [
          -36.985574670653506,
          -10.414482063353057
        ]
      }
    },
    {
      "type": "Feature",
      "properties": {
        "municipality": "Japoatã",
        "state": "SE",
        "crop": "Amendoim (em casca)",
        "hectares": 2.0,
        "production": 2.0,
        "year": 2023,
        "region": "Nordeste",
        "ibge_code": "2803401"
      },
      "geometry": {
        "type": "Point",
        "coordinates": [
          -38.20031315630334,
          -11.166759105157897
        ]
      }
    },
    {
      "type": "Feature",
      "properties": {
        "municipality": "Lagarto",
        "state": "SE",
        "crop": "Amendoim (em casca)",
        "hectares": 50.0,
        "production": 50.0,
        "year": 2023,
        "region": "Nordeste",
        "ibge_code": "2803500"
      },
      "geometry": {
        "type": "Point",
        "coordinates": [
          -37.58125139129463,
          -9.583010080263936
        ]
      }
    },
    {
      "type": "Feature",
      "properties": {
        "municipality": "Malhador",
        "state": "SE",
        "crop": "Amendoim (em casca)",
        "hectares": 70.0,
        "production": 70.0,
        "year": 2023,
        "region": "Nordeste",
        "ibge_code": "2803906"
      },
      "geometry": {
        "type": "Point",
        "coordinates": [
          -36.571523637594424,
          -10.8117413318966
        ]
      }
    },
    {
      "type": "Feature",
      "properties": {
        "municipality": "Moita Bonita",
        "state": "SE",
        "crop": "Amendoim (em casca)",
        "hectares": 50.0,
        "production": 50.0,
        "year": 2023,
        "region": "Nordeste",
        "ibge_code": "2804102"
      },
      "geometry": {
        "type": "Point",
        "coordinates": [
          -36.62996419252198,
          -10.656886581225876
        ]
      }
    },
    {
      "type": "Feature",
      "properties": {
        "municipality": "Nossa Senhora das Dores",
        "state": "SE",
        "crop": "Amendoim (em casca)",
        "hectares": 10.0,
        "production": 10.0,
        "year": 2023,
        "region": "Nordeste",
        "ibge_code": "2804607"
      },
      "geometry": {
        "type": "Point",
        "coordinates": [
          -38.056895101592154,
          -11.093893939867487
        ]
      }
    },
    {
      "type": "Feature",
      "properties": {
        "municipality": "Nossa Senhora do Socorro",
        "state": "SE",
        "crop": "Amendoim (em casca)",
        "hectares": 6.0,
        "production": 6.0,
        "year": 2023,
        "region": "Nordeste",
        "ibge_code": "2804805"
      },
      "geometry": {
        "type": "Point",
        "coordinates": [
          -38.36809514877598,
          -9.726883342362104
        ]
      }
    },
    {
      "type": "Feature",
      "properties": {
        "municipality": "Pacatuba",
        "state": "SE",
        "crop": "Amendoim (em casca)",
        "hectares": 6.0,
        "production": 6.0,
        "year": 2023,
        "region": "Nordeste",
        "ibge_code": "2804904"
      },
      "geometry": {
        "type": "Point",
        "coordinates": [
          -38.26488841940606,
          -9.609345850479741
        ]
      }
    },
    {
      "type": "Feature",
      "properties": {
        "municipality": "Pedrinhas",
        "state": "SE",
        "crop": "Amendoim (em casca)",
        "hectares": 8.0,
        "production": 8.0,
        "year": 2023,
        "region": "Nordeste",
        "ibge_code": "2805109"
      },
      "geometry": {
        "type": "Point",
        "coordinates": [
          -36.62996419252198,
          -10.656886581225876
        ]
      }
    },
    {
      "type": "Feature",
      "properties": {
        "municipality": "Pirambu",
        "state": "SE",
        "crop": "Amendoim (em casca)",
        "hectares": 36.0,
        "production": 36.0,
        "year": 2023,
        "region": "Nordeste",
        "ibge_code": "2805307"
      },
      "geometry": {
        "type": "Point",
        "coordinates": [
          -38.372716070783476,
          -10.556491239495026
        ]
      }
    },
    {
      "type": "Feature",
      "properties": {
        "municipality": "Riachuelo",
        "state": "SE",
        "crop": "Amendoim (em casca)",
        "hectares": 60.0,
        "production": 60.0,
        "year": 2023,
        "region": "Nordeste",
        "ibge_code": "2805901"
      },
      "geometry": {
        "type": "Point",
        "coordinates": [
          -38.35922496818996,
          -10.95631068251409
        ]
      }
    },
    {
      "type": "Feature",
      "properties": {
        "municipality": "Ribeirópolis",
        "state": "SE",
        "crop": "Amendoim (em casca)",
        "hectares": 25.0,
        "production": 25.0,
        "year": 2023,
        "region": "Nordeste",
        "ibge_code": "2806008"
      },
      "geometry": {
        "type": "Point",
        "coordinates": [
          -36.723379445101614,
          -10.861303586474556
        ]
      }
    },
    {
      "type": "Feature",
      "properties": {
        "municipality": "Santa Luzia do Itanhy",
        "state": "SE",
        "crop": "Amendoim (em casca)",
        "hectares": 20.0,
        "production": 20.0,
        "year": 2023,
        "region": "Nordeste",
        "ibge_code": "2806305"
      },
      "geometry": {
        "type": "Point",
        "coordinates": [
          -37.49925810873852,
          -10.430294300099886
        ]
      }
    },
    {
      "type": "Feature",
      "properties": {
        "municipality": "Santa Rosa de Lima",
        "state": "SE",
        "crop": "Amendoim (em casca)",
        "hectares": 10.0,
        "production": 10.0,
        "year": 2023,
        "region": "Nordeste",
        "ibge_code": "2806503"
      },
      "geometry": {
        "type": "Point",
        "coordinates": [
          -38.34304237432208,
          -9.784744541296376
        ]
      }
    },
    {
      "type": "Feature",
      "properties": {
        "municipality": "Santo Amaro das Brotas",
        "state": "SE",
        "crop": "Amendoim (em casca)",
        "hectares": 32.0,
        "production": 32.0,
        "year": 2023,
        "region": "Nordeste",
        "ibge_code": "2806602"
      },
      "geometry": {
        "type": "Point",
        "coordinates": [
          -37.091033075985905,
          -11.162479330119613
        ]
      }
    },
    {
      "type": "Feature",
      "properties": {
        "municipality": "São Cristóvão",
        "state": "SE",
        "crop": "Amendoim (em casca)",
        "hectares": 16.0,
        "production": 16.0,
        "year": 2023,
        "region": "Nordeste",
        "ibge_code": "2806701"
      },
      "geometry": {
        "type": "Point",
        "coordinates": [
          -37.55808555574233,
          -11.26734799285502
        ]
      }
    },
    {
      "type": "Feature",
      "properties": {
        "municipality": "São Francisco",
        "state": "SE",
        "crop": "Amendoim (em casca)",
        "hectares": 4.0,
        "production": 4.0,
        "year": 2023,
        "region": "Nordeste",
        "ibge_code": "2806909"
      },
      "geometry": {
        "type": "Point",
        "coordinates": [
          -38.2909033317958,
          -9.958850837531827
        ]
      }
    },
    {
      "type": "Feature",
      "properties": {
        "municipality": "Tomar do Geru",
        "state": "SE",
        "crop": "Amendoim (em casca)",
        "hectares": 12.0,
        "production": 12.0,
        "year": 2023,
        "region": "Nordeste",
        "ibge_code": "2807501"
      },
      "geometry": {
        "type": "Point",
        "coordinates": [
          -37.70521311934954,
          -10.177653226032396
        ]
      }
    },
    {
      "type": "Feature",
      "properties": {
        "municipality": "Umbaúba",
        "state": "SE",
        "crop": "Amendoim (em casca)",
        "hectares": 8.0,
        "production": 8.0,
        "year": 2023,
        "region": "Nordeste",
        "ibge_code": "2807600"
      },
      "geometry": {
        "type": "Point",
        "coordinates": [
          -36.81349616855336,
          -9.963033232193457
        ]
      }
    },
    {
      "type": "Feature",
      "properties": {
        "municipality": "Acajutiba",
        "state": "BA",
        "crop": "Amendoim (em casca)",
        "hectares": 54.0,
        "production": 54.0,
        "year": 2023,
        "region": "Nordeste",
        "ibge_code": "2900306"
      },
      "geometry": {
        "type": "Point",
        "coordinates": [
          -41.05493603440307,
          -12.771212029103797
        ]
      }
    },
    {
      "type": "Feature",
      "properties": {
        "municipality": "Aiquara",
        "state": "BA",
        "crop": "Amendoim (em casca)",
        "hectares": 10.0,
        "production": 10.0,
        "year": 2023,
        "region": "Nordeste",
        "ibge_code": "2900603"
      },
      "geometry": {
        "type": "Point",
        "coordinates": [
          -41.199902611520734,
          -13.000767979473954
        ]
      }
    },
    {
      "type": "Feature",
      "properties": {
        "municipality": "Alagoinhas",
        "state": "BA",
        "crop": "Amendoim (em casca)",
        "hectares": 146.0,
        "production": 146.0,
        "year": 2023,
        "region": "Nordeste",
        "ibge_code": "2900702"
      },
      "geometry": {
        "type": "Point",
        "coordinates": [
          -41.819207653309576,
          -13.831831820996939
        ]
      }
    },
    {
      "type": "Feature",
      "properties": {
        "municipality": "Alcobaça",
        "state": "BA",
        "crop": "Amendoim (em casca)",
        "hectares": 6.0,
        "production": 6.0,
        "year": 2023,
        "region": "Nordeste",
        "ibge_code": "2900801"
      },
      "geometry": {
        "type": "Point",
        "coordinates": [
          -41.84166682250102,
          -14.084141991005163
        ]
      }
    },
    {
      "type": "Feature",
      "properties": {
        "municipality": "Amargosa",
        "state": "BA",
        "crop": "Amendoim (em casca)",
        "hectares": 51.0,
        "production": 51.0,
        "year": 2023,
        "region": "Nordeste",
        "ibge_code": "2901007"
      },
      "geometry": {
        "type": "Point",
        "coordinates": [
          -42.365535693198424,
          -13.259768704322699
        ]
      }
    },
    {
      "type": "Feature",
      "properties": {
        "municipality": "Amélia Rodrigues",
        "state": "BA",
        "crop": "Amendoim (em casca)",
        "hectares": 33.0,
        "production": 33.0,
        "year": 2023,
        "region": "Nordeste",
        "ibge_code": "2901106"
      },
      "geometry": {
        "type": "Point",
        "coordinates": [
          -41.44379492688025,
          -13.906380330418738
        ]
      }
    },
    {
      "type": "Feature",
      "properties": {
        "municipality": "Aporá",
        "state": "BA",
        "crop": "Amendoim (em casca)",
        "hectares": 24.0,
        "production": 24.0,
        "year": 2023,
        "region": "Nordeste",
        "ibge_code": "2901908"
      },
      "geometry": {
        "type": "Point",
        "coordinates": [
          -41.0822910692948,
          -13.627942441837371
        ]
      }
    },
    {
      "type": "Feature",
      "properties": {
        "municipality": "Araçás",
        "state": "BA",
        "crop": "Amendoim (em casca)",
        "hectares": 46.0,
        "production": 46.0,
        "year": 2023,
        "region": "Nordeste",
        "ibge_code": "2902054"
      },
      "geometry": {
        "type": "Point",
        "coordinates": [
          -42.6087568602262,
          -13.02975924639905
        ]
      }
    },
    {
      "type": "Feature",
      "properties": {
        "municipality": "Araci",
        "state": "BA",
        "crop": "Amendoim (em casca)",
        "hectares": 100.0,
        "production": 100.0,
        "year": 2023,
        "region": "Nordeste",
        "ibge_code": "2902104"
      },
      "geometry": {
        "type": "Point",
        "coordinates": [
          -42.28316642107002,
          -14.135656432293391
        ]
      }
    },
    {
      "type": "Feature",
      "properties": {
        "municipality": "Aramari",
        "state": "BA",
        "crop": "Amendoim (em casca)",
        "hectares": 21.0,
        "production": 21.0,
        "year": 2023,
        "region": "Nordeste",
        "ibge_code": "2902203"
      },
      "geometry": {
        "type": "Point",
        "coordinates": [
          -40.809280377858,
          -12.536538950563545
        ]
      }
    },
    {
      "type": "Feature",
      "properties": {
        "municipality": "Aratuípe",
        "state": "BA",
        "crop": "Amendoim (em casca)",
        "hectares": 8.0,
        "production": 8.0,
        "year": 2023,
        "region": "Nordeste",
        "ibge_code": "2902302"
      },
      "geometry": {
        "type": "Point",
        "coordinates": [
          -41.44619070487755,
          -13.574205843838808
        ]
      }
    },
    {
      "type": "Feature",
      "properties": {
        "municipality": "Biritinga",
        "state": "BA",
        "crop": "Amendoim (em casca)",
        "hectares": 39.0,
        "production": 39.0,
        "year": 2023,
        "region": "Nordeste",
        "ibge_code": "2903607"
      },
      "geometry": {
        "type": "Point",
        "coordinates": [
          -41.71502661269255,
          -12.476799781597695
        ]
      }
    },
    {
      "type": "Feature",
      "properties": {
        "municipality": "Boa Nova",
        "state": "BA",
        "crop": "Amendoim (em casca)",
        "hectares": 15.0,
        "production": 15.0,
        "year": 2023,
        "region": "Nordeste",
        "ibge_code": "2903706"
      },
      "geometry": {
        "type": "Point",
        "coordinates": [
          -41.263543038164634,
          -13.8928429014375
        ]
      }
    },
    {
      "type": "Feature",
      "properties": {
        "municipality": "Cabaceiras do Paraguaçu",
        "state": "BA",
        "crop": "Amendoim (em casca)",
        "hectares": 25.0,
        "production": 25.0,
        "year": 2023,
        "region": "Nordeste",
        "ibge_code": "2904852"
      },
      "geometry": {
        "type": "Point",
        "coordinates": [
          -41.716695217940064,
          -13.892236222566964
        ]
      }
    },
    {
      "type": "Feature",
      "properties": {
        "municipality": "Cachoeira",
        "state": "BA",
        "crop": "Amendoim (em casca)",
        "hectares": 40.0,
        "production": 40.0,
        "year": 2023,
        "region": "Nordeste",
        "ibge_code": "2904902"
      },
      "geometry": {
        "type": "Point",
        "coordinates": [
          -42.25679670989132,
          -13.24800162574546
        ]
      }
    },
    {
      "type": "Feature",
      "properties": {
        "municipality": "Camaçari",
        "state": "BA",
        "crop": "Amendoim (em casca)",
        "hectares": 6.0,
        "production": 6.0,
        "year": 2023,
        "region": "Nordeste",
        "ibge_code": "2905701"
      },
      "geometry": {
        "type": "Point",
        "coordinates": [
          -41.79619075473844,
          -13.207658624213018
        ]
      }
    },
    {
      "type": "Feature",
      "properties": {
        "municipality": "Caravelas",
        "state": "BA",
        "crop": "Amendoim (em casca)",
        "hectares": 33.0,
        "production": 33.0,
        "year": 2023,
        "region": "Nordeste",
        "ibge_code": "2906907"
      },
      "geometry": {
        "type": "Point",
        "coordinates": [
          -40.729000938972256,
          -13.88071754987731
        ]
      }
    },
    {
      "type": "Feature",
      "properties": {
        "municipality": "Cardeal da Silva",
        "state": "BA",
        "crop": "Amendoim (em casca)",
        "hectares": 14.0,
        "production": 14.0,
        "year": 2023,
        "region": "Nordeste",
        "ibge_code": "2907004"
      },
      "geometry": {
        "type": "Point",
        "coordinates": [
          -41.60088362081896,
          -12.440934520148264
        ]
      }
    },
    {
      "type": "Feature",
      "properties": {
        "municipality": "Castro Alves",
        "state": "BA",
        "crop": "Amendoim (em casca)",
        "hectares": 24.0,
        "production": 24.0,
        "year": 2023,
        "region": "Nordeste",
        "ibge_code": "2907301"
      },
      "geometry": {
        "type": "Point",
        "coordinates": [
          -41.759664389218294,
          -13.588025021101695
        ]
      }
    },
    {
      "type": "Feature",
      "properties": {
        "municipality": "Catu",
        "state": "BA",
        "crop": "Amendoim (em casca)",
        "hectares": 13.0,
        "production": 13.0,
        "year": 2023,
        "region": "Nordeste",
        "ibge_code": "2907509"
      },
      "geometry": {
        "type": "Point",
        "coordinates": [
          -42.53309458556629,
          -13.155736422633442
        ]
      }
    },
    {
      "type": "Feature",
      "properties": {
        "municipality": "Cícero Dantas",
        "state": "BA",
        "crop": "Amendoim (em casca)",
        "hectares": 5.0,
        "production": 5.0,
        "year": 2023,
        "region": "Nordeste",
        "ibge_code": "2907806"
      },
      "geometry": {
        "type": "Point",
        "coordinates": [
          -42.673528023942175,
          -13.366448430291928
        ]
      }
    },
    {
      "type": "Feature",
      "properties": {
        "municipality": "Cipó",
        "state": "BA",
        "crop": "Amendoim (em casca)",
        "hectares": 57.0,
        "production": 57.0,
        "year": 2023,
        "region": "Nordeste",
        "ibge_code": "2907905"
      },
      "geometry": {
        "type": "Point",
        "coordinates": [
          -41.30522895202629,
          -14.076842924596688
        ]
      }
    },
    {
      "type": "Feature",
      "properties": {
        "municipality": "Conceição da Feira",
        "state": "BA",
        "crop": "Amendoim (em casca)",
        "hectares": 30.0,
        "production": 30.0,
        "year": 2023,
        "region": "Nordeste",
        "ibge_code": "2908200"
      },
      "geometry": {
        "type": "Point",
        "coordinates": [
          -42.15036778892766,
          -13.576683642945527
        ]
      }
    },
    {
      "type": "Feature",
      "properties": {
        "municipality": "Conceição do Almeida",
        "state": "BA",
        "crop": "Amendoim (em casca)",
        "hectares": 135.0,
        "production": 135.0,
        "year": 2023,
        "region": "Nordeste",
        "ibge_code": "2908309"
      },
      "geometry": {
        "type": "Point",
        "coordinates": [
          -41.134049771150345,
          -13.736021531610453
        ]
      }
    },
    {
      "type": "Feature",
      "properties": {
        "municipality": "Conceição do Coité",
        "state": "BA",
        "crop": "Amendoim (em casca)",
        "hectares": 10.0,
        "production": 10.0,
        "year": 2023,
        "region": "Nordeste",
        "ibge_code": "2908408"
      },
      "geometry": {
        "type": "Point",
        "coordinates": [
          -41.70598202099369,
          -13.803464474581325
        ]
      }
    },
    {
      "type": "Feature",
      "properties": {
        "municipality": "Conceição do Jacuípe",
        "state": "BA",
        "crop": "Amendoim (em casca)",
        "hectares": 8.0,
        "production": 8.0,
        "year": 2023,
        "region": "Nordeste",
        "ibge_code": "2908507"
      },
      "geometry": {
        "type": "Point",
        "coordinates": [
          -41.49404067477273,
          -12.460799833220086
        ]
      }
    },
    {
      "type": "Feature",
      "properties": {
        "municipality": "Conde",
        "state": "BA",
        "crop": "Amendoim (em casca)",
        "hectares": 15.0,
        "production": 15.0,
        "year": 2023,
        "region": "Nordeste",
        "ibge_code": "2908606"
      },
      "geometry": {
        "type": "Point",
        "coordinates": [
          -41.68098557317077,
          -13.596863601609126
        ]
      }
    },
    {
      "type": "Feature",
      "properties": {
        "municipality": "Contendas do Sincorá",
        "state": "BA",
        "crop": "Amendoim (em casca)",
        "hectares": 5.0,
        "production": 5.0,
        "year": 2023,
        "region": "Nordeste",
        "ibge_code": "2908804"
      },
      "geometry": {
        "type": "Point",
        "coordinates": [
          -41.33887622560592,
          -12.959279049667092
        ]
      }
    },
    {
      "type": "Feature",
      "properties": {
        "municipality": "Crisópolis",
        "state": "BA",
        "crop": "Amendoim (em casca)",
        "hectares": 34.0,
        "production": 34.0,
        "year": 2023,
        "region": "Nordeste",
        "ibge_code": "2909604"
      },
      "geometry": {
        "type": "Point",
        "coordinates": [
          -41.66127387381586,
          -12.755943268889085
        ]
      }
    },
    {
      "type": "Feature",
      "properties": {
        "municipality": "Cruz das Almas",
        "state": "BA",
        "crop": "Amendoim (em casca)",
        "hectares": 104.0,
        "production": 104.0,
        "year": 2023,
        "region": "Nordeste",
        "ibge_code": "2909802"
      },
      "geometry": {
        "type": "Point",
        "coordinates": [
          -40.919981682101664,
          -12.642885516071823
        ]
      }
    },
    {
      "type": "Feature",
      "properties": {
        "municipality": "Curaçá",
        "state": "BA",
        "crop": "Amendoim (em casca)",
        "hectares": 10.0,
        "production": 10.0,
        "year": 2023,
        "region": "Nordeste",
        "ibge_code": "2909901"
      },
      "geometry": {
        "type": "Point",
        "coordinates": [
          -41.44996189136223,
          -13.338183475541308
        ]
      }
    },
    {
      "type": "Feature",
      "properties": {
        "municipality": "Dias d'Ávila",
        "state": "BA",
        "crop": "Amendoim (em casca)",
        "hectares": 2.0,
        "production": 2.0,
        "year": 2023,
        "region": "Nordeste",
        "ibge_code": "2910057"
      },
      "geometry": {
        "type": "Point",
        "coordinates": [
          -41.711175776929004,
          -13.707465967080802
        ]
      }
    },
    {
      "type": "Feature",
      "properties": {
        "municipality": "Dom Macedo Costa",
        "state": "BA",
        "crop": "Amendoim (em casca)",
        "hectares": 10.0,
        "production": 10.0,
        "year": 2023,
        "region": "Nordeste",
        "ibge_code": "2910206"
      },
      "geometry": {
        "type": "Point",
        "coordinates": [
          -41.23658360101849,
          -12.935965321543113
        ]
      }
    },
    {
      "type": "Feature",
      "properties": {
        "municipality": "Elísio Medrado",
        "state": "BA",
        "crop": "Amendoim (em casca)",
        "hectares": 39.0,
        "production": 39.0,
        "year": 2023,
        "region": "Nordeste",
        "ibge_code": "2910305"
      },
      "geometry": {
        "type": "Point",
        "coordinates": [
          -41.9351625206871,
          -13.12888484760864
        ]
      }
    },
    {
      "type": "Feature",
      "properties": {
        "municipality": "Entre Rios",
        "state": "BA",
        "crop": "Amendoim (em casca)",
        "hectares": 23.0,
        "production": 23.0,
        "year": 2023,
        "region": "Nordeste",
        "ibge_code": "2910503"
      },
      "geometry": {
        "type": "Point",
        "coordinates": [
          -40.896223637594424,
          -13.5281413318966
        ]
      }
    },
    {
      "type": "Feature",
      "properties": {
        "municipality": "Esplanada",
        "state": "BA",
        "crop": "Amendoim (em casca)",
        "hectares": 143.0,
        "production": 143.0,
        "year": 2023,
        "region": "Nordeste",
        "ibge_code": "2910602"
      },
      "geometry": {
        "type": "Point",
        "coordinates": [
          -42.45306476217821,
          -14.20969100891515
        ]
      }
    },
    {
      "type": "Feature",
      "properties": {
        "municipality": "Fátima",
        "state": "BA",
        "crop": "Amendoim (em casca)",
        "hectares": 22.0,
        "production": 22.0,
        "year": 2023,
        "region": "Nordeste",
        "ibge_code": "2910750"
      },
      "geometry": {
        "type": "Point",
        "coordinates": [
          -42.545685527318014,
          -14.16751997292881
        ]
      }
    },
    {
      "type": "Feature",
      "properties": {
        "municipality": "Gandu",
        "state": "BA",
        "crop": "Amendoim (em casca)",
        "hectares": 1.0,
        "production": 1.0,
        "year": 2023,
        "region": "Nordeste",
        "ibge_code": "2911204"
      },
      "geometry": {
        "type": "Point",
        "coordinates": [
          -41.493544368121334,
          -12.384508694532357
        ]
      }
    },
    {
      "type": "Feature",
      "properties": {
        "municipality": "Governador Mangabeira",
        "state": "BA",
        "crop": "Amendoim (em casca)",
        "hectares": 142.0,
        "production": 142.0,
        "year": 2023,
        "region": "Nordeste",
        "ibge_code": "2911600"
      },
      "geometry": {
        "type": "Point",
        "coordinates": [
          -42.00249208901886,
          -13.94856962323557
        ]
      }
    },
    {
      "type": "Feature",
      "properties": {
        "municipality": "Heliópolis",
        "state": "BA",
        "crop": "Amendoim (em casca)",
        "hectares": 3.0,
        "production": 3.0,
        "year": 2023,
        "region": "Nordeste",
        "ibge_code": "2911857"
      },
      "geometry": {
        "type": "Point",
        "coordinates": [
          -41.28945170636033,
          -13.715528609266324
        ]
      }
    },
    {
      "type": "Feature",
      "properties": {
        "municipality": "Ibirapuã",
        "state": "BA",
        "crop": "Amendoim (em casca)",
        "hectares": 1.0,
        "production": 1.0,
        "year": 2023,
        "region": "Nordeste",
        "ibge_code": "2912806"
      },
      "geometry": {
        "type": "Point",
        "coordinates": [
          -41.39756545894699,
          -13.607972333143312
        ]
      }
    },
    {
      "type": "Feature",
      "properties": {
        "municipality": "Inhambupe",
        "state": "BA",
        "crop": "Amendoim (em casca)",
        "hectares": 53.0,
        "production": 53.0,
        "year": 2023,
        "region": "Nordeste",
        "ibge_code": "2913705"
      },
      "geometry": {
        "type": "Point",
        "coordinates": [
          -42.65002489693842,
          -13.255858200986552
        ]
      }
    },
    {
      "type": "Feature",
      "properties": {
        "municipality": "Iramaia",
        "state": "BA",
        "crop": "Amendoim (em casca)",
        "hectares": 9.0,
        "production": 9.0,
        "year": 2023,
        "region": "Nordeste",
        "ibge_code": "2914307"
      },
      "geometry": {
        "type": "Point",
        "coordinates": [
          -41.79780344741631,
          -12.33239975985445
        ]
      }
    },
    {
      "type": "Feature",
      "properties": {
        "municipality": "Irará",
        "state": "BA",
        "crop": "Amendoim (em casca)",
        "hectares": 75.0,
        "production": 75.0,
        "year": 2023,
        "region": "Nordeste",
        "ibge_code": "2914505"
      },
      "geometry": {
        "type": "Point",
        "coordinates": [
          -42.00264843732492,
          -13.251770016897177
        ]
      }
    },
    {
      "type": "Feature",
      "properties": {
        "municipality": "Itaberaba",
        "state": "BA",
        "crop": "Amendoim (em casca)",
        "hectares": 4.0,
        "production": 4.0,
        "year": 2023,
        "region": "Nordeste",
        "ibge_code": "2914703"
      },
      "geometry": {
        "type": "Point",
        "coordinates": [
          -40.7717334675571,
          -13.161293533872342
        ]
      }
    },
    {
      "type": "Feature",
      "properties": {
        "municipality": "Itaeté",
        "state": "BA",
        "crop": "Amendoim (em casca)",
        "hectares": 5.0,
        "production": 5.0,
        "year": 2023,
        "region": "Nordeste",
        "ibge_code": "2915007"
      },
      "geometry": {
        "type": "Point",
        "coordinates": [
          -42.12966852827323,
          -13.156251942796032
        ]
      }
    },
    {
      "type": "Feature",
      "properties": {
        "municipality": "Itagi",
        "state": "BA",
        "crop": "Amendoim (em casca)",
        "hectares": 5.0,
        "production": 5.0,
        "year": 2023,
        "region": "Nordeste",
        "ibge_code": "2915106"
      },
      "geometry": {
        "type": "Point",
        "coordinates": [
          -42.12966852827323,
          -13.156251942796032
        ]
      }
    },