{
  "type": "FeatureCollection",
  "name": "Banana (cacho)_production",
  "features": [
    {
      "type": "Feature",
      "properties": {
        "municipality": "Alta Floresta D'Oeste",
        "state": "RO",
        "crop": "Banana (cacho)",
        "hectares": 150.0,
        "production": 150.0,
        "year": 2023,
        "region": "Norte",
        "ibge_code": "1100015"
      },
      "geometry": {
        "type": "Point",
        "coordinates": [
          -63.47108362081896,
          -10.656134520148264
        ]
      }
    },
    {
      "type": "Feature",
      "properties": {
        "municipality": "Ariquemes",
        "state": "RO",
        "crop": "Banana (cacho)",
        "hectares": 185.0,
        "production": 185.0,
        "year": 2023,
        "region": "Norte",
        "ibge_code": "1100023"
      },
      "geometry": {
        "type": "Point",
        "coordinates": [
          -64.07564461710045,
          -12.465998921071138
        ]
      }
    },
    {
      "type": "Feature",
      "properties": {
        "municipality": "Cabixi",
        "state": "RO",
        "crop": "Banana (cacho)",
        "hectares": 30.0,
        "production": 30.0,
        "year": 2023,
        "region": "Norte",
        "ibge_code": "1100031"
      },
      "geometry": {
        "type": "Point",
        "coordinates": [
          -63.09702602147854,
          -11.259896610220595
        ]
      }
    },
    {
      "type": "Feature",
      "properties": {
        "municipality": "Cacoal",
        "state": "RO",
        "crop": "Banana (cacho)",
        "hectares": 500.0,
        "production": 500.0,
        "year": 2023,
        "region": "Norte",
        "ibge_code": "1100049"
      },
      "geometry": {
        "type": "Point",
        "coordinates": [
          -62.79958886846444,
          -12.106099838063882
        ]
      }
    },
    {
      "type": "Feature",
      "properties": {
        "municipality": "Cerejeiras",
        "state": "RO",
        "crop": "Banana (cacho)",
        "hectares": 15.0,
        "production": 15.0,
        "year": 2023,
        "region": "Norte",
        "ibge_code": "1100056"
      },
      "geometry": {
        "type": "Point",
        "coordinates": [
          -64.47696670463657,
          -11.617781211289145
        ]
      }
    },
    {
      "type": "Feature",
      "properties": {
        "municipality": "Colorado do Oeste",
        "state": "RO",
        "crop": "Banana (cacho)",
        "hectares": 60.0,
        "production": 60.0,
        "year": 2023,
        "region": "Norte",
        "ibge_code": "1100064"
      },
      "geometry": {
        "type": "Point",
        "coordinates": [
          -64.20053708514064,
          -12.378133038890928
        ]
      }
    },
    {
      "type": "Feature",
      "properties": {
        "municipality": "Corumbiara",
        "state": "RO",
        "crop": "Banana (cacho)",
        "hectares": 20.0,
        "production": 20.0,
        "year": 2023,
        "region": "Norte",
        "ibge_code": "1100072"
      },
      "geometry": {
        "type": "Point",
        "coordinates": [
          -63.15845788701966,
          -11.206901103516405
        ]
      }
    },
    {
      "type": "Feature",
      "properties": {
        "municipality": "Costa Marques",
        "state": "RO",
        "crop": "Banana (cacho)",
        "hectares": 64.0,
        "production": 64.0,
        "year": 2023,
        "region": "Norte",
        "ibge_code": "1100080"
      },
      "geometry": {
        "type": "Point",
        "coordinates": [
          -63.00508478546875,
          -11.14548713243165
        ]
      }
    },
    {
      "type": "Feature",
      "properties": {
        "municipality": "Espigão D'Oeste",
        "state": "RO",
        "crop": "Banana (cacho)",
        "hectares": 50.0,
        "production": 50.0,
        "year": 2023,
        "region": "Norte",
        "ibge_code": "1100098"
      },
      "geometry": {
        "type": "Point",
        "coordinates": [
          -62.91591681003188,
          -10.514150067944508
        ]
      }
    },
    {
      "type": "Feature",
      "properties": {
        "municipality": "Guajará-Mirim",
        "state": "RO",
        "crop": "Banana (cacho)",
        "hectares": 28.0,
        "production": 28.0,
        "year": 2023,
        "region": "Norte",
        "ibge_code": "1100106"
      },
      "geometry": {
        "type": "Point",
        "coordinates": [
          -63.76515579784139,
          -11.680842345491442
        ]
      }
    },
    {
      "type": "Feature",
      "properties": {
        "municipality": "Jaru",
        "state": "RO",
        "crop": "Banana (cacho)",
        "hectares": 80.0,
        "production": 80.0,
        "year": 2023,
        "region": "Norte",
        "ibge_code": "1100114"
      },
      "geometry": {
        "type": "Point",
        "coordinates": [
          -63.67403057367075,
          -11.493819172459503
        ]
      }
    },
    {
      "type": "Feature",
      "properties": {
        "municipality": "Ji-Paraná",
        "state": "RO",
        "crop": "Banana (cacho)",
        "hectares": 45.0,
        "production": 45.0,
        "year": 2023,
        "region": "Norte",
        "ibge_code": "1100122"
      },
      "geometry": {
        "type": "Point",
        "coordinates": [
          -63.54652753575108,
          -11.014580747632994
        ]
      }
    },
    {
      "type": "Feature",
      "properties": {
        "municipality": "Machadinho D'Oeste",
        "state": "RO",
        "crop": "Banana (cacho)",
        "hectares": 150.0,
        "production": 150.0,
        "year": 2023,
        "region": "Norte",
        "ibge_code": "1100130"
      },
      "geometry": {
        "type": "Point",
        "coordinates": [
          -63.35799059545948,
          -11.196820362076354
        ]
      }
    },
    {
      "type": "Feature",
      "properties": {
        "municipality": "Nova Brasilândia D'Oeste",
        "state": "RO",
        "crop": "Banana (cacho)",
        "hectares": 50.0,
        "production": 50.0,
        "year": 2023,
        "region": "Norte",
        "ibge_code": "1100148"
      },
      "geometry": {
        "type": "Point",
        "coordinates": [
          -63.36481135333994,
          -11.38568795223679
        ]
      }
    },
    {
      "type": "Feature",
      "properties": {
        "municipality": "Ouro Preto do Oeste",
        "state": "RO",
        "crop": "Banana (cacho)",
        "hectares": 60.0,
        "production": 60.0,
        "year": 2023,
        "region": "Norte",
        "ibge_code": "1100155"
      },
      "geometry": {
        "type": "Point",
        "coordinates": [
          -64.41508377555539,
          -12.257183906040966
        ]
      }
    },
    {
      "type": "Feature",
      "properties": {
        "municipality": "Pimenta Bueno",
        "state": "RO",
        "crop": "Banana (cacho)",
        "hectares": 70.0,
        "production": 70.0,
        "year": 2023,
        "region": "Norte",
        "ibge_code": "1100189"
      },
      "geometry": {
        "type": "Point",
        "coordinates": [
          -64.31705216245875,
          -12.472782318589406
        ]
      }
    },
    {
      "type": "Feature",
      "properties": {
        "municipality": "Porto Velho",
        "state": "RO",
        "crop": "Banana (cacho)",
        "hectares": 2647.0,
        "production": 2647.0,
        "year": 2023,
        "region": "Norte",
        "ibge_code": "1100205"
      },
      "geometry": {
        "type": "Point",
        "coordinates": [
          -63.63358436368998,
          -10.70297687930321
        ]
      }
    },
    {
      "type": "Feature",
      "properties": {
        "municipality": "Presidente Médici",
        "state": "RO",
        "crop": "Banana (cacho)",
        "hectares": 50.0,
        "production": 50.0,
        "year": 2023,
        "region": "Norte",
        "ibge_code": "1100254"
      },
      "geometry": {
        "type": "Point",
        "coordinates": [
          -63.804530540760624,
          -10.637176074592054
        ]
      }
    },
    {
      "type": "Feature",
      "properties": {
        "municipality": "Rio Crespo",
        "state": "RO",
        "crop": "Banana (cacho)",
        "hectares": 40.0,
        "production": 40.0,
        "year": 2023,
        "region": "Norte",
        "ibge_code": "1100262"
      },
      "geometry": {
        "type": "Point",
        "coordinates": [
          -63.099868249205926,
          -10.866865235465383
        ]
      }
    },
    {
      "type": "Feature",
      "properties": {
        "municipality": "Rolim de Moura",
        "state": "RO",
        "crop": "Banana (cacho)",
        "hectares": 120.0,
        "production": 120.0,
        "year": 2023,
        "region": "Norte",
        "ibge_code": "1100288"
      },
      "geometry": {
        "type": "Point",
        "coordinates": [
          -64.27038086711889,
          -10.87933364579586
        ]
      }
    },
    {
      "type": "Feature",
      "properties": {
        "municipality": "Santa Luzia D'Oeste",
        "state": "RO",
        "crop": "Banana (cacho)",
        "hectares": 50.0,
        "production": 50.0,
        "year": 2023,
        "region": "Norte",
        "ibge_code": "1100296"
      },
      "geometry": {
        "type": "Point",
        "coordinates": [
          -62.58344991353287,
          -10.696014596018466
        ]
      }
    },
    {
      "type": "Feature",
      "properties": {
        "municipality": "Vilhena",
        "state": "RO",
        "crop": "Banana (cacho)",
        "hectares": 5.0,
        "production": 5.0,
        "year": 2023,
        "region": "Norte",
        "ibge_code": "1100304"
      },
      "geometry": {
        "type": "Point",
        "coordinates": [
          -63.86284000241561,
          -10.54799261760644
        ]
      }
    },
    {
      "type": "Feature",
      "properties": {
        "municipality": "São Miguel do Guaporé",
        "state": "RO",
        "crop": "Banana (cacho)",
        "hectares": 22.0,
        "production": 22.0,
        "year": 2023,
        "region": "Norte",
        "ibge_code": "1100320"
      },
      "geometry": {
        "type": "Point",
        "coordinates": [
          -63.53096235767705,
          -11.646019929768352
        ]
      }
    },
    {
      "type": "Feature",
      "properties": {
        "municipality": "Nova Mamoré",
        "state": "RO",
        "crop": "Banana (cacho)",
        "hectares": 150.0,
        "production": 150.0,
        "year": 2023,
        "region": "Norte",
        "ibge_code": "1100338"
      },
      "geometry": {
        "type": "Point",
        "coordinates": [
          -62.836082238306204,
          -11.40668837618645
        ]
      }
    },
    {
      "type": "Feature",
      "properties": {
        "municipality": "Alvorada D'Oeste",
        "state": "RO",
        "crop": "Banana (cacho)",
        "hectares": 60.0,
        "production": 60.0,
        "year": 2023,
        "region": "Norte",
        "ibge_code": "1100346"
      },
      "geometry": {
        "type": "Point",
        "coordinates": [
          -64.43822496417242,
          -10.976167874931267
        ]
      }
    },
    {
      "type": "Feature",
      "properties": {
        "municipality": "Alto Alegre dos Parecis",
        "state": "RO",
        "crop": "Banana (cacho)",
        "hectares": 100.0,
        "production": 100.0,
        "year": 2023,
        "region": "Norte",
        "ibge_code": "1100379"
      },
      "geometry": {
        "type": "Point",
        "coordinates": [
          -63.599844517858365,
          -10.990922536568295
        ]
      }
    },
    {
      "type": "Feature",
      "properties": {
        "municipality": "Alto Paraíso",
        "state": "RO",
        "crop": "Banana (cacho)",
        "hectares": 200.0,
        "production": 200.0,
        "year": 2023,
        "region": "Norte",
        "ibge_code": "1100403"
      },
      "geometry": {
        "type": "Point",
        "coordinates": [
          -64.3043165745713,
          -11.69446871532617
        ]
      }
    },
    {
      "type": "Feature",
      "properties": {
        "municipality": "Buritis",
        "state": "RO",
        "crop": "Banana (cacho)",
        "hectares": 600.0,
        "production": 600.0,
        "year": 2023,
        "region": "Norte",
        "ibge_code": "1100452"
      },
      "geometry": {
        "type": "Point",
        "coordinates": [
          -64.18659542109238,
          -10.653153199456273
        ]
      }
    },
    {
      "type": "Feature",
      "properties": {
        "municipality": "Novo Horizonte do Oeste",
        "state": "RO",
        "crop": "Banana (cacho)",
        "hectares": 35.0,
        "production": 35.0,
        "year": 2023,
        "region": "Norte",
        "ibge_code": "1100502"
      },
      "geometry": {
        "type": "Point",
        "coordinates": [
          -64.35162650273675,
          -11.429762581176158
        ]
      }
    },
    {
      "type": "Feature",
      "properties": {
        "municipality": "Cacaulândia",
        "state": "RO",
        "crop": "Banana (cacho)",
        "hectares": 40.0,
        "production": 40.0,
        "year": 2023,
        "region": "Norte",
        "ibge_code": "1100601"
      },
      "geometry": {
        "type": "Point",
        "coordinates": [
          -62.643838963814304,
          -10.665928757355275
        ]
      }
    },
    {
      "type": "Feature",
      "properties": {
        "municipality": "Campo Novo de Rondônia",
        "state": "RO",
        "crop": "Banana (cacho)",
        "hectares": 190.0,
        "production": 190.0,
        "year": 2023,
        "region": "Norte",
        "ibge_code": "1100700"
      },
      "geometry": {
        "type": "Point",
        "coordinates": [
          -64.10129994498661,
          -10.976126157271931
        ]
      }
    },
    {
      "type": "Feature",
      "properties": {
        "municipality": "Candeias do Jamari",
        "state": "RO",
        "crop": "Banana (cacho)",
        "hectares": 200.0,
        "production": 200.0,
        "year": 2023,
        "region": "Norte",
        "ibge_code": "1100809"
      },
      "geometry": {
        "type": "Point",
        "coordinates": [
          -62.784453531868145,
          -11.272358836389603
        ]
      }
    },
    {
      "type": "Feature",
      "properties": {
        "municipality": "Castanheiras",
        "state": "RO",
        "crop": "Banana (cacho)",
        "hectares": 14.0,
        "production": 14.0,
        "year": 2023,
        "region": "Norte",
        "ibge_code": "1100908"
      },
      "geometry": {
        "type": "Point",
        "coordinates": [
          -63.949668293084805,
          -11.678104859961499
        ]
      }
    },
    {
      "type": "Feature",
      "properties": {
        "municipality": "Chupinguaia",
        "state": "RO",
        "crop": "Banana (cacho)",
        "hectares": 20.0,
        "production": 20.0,
        "year": 2023,
        "region": "Norte",
        "ibge_code": "1100924"
      },
      "geometry": {
        "type": "Point",
        "coordinates": [
          -62.759677440502905,
          -12.190954971005938
        ]
      }
    },
    {
      "type": "Feature",
      "properties": {
        "municipality": "Cujubim",
        "state": "RO",
        "crop": "Banana (cacho)",
        "hectares": 30.0,
        "production": 30.0,
        "year": 2023,
        "region": "Norte",
        "ibge_code": "1100940"
      },
      "geometry": {
        "type": "Point",
        "coordinates": [
          -62.66580633387573,
          -11.981285168630647
        ]
      }
    },
    {
      "type": "Feature",
      "properties": {
        "municipality": "Governador Jorge Teixeira",
        "state": "RO",
        "crop": "Banana (cacho)",
        "hectares": 150.0,
        "production": 150.0,
        "year": 2023,
        "region": "Norte",
        "ibge_code": "1101005"
      },
      "geometry": {
        "type": "Point",
        "coordinates": [
          -63.20907622560592,
          -11.174479049667092
        ]
      }
    },
    {
      "type": "Feature",
      "properties": {
        "municipality": "Itapuã do Oeste",
        "state": "RO",
        "crop": "Banana (cacho)",
        "hectares": 20.0,
        "production": 20.0,
        "year": 2023,
        "region": "Norte",
        "ibge_code": "1101104"
      },
      "geometry": {
        "type": "Point",
        "coordinates": [
          -63.776151391294626,
          -10.514610080263935
        ]
      }
    },
    {
      "type": "Feature",
      "properties": {
        "municipality": "Ministro Andreazza",
        "state": "RO",
        "crop": "Banana (cacho)",
        "hectares": 120.0,
        "production": 120.0,
        "year": 2023,
        "region": "Norte",
        "ibge_code": "1101203"
      },
      "geometry": {
        "type": "Point",
        "coordinates": [
          -63.292873460236265,
          -12.264365780150893
        ]
      }
    },
    {
      "type": "Feature",
      "properties": {
        "municipality": "Mirante da Serra",
        "state": "RO",
        "crop": "Banana (cacho)",
        "hectares": 17.0,
        "production": 17.0,
        "year": 2023,
        "region": "Norte",
        "ibge_code": "1101302"
      },
      "geometry": {
        "type": "Point",
        "coordinates": [
          -63.48499549300005,
          -11.961857622275188
        ]
      }
    },
    {
      "type": "Feature",
      "properties": {
        "municipality": "Monte Negro",
        "state": "RO",
        "crop": "Banana (cacho)",
        "hectares": 310.0,
        "production": 310.0,
        "year": 2023,
        "region": "Norte",
        "ibge_code": "1101401"
      },
      "geometry": {
        "type": "Point",
        "coordinates": [
          -63.62561435364165,
          -12.316551245877804
        ]
      }
    },
    {
      "type": "Feature",
      "properties": {
        "municipality": "Nova União",
        "state": "RO",
        "crop": "Banana (cacho)",
        "hectares": 49.0,
        "production": 49.0,
        "year": 2023,
        "region": "Norte",
        "ibge_code": "1101435"
      },
      "geometry": {
        "type": "Point",
        "coordinates": [
          -64.0361243430993,
          -10.806849968045134
        ]
      }
    },
    {
      "type": "Feature",
      "properties": {
        "municipality": "Parecis",
        "state": "RO",
        "crop": "Banana (cacho)",
        "hectares": 20.0,
        "production": 20.0,
        "year": 2023,
        "region": "Norte",
        "ibge_code": "1101450"
      },
      "geometry": {
        "type": "Point",
        "coordinates": [
          -62.626474912488064,
          -11.964749334486632
        ]
      }
    },
    {
      "type": "Feature",
      "properties": {
        "municipality": "Pimenteiras do Oeste",
        "state": "RO",
        "crop": "Banana (cacho)",
        "hectares": 5.0,
        "production": 5.0,
        "year": 2023,
        "region": "Norte",
        "ibge_code": "1101468"
      },
      "geometry": {
        "type": "Point",
        "coordinates": [
          -64.16915200203783,
          -11.344185670132086
        ]
      }
    },
    {
      "type": "Feature",
      "properties": {
        "municipality": "Primavera de Rondônia",
        "state": "RO",
        "crop": "Banana (cacho)",
        "hectares": 10.0,
        "production": 10.0,
        "year": 2023,
        "region": "Norte",
        "ibge_code": "1101476"
      },
      "geometry": {
        "type": "Point",
        "coordinates": [
          -64.44617177332965,
          -10.875916926893682
        ]
      }
    },
    {
      "type": "Feature",
      "properties": {
        "municipality": "São Felipe D'Oeste",
        "state": "RO",
        "crop": "Banana (cacho)",
        "hectares": 124.0,
        "production": 124.0,
        "year": 2023,
        "region": "Norte",
        "ibge_code": "1101484"
      },
      "geometry": {
        "type": "Point",
        "coordinates": [
          -63.023236007096536,
          -11.741252601805476
        ]
      }
    },
    {
      "type": "Feature",
      "properties": {
        "municipality": "São Francisco do Guaporé",
        "state": "RO",
        "crop": "Banana (cacho)",
        "hectares": 100.0,
        "production": 100.0,
        "year": 2023,
        "region": "Norte",
        "ibge_code": "1101492"
      },
      "geometry": {
        "type": "Point",
        "coordinates": [
          -63.1709646982858,
          -11.581306032908882
        ]
      }
    },
    {
      "type": "Feature",
      "properties": {
        "municipality": "Seringueiras",
        "state": "RO",
        "crop": "Banana (cacho)",
        "hectares": 30.0,
        "production": 30.0,
        "year": 2023,
        "region": "Norte",
        "ibge_code": "1101500"
      },
      "geometry": {
        "type": "Point",
        "coordinates": [
          -62.949331273934966,
          -12.244659540198658
        ]
      }
    },
    {
      "type": "Feature",
      "properties": {
        "municipality": "Teixeirópolis",
        "state": "RO",
        "crop": "Banana (cacho)",
        "hectares": 10.0,
        "production": 10.0,
        "year": 2023,
        "region": "Norte",
        "ibge_code": "1101559"
      },
      "geometry": {
        "type": "Point",
        "coordinates": [
          -62.68087114165585,
          -11.162974730557048
        ]
      }
    },
    {
      "type": "Feature",
      "properties": {
        "municipality": "Theobroma",
        "state": "RO",
        "crop": "Banana (cacho)",
        "hectares": 120.0,
        "production": 120.0,
        "year": 2023,
        "region": "Norte",
        "ibge_code": "1101609"
      },
      "geometry": {
        "type": "Point",
        "coordinates": [
          -63.215074335219036,
          -10.701467585492956
        ]
      }
    },
    {
      "type": "Feature",
      "properties": {
        "municipality": "Urupá",
        "state": "RO",
        "crop": "Banana (cacho)",
        "hectares": 10.0,
        "production": 10.0,
        "year": 2023,
        "region": "Norte",
        "ibge_code": "1101708"
      },
      "geometry": {
        "type": "Point",
        "coordinates": [
          -63.89118028388784,
          -11.310308429127343
        ]
      }
    },
    {
      "type": "Feature",
      "properties": {
        "municipality": "Vale do Anari",
        "state": "RO",
        "crop": "Banana (cacho)",
        "hectares": 20.0,
        "production": 20.0,
        "year": 2023,
        "region": "Norte",
        "ibge_code": "1101757"
      },
      "geometry": {
        "type": "Point",
        "coordinates": [
          -62.836872625954854,
          -10.585778139610088
        ]
      }
    },
    {
      "type": "Feature",
      "properties": {
        "municipality": "Vale do Paraíso",
        "state": "RO",
        "crop": "Banana (cacho)",
        "hectares": 30.0,
        "production": 30.0,
        "year": 2023,
        "region": "Norte",
        "ibge_code": "1101807"
      },
      "geometry": {
        "type": "Point",
        "coordinates": [
          -64.3959981009997,
          -10.511338329591068
        ]
      }
    },
    {
      "type": "Feature",
      "properties": {
        "municipality": "Acrelândia",
        "state": "AC",
        "crop": "Banana (cacho)",
        "hectares": 950.0,
        "production": 950.0,
        "year": 2023,
        "region": "Norte",
        "ibge_code": "1200013"
      },
      "geometry": {
        "type": "Point",
        "coordinates": [
          -70.59514436812134,
          -8.117808694532357
        ]
      }
    },
    {
      "type": "Feature",
      "properties": {
        "municipality": "Assis Brasil",
        "state": "AC",
        "crop": "Banana (cacho)",
        "hectares": 220.0,
        "production": 220.0,
        "year": 2023,
        "region": "Norte",
        "ibge_code": "1200054"
      },
      "geometry": {
        "type": "Point",
        "coordinates": [
          -69.82344697390286,
          -10.02142877421514
        ]
      }
    },
    {
      "type": "Feature",
      "properties": {
        "municipality": "Brasiléia",
        "state": "AC",
        "crop": "Banana (cacho)",
        "hectares": 180.0,
        "production": 180.0,
        "year": 2023,
        "region": "Norte",
        "ibge_code": "1200104"
      },
      "geometry": {
        "type": "Point",
        "coordinates": [
          -70.209389668062,
          -8.161718776310932
        ]
      }
    },
    {
      "type": "Feature",
      "properties": {
        "municipality": "Bujari",
        "state": "AC",
        "crop": "Banana (cacho)",
        "hectares": 180.0,
        "production": 180.0,
        "year": 2023,
        "region": "Norte",
        "ibge_code": "1200138"
      },
      "geometry": {
        "type": "Point",
        "coordinates": [
          -70.18073127393497,
          -9.762759540198658
        ]
      }
    },
    {
      "type": "Feature",
      "properties": {
        "municipality": "Capixaba",
        "state": "AC",
        "crop": "Banana (cacho)",
        "hectares": 310.0,
        "production": 310.0,
        "year": 2023,
        "region": "Norte",
        "ibge_code": "1200179"
      },
      "geometry": {
        "type": "Point",
        "coordinates": [
          -70.47982488555012,
          -9.061306731853383
        ]
      }
    },
    {
      "type": "Feature",
      "properties": {
        "municipality": "Cruzeiro do Sul",
        "state": "AC",
        "crop": "Banana (cacho)",
        "hectares": 360.0,
        "production": 360.0,
        "year": 2023,
        "region": "Norte",
        "ibge_code": "1200203"
      },
      "geometry": {
        "type": "Point",
        "coordinates": [
          -70.0298775641068,
          -9.104297642283615
        ]
      }
    },
    {
      "type": "Feature",
      "properties": {
        "municipality": "Epitaciolândia",
        "state": "AC",
        "crop": "Banana (cacho)",
        "hectares": 290.0,
        "production": 290.0,
        "year": 2023,
        "region": "Norte",
        "ibge_code": "1200252"
      },
      "geometry": {
        "type": "Point",
        "coordinates": [
          -70.0674822383062,
          -8.92478837618645
        ]
      }
    },
    {
      "type": "Feature",
      "properties": {
        "municipality": "Feijó",
        "state": "AC",
        "crop": "Banana (cacho)",
        "hectares": 550.0,
        "production": 550.0,
        "year": 2023,
        "region": "Norte",
        "ibge_code": "1200302"
      },
      "geometry": {
        "type": "Point",
        "coordinates": [
          -70.00511042723109,
          -8.60073080746991
        ]
      }
    },
    {
      "type": "Feature",
      "properties": {
        "municipality": "Jordão",
        "state": "AC",
        "crop": "Banana (cacho)",
        "hectares": 100.0,
        "production": 100.0,
        "year": 2023,
        "region": "Norte",
        "ibge_code": "1200328"
      },
      "geometry": {
        "type": "Point",
        "coordinates": [
          -71.25393440125423,
          -9.958154710265145
        ]
      }
    },
    {
      "type": "Feature",
      "properties": {
        "municipality": "Mâncio Lima",
        "state": "AC",
        "crop": "Banana (cacho)",
        "hectares": 60.0,
        "production": 60.0,
        "year": 2023,
        "region": "Norte",
        "ibge_code": "1200336"
      },
      "geometry": {
        "type": "Point",
        "coordinates": [
          -69.85428861893537,
          -9.741325872091588
        ]
      }
    },
    {
      "type": "Feature",
      "properties": {
        "municipality": "Manoel Urbano",
        "state": "AC",
        "crop": "Banana (cacho)",
        "hectares": 320.0,
        "production": 320.0,
        "year": 2023,
        "region": "Norte",
        "ibge_code": "1200344"
      },
      "geometry": {
        "type": "Point",
        "coordinates": [
          -70.9566286019316,
          -9.028427181569803
        ]
      }
    },
    {
      "type": "Feature",
      "properties": {
        "municipality": "Marechal Thaumaturgo",
        "state": "AC",
        "crop": "Banana (cacho)",
        "hectares": 130.0,
        "production": 130.0,
        "year": 2023,
        "region": "Norte",
        "ibge_code": "1200351"
      },
      "geometry": {
        "type": "Point",
        "coordinates": [
          -70.47386957647166,
          -9.011846666100318
        ]
      }
    },
    {
      "type": "Feature",
      "properties": {
        "municipality": "Plácido de Castro",
        "state": "AC",
        "crop": "Banana (cacho)",
        "hectares": 240.0,
        "production": 240.0,
        "year": 2023,
        "region": "Norte",
        "ibge_code": "1200385"
      },
      "geometry": {
        "type": "Point",
        "coordinates": [
          -70.44148401407092,
          -9.505783016569053
        ]
      }
    },
    {
      "type": "Feature",
      "properties": {
        "municipality": "Porto Walter",
        "state": "AC",
        "crop": "Banana (cacho)",
        "hectares": 130.0,
        "production": 130.0,
        "year": 2023,
        "region": "Norte",
        "ibge_code": "1200393"
      },
      "geometry": {
        "type": "Point",
        "coordinates": [
          -70.89884329255284,
          -9.848863656828206
        ]
      }
    },
    {
      "type": "Feature",
      "properties": {
        "municipality": "Rio Branco",
        "state": "AC",
        "crop": "Banana (cacho)",
        "hectares": 400.0,
        "production": 400.0,
        "year": 2023,
        "region": "Norte",
        "ibge_code": "1200401"
      },
      "geometry": {
        "type": "Point",
        "coordinates": [
          -69.961295582124,
          -9.428658517488996
        ]
      }
    },
    {
      "type": "Feature",
      "properties": {
        "municipality": "Rodrigues Alves",
        "state": "AC",
        "crop": "Banana (cacho)",
        "hectares": 60.0,
        "production": 60.0,
        "year": 2023,
        "region": "Norte",
        "ibge_code": "1200427"
      },
      "geometry": {
        "type": "Point",
        "coordinates": [
          -70.61238963934446,
          -8.381084937120821
        ]
      }
    },
    {
      "type": "Feature",
      "properties": {
        "municipality": "Santa Rosa do Purus",
        "state": "AC",
        "crop": "Banana (cacho)",
        "hectares": 160.0,
        "production": 160.0,
        "year": 2023,
        "region": "Norte",
        "ibge_code": "1200435"
      },
      "geometry": {
        "type": "Point",
        "coordinates": [
          -71.60137584075909,
          -8.861916188365523
        ]
      }
    },
    {
      "type": "Feature",
      "properties": {
        "municipality": "Senador Guiomard",
        "state": "AC",
        "crop": "Banana (cacho)",
        "hectares": 230.0,
        "production": 230.0,
        "year": 2023,
        "region": "Norte",
        "ibge_code": "1200450"
      },
      "geometry": {
        "type": "Point",
        "coordinates": [
          -70.43474447329871,
          -8.769959231713251
        ]
      }
    },
    {
      "type": "Feature",
      "properties": {
        "municipality": "Sena Madureira",
        "state": "AC",
        "crop": "Banana (cacho)",
        "hectares": 200.0,
        "production": 200.0,
        "year": 2023,
        "region": "Norte",
        "ibge_code": "1200500"
      },
      "geometry": {
        "type": "Point",
        "coordinates": [
          -71.60889164058379,
          -9.389671870349403
        ]
      }
    },
    {
      "type": "Feature",
      "properties": {
        "municipality": "Tarauacá",
        "state": "AC",
        "crop": "Banana (cacho)",
        "hectares": 550.0,
        "production": 550.0,
        "year": 2023,
        "region": "Norte",
        "ibge_code": "1200609"
      },
      "geometry": {
        "type": "Point",
        "coordinates": [
          -70.98312296206888,
          -9.402428125806555
        ]
      }
    },
    {
      "type": "Feature",
      "properties": {
        "municipality": "Xapuri",
        "state": "AC",
        "crop": "Banana (cacho)",
        "hectares": 220.0,
        "production": 220.0,
        "year": 2023,
        "region": "Norte",
        "ibge_code": "1200708"
      },
      "geometry": {
        "type": "Point",
        "coordinates": [
          -70.82535088926788,
          -8.544098482681997
        ]
      }
    },
    {
      "type": "Feature",
      "properties": {
        "municipality": "Porto Acre",
        "state": "AC",
        "crop": "Banana (cacho)",
        "hectares": 550.0,
        "production": 550.0,
        "year": 2023,
        "region": "Norte",
        "ibge_code": "1200807"
      },
      "geometry": {
        "type": "Point",
        "coordinates": [
          -70.2144387294905,
          -8.114400206944513
        ]
      }
    },
    {
      "type": "Feature",
      "properties": {
        "municipality": "Alvarães",
        "state": "AM",
        "crop": "Banana (cacho)",
        "hectares": 18.0,
        "production": 18.0,
        "year": 2023,
        "region": "Norte",
        "ibge_code": "1300029"
      },
      "geometry": {
        "type": "Point",
        "coordinates": [
          -61.0357221959319,
          -5.666731860221546
        ]
      }
    },
    {
      "type": "Feature",
      "properties": {
        "municipality": "Amaturá",
        "state": "AM",
        "crop": "Banana (cacho)",
        "hectares": 126.0,
        "production": 126.0,
        "year": 2023,
        "region": "Norte",
        "ibge_code": "1300060"
      },
      "geometry": {
        "type": "Point",
        "coordinates": [
          -62.02924205138022,
          -5.401733922788264
        ]
      }
    },
    {
      "type": "Feature",
      "properties": {
        "municipality": "Anamã",
        "state": "AM",
        "crop": "Banana (cacho)",
        "hectares": 50.0,
        "production": 50.0,
        "year": 2023,
        "region": "Norte",
        "ibge_code": "1300086"
      },
      "geometry": {
        "type": "Point",
        "coordinates": [
          -61.058035415247204,
          -5.815647303301946
        ]
      }
    },
    {
      "type": "Feature",
      "properties": {
        "municipality": "Anori",
        "state": "AM",
        "crop": "Banana (cacho)",
        "hectares": 25.0,
        "production": 25.0,
        "year": 2023,
        "region": "Norte",
        "ibge_code": "1300102"
      },
      "geometry": {
        "type": "Point",
        "coordinates": [
          -61.0488649125767,
          -4.366224824726519
        ]
      }
    },
    {
      "type": "Feature",
      "properties": {
        "municipality": "Apuí",
        "state": "AM",
        "crop": "Banana (cacho)",
        "hectares": 60.0,
        "production": 60.0,
        "year": 2023,
        "region": "Norte",
        "ibge_code": "1300144"
      },
      "geometry": {
        "type": "Point",
        "coordinates": [
          -61.335645397067836,
          -5.5718255041336375
        ]
      }
    },
    {
      "type": "Feature",
      "properties": {
        "municipality": "Atalaia do Norte",
        "state": "AM",
        "crop": "Banana (cacho)",
        "hectares": 110.0,
        "production": 110.0,
        "year": 2023,
        "region": "Norte",
        "ibge_code": "1300201"
      },
      "geometry": {
        "type": "Point",
        "coordinates": [
          -62.55579500012854,
          -5.370093010783706
        ]
      }
    },
    {
      "type": "Feature",
      "properties": {
        "municipality": "Autazes",
        "state": "AM",
        "crop": "Banana (cacho)",
        "hectares": 55.0,
        "production": 55.0,
        "year": 2023,
        "region": "Norte",
        "ibge_code": "1300300"
      },
      "geometry": {
        "type": "Point",
        "coordinates": [
          -61.37797728782578,
          -4.606648346399459
        ]
      }
    },
    {
      "type": "Feature",
      "properties": {
        "municipality": "Barreirinha",
        "state": "AM",
        "crop": "Banana (cacho)",
        "hectares": 30.0,
        "production": 30.0,
        "year": 2023,
        "region": "Norte",
        "ibge_code": "1300508"
      },
      "geometry": {
        "type": "Point",
        "coordinates": [
          -60.95412670011488,
          -4.457926977202023
        ]
      }
    },
    {
      "type": "Feature",
      "properties": {
        "municipality": "Benjamin Constant",
        "state": "AM",
        "crop": "Banana (cacho)",
        "hectares": 100.0,
        "production": 100.0,
        "year": 2023,
        "region": "Norte",
        "ibge_code": "1300607"
      },
      "geometry": {
        "type": "Point",
        "coordinates": [
          -61.715515284539926,
          -5.64257954518688
        ]
      }
    },
    {
      "type": "Feature",
      "properties": {
        "municipality": "Beruri",
        "state": "AM",
        "crop": "Banana (cacho)",
        "hectares": 82.0,
        "production": 82.0,
        "year": 2023,
        "region": "Norte",
        "ibge_code": "1300631"
      },
      "geometry": {
        "type": "Point",
        "coordinates": [
          -62.67284396082554,
          -4.133614054890217
        ]
      }
    },
    {
      "type": "Feature",
      "properties": {
        "municipality": "Boa Vista do Ramos",
        "state": "AM",
        "crop": "Banana (cacho)",
        "hectares": 35.0,
        "production": 35.0,
        "year": 2023,
        "region": "Norte",
        "ibge_code": "1300680"
      },
      "geometry": {
        "type": "Point",
        "coordinates": [
          -61.845049457259265,
          -5.1162960608015355
        ]
      }
    },
    {
      "type": "Feature",
      "properties": {
        "municipality": "Boca do Acre",
        "state": "AM",
        "crop": "Banana (cacho)",
        "hectares": 300.0,
        "production": 300.0,
        "year": 2023,
        "region": "Norte",
        "ibge_code": "1300706"
      },
      "geometry": {
        "type": "Point",
        "coordinates": [
          -62.020784233882914,
          -5.307865361819012
        ]
      }
    },
    {
      "type": "Feature",
      "properties": {
        "municipality": "Borba",
        "state": "AM",
        "crop": "Banana (cacho)",
        "hectares": 100.0,
        "production": 100.0,
        "year": 2023,
        "region": "Norte",
        "ibge_code": "1300805"
      },
      "geometry": {
        "type": "Point",
        "coordinates": [
          -62.93481607078348,
          -4.943291239495026
        ]
      }
    },
    {
      "type": "Feature",
      "properties": {
        "municipality": "Caapiranga",
        "state": "AM",
        "crop": "Banana (cacho)",
        "hectares": 90.0,
        "production": 90.0,
        "year": 2023,
        "region": "Norte",
        "ibge_code": "1300839"
      },
      "geometry": {
        "type": "Point",
        "coordinates": [
          -62.45830583390284,
          -5.893920405783088
        ]
      }
    },
    {
      "type": "Feature",
      "properties": {
        "municipality": "Canutama",
        "state": "AM",
        "crop": "Banana (cacho)",
        "hectares": 40.0,
        "production": 40.0,
        "year": 2023,
        "region": "Norte",
        "ibge_code": "1300904"
      },
      "geometry": {
        "type": "Point",
        "coordinates": [
          -62.345727075710016,
          -5.770230199043253
        ]
      }
    },
    {
      "type": "Feature",
      "properties": {
        "municipality": "Carauari",
        "state": "AM",
        "crop": "Banana (cacho)",
        "hectares": 22.0,
        "production": 22.0,
        "year": 2023,
        "region": "Norte",
        "ibge_code": "1301001"
      },
      "geometry": {
        "type": "Point",
        "coordinates": [
          -62.23989208901886,
          -5.618969623235571
        ]
      }
    },
    {
      "type": "Feature",
      "properties": {
        "municipality": "Careiro",
        "state": "AM",
        "crop": "Banana (cacho)",
        "hectares": 95.0,
        "production": 95.0,
        "year": 2023,
        "region": "Norte",
        "ibge_code": "1301100"
      },
      "geometry": {
        "type": "Point",
        "coordinates": [
          -62.88917761849975,
          -4.665031187166753
        ]
      }
    },
    {
      "type": "Feature",
      "properties": {
        "municipality": "Careiro da Várzea",
        "state": "AM",
        "crop": "Banana (cacho)",
        "hectares": 20.0,
        "production": 20.0,
        "year": 2023,
        "region": "Norte",
        "ibge_code": "1301159"
      },
      "geometry": {
        "type": "Point",
        "coordinates": [
          -60.99367491248807,
          -5.419949334486633
        ]
      }
    },
    {
      "type": "Feature",
      "properties": {
        "municipality": "Coari",
        "state": "AM",
        "crop": "Banana (cacho)",
        "hectares": 55.0,
        "production": 55.0,
        "year": 2023,
        "region": "Norte",
        "ibge_code": "1301209"
      },
      "geometry": {
        "type": "Point",
        "coordinates": [
          -61.10958304687498,
          -5.937360154160725
        ]
      }
    },
    {
      "type": "Feature",
      "properties": {
        "municipality": "Codajás",
        "state": "AM",
        "crop": "Banana (cacho)",
        "hectares": 60.0,
        "production": 60.0,
        "year": 2023,
        "region": "Norte",
        "ibge_code": "1301308"
      },
      "geometry": {
        "type": "Point",
        "coordinates": [
          -62.14335139129463,
          -3.969810080263935
        ]
      }
    },
    {
      "type": "Feature",
      "properties": {
        "municipality": "Eirunepé",
        "state": "AM",
        "crop": "Banana (cacho)",
        "hectares": 60.0,
        "production": 60.0,
        "year": 2023,
        "region": "Norte",
        "ibge_code": "1301407"
      },
      "geometry": {
        "type": "Point",
        "coordinates": [
          -61.88222457322698,
          -5.2452325059246725
        ]
      }
    },
    {
      "type": "Feature",
      "properties": {
        "municipality": "Envira",
        "state": "AM",
        "crop": "Banana (cacho)",
        "hectares": 200.0,
        "production": 200.0,
        "year": 2023,
        "region": "Norte",
        "ibge_code": "1301506"
      },
      "geometry": {
        "type": "Point",
        "coordinates": [
          -61.913727535751086,
          -4.469780747632994
        ]
      }
    },
    {
      "type": "Feature",
      "properties": {
        "municipality": "Fonte Boa",
        "state": "AM",
        "crop": "Banana (cacho)",
        "hectares": 50.0,
        "production": 50.0,
        "year": 2023,
        "region": "Norte",
        "ibge_code": "1301605"
      },
      "geometry": {
        "type": "Point",
        "coordinates": [
          -61.05058844401365,
          -4.11116949674811
        ]
      }
    },
    {
      "type": "Feature",
      "properties": {
        "municipality": "Guajará",
        "state": "AM",
        "crop": "Banana (cacho)",
        "hectares": 4.0,
        "production": 4.0,
        "year": 2023,
        "region": "Norte",
        "ibge_code": "1301654"
      },
      "geometry": {
        "type": "Point",
        "coordinates": [
          -61.45135724995553,
          -4.910026983168274
        ]
      }
    },
    {
      "type": "Feature",
      "properties": {
        "municipality": "Humaitá",
        "state": "AM",
        "crop": "Banana (cacho)",
        "hectares": 400.0,
        "production": 400.0,
        "year": 2023,
        "region": "Norte",
        "ibge_code": "1301704"
      },
      "geometry": {
        "type": "Point",
        "coordinates": [
          -62.37296554833976,
          -4.169614902211137
        ]
      }
    },
    {
      "type": "Feature",
      "properties": {
        "municipality": "Ipixuna",
        "state": "AM",
        "crop": "Banana (cacho)",
        "hectares": 25.0,
        "production": 25.0,
        "year": 2023,
        "region": "Norte",
        "ibge_code": "1301803"
      },
      "geometry": {
        "type": "Point",
        "coordinates": [
          -61.68237443818982,
          -5.925609108980069
        ]
      }
    },
    {
      "type": "Feature",
      "properties": {
        "municipality": "Iranduba",
        "state": "AM",
        "crop": "Banana (cacho)",
        "hectares": 33.0,
        "production": 33.0,
        "year": 2023,
        "region": "Norte",
        "ibge_code": "1301852"
      },
      "geometry": {
        "type": "Point",
        "coordinates": [
          -62.214520732381644,
          -5.288514282600855
        ]
      }
    },
    {
      "type": "Feature",
      "properties": {
        "municipality": "Itacoatiara",
        "state": "AM",
        "crop": "Banana (cacho)",
        "hectares": 606.0,
        "production": 606.0,
        "year": 2023,
        "region": "Norte",
        "ibge_code": "1301902"
      },
      "geometry": {
        "type": "Point",
        "coordinates": [
          -62.84025948338317,
          -4.5577557238158155
        ]
      }
    },
    {
      "type": "Feature",
      "properties": {
        "municipality": "Itamarati",
        "state": "AM",
        "crop": "Banana (cacho)",
        "hectares": 15.0,
        "production": 15.0,
        "year": 2023,
        "region": "Norte",
        "ibge_code": "1301951"
      },
      "geometry": {
        "type": "Point",
        "coordinates": [
          -62.50680409394203,
          -5.656607434313416
        ]
      }
    },
    {
      "type": "Feature",
      "properties": {
        "municipality": "Itapiranga",
        "state": "AM",
        "crop": "Banana (cacho)",
        "hectares": 60.0,
        "production": 60.0,
        "year": 2023,
        "region": "Norte",
        "ibge_code": "1302009"
      },
      "geometry": {
        "type": "Point",
        "coordinates": [
          -61.577284014070926,
          -5.442883016569052
        ]
      }
    },
    {
      "type": "Feature",
      "properties": {
        "municipality": "Japurá",
        "state": "AM",
        "crop": "Banana (cacho)",
        "hectares": 28.0,
        "production": 28.0,
        "year": 2023,
        "region": "Norte",
        "ibge_code": "1302108"
      },
      "geometry": {
        "type": "Point",
        "coordinates": [
          -61.69835755413887,
          -5.449844999578779
        ]
      }
    },
    {
      "type": "Feature",
      "properties": {
        "municipality": "Juruá",
        "state": "AM",
        "crop": "Banana (cacho)",
        "hectares": 60.0,
        "production": 60.0,
        "year": 2023,
        "region": "Norte",
        "ibge_code": "1302207"
      },
      "geometry": {
        "type": "Point",
        "coordinates": [
          -62.17173054076063,
          -4.092376074592054
        ]
      }
    },
    {
      "type": "Feature",
      "properties": {
        "municipality": "Jutaí",
        "state": "AM",
        "crop": "Banana (cacho)",
        "hectares": 60.0,
        "production": 60.0,
        "year": 2023,
        "region": "Norte",
        "ibge_code": "1302306"
      },
      "geometry": {
        "type": "Point",
        "coordinates": [
          -61.133623637594425,
          -5.198541331896601
        ]
      }
    },
    {
      "type": "Feature",
      "properties": {
        "municipality": "Lábrea",
        "state": "AM",
        "crop": "Banana (cacho)",
        "hectares": 170.0,
        "production": 170.0,
        "year": 2023,
        "region": "Norte",
        "ibge_code": "1302405"
      },
      "geometry": {
        "type": "Point",
        "coordinates": [
          -61.85074837972674,
          -5.338470233178043
        ]
      }
    },
    {
      "type": "Feature",
      "properties": {
        "municipality": "Manacapuru",
        "state": "AM",
        "crop": "Banana (cacho)",
        "hectares": 100.0,
        "production": 100.0,
        "year": 2023,
        "region": "Norte",
        "ibge_code": "1302504"
      },
      "geometry": {
        "type": "Point",
        "coordinates": [
          -62.687089496109195,
          -4.135109972986614
        ]
      }
    },
    {
      "type": "Feature",
      "properties": {
        "municipality": "Manaquiri",
        "state": "AM",
        "crop": "Banana (cacho)",
        "hectares": 15.0,
        "production": 15.0,
        "year": 2023,
        "region": "Norte",
        "ibge_code": "1302553"
      },
      "geometry": {
        "type": "Point",
        "coordinates": [
          -61.157381682101665,
          -4.313285516071824
        ]
      }
    },
    {
      "type": "Feature",
      "properties": {
        "municipality": "Manaus",
        "state": "AM",
        "crop": "Banana (cacho)",
        "hectares": 38.0,
        "production": 38.0,
        "year": 2023,
        "region": "Norte",
        "ibge_code": "1302603"
      },
      "geometry": {
        "type": "Point",
        "coordinates": [
          -61.316766095329115,
          -5.633565333549862
        ]
      }
    },
    {
      "type": "Feature",
      "properties": {
        "municipality": "Manicoré",
        "state": "AM",
        "crop": "Banana (cacho)",
        "hectares": 4000.0,
        "production": 4000.0,
        "year": 2023,
        "region": "Norte",
        "ibge_code": "1302702"
      },
      "geometry": {
        "type": "Point",
        "coordinates": [
          -61.316766095329115,
          -5.633565333549862
        ]
      }
    },
    {
      "type": "Feature",
      "properties": {
        "municipality": "Maraã",
        "state": "AM",
        "crop": "Banana (cacho)",
        "hectares": 20.0,
        "production": 20.0,
        "year": 2023,
        "region": "Norte",
        "ibge_code": "1302801"
      },
      "geometry": {
        "type": "Point",
        "coordinates": [
          -62.36706852827323,
          -4.826651942796033
        ]
      }
    },
    {
      "type": "Feature",
      "properties": {
        "municipality": "Maués",
        "state": "AM",
        "crop": "Banana (cacho)",
        "hectares": 40.0,
        "production": 40.0,
        "year": 2023,
        "region": "Norte",
        "ibge_code": "1302900"
      },
      "geometry": {
        "type": "Point",
        "coordinates": [
          -61.59904061686728,
          -5.672420387530199
        ]
      }
    },
    {
      "type": "Feature",
      "properties": {
        "municipality": "Nhamundá",
        "state": "AM",
        "crop": "Banana (cacho)",
        "hectares": 9.0,
        "production": 9.0,
        "year": 2023,
        "region": "Norte",
        "ibge_code": "1303007"
      },
      "geometry": {
        "type": "Point",
        "coordinates": [
          -62.66706281984721,
          -4.044481240365454
        ]
      }
    },
    {
      "type": "Feature",
      "properties": {
        "municipality": "Nova Olinda do Norte",
        "state": "AM",
        "crop": "Banana (cacho)",
        "hectares": 80.0,
        "production": 80.0,
        "year": 2023,
        "region": "Norte",
        "ibge_code": "1303106"
      },
      "geometry": {
        "type": "Point",
        "coordinates": [
          -62.152908945828344,
          -5.548975300097762
        ]
      }
    },
    {
      "type": "Feature",
      "properties": {
        "municipality": "Novo Airão",
        "state": "AM",
        "crop": "Banana (cacho)",
        "hectares": 35.0,
        "production": 35.0,
        "year": 2023,
        "region": "Norte",
        "ibge_code": "1303205"
      },
      "geometry": {
        "type": "Point",
        "coordinates": [
          -61.12059771216959,
          -4.51050139250369
        ]
      }
    },
    {
      "type": "Feature",
      "properties": {
        "municipality": "Novo Aripuanã",
        "state": "AM",
        "crop": "Banana (cacho)",
        "hectares": 600.0,
        "production": 600.0,
        "year": 2023,
        "region": "Norte",
        "ibge_code": "1303304"
      },
      "geometry": {
        "type": "Point",
        "coordinates": [
          -61.14294350318315,
          -4.930293713857386
        ]
      }
    },
    {
      "type": "Feature",
      "properties": {
        "municipality": "Parintins",
        "state": "AM",
        "crop": "Banana (cacho)",
        "hectares": 49.0,
        "production": 49.0,
        "year": 2023,
        "region": "Norte",
        "ibge_code": "1303403"
      },
      "geometry": {
        "type": "Point",
        "coordinates": [
          -62.144124969345334,
          -4.21341751361353
        ]
      }
    },
    {
      "type": "Feature",
      "properties": {
        "municipality": "Pauini",
        "state": "AM",
        "crop": "Banana (cacho)",
        "hectares": 350.0,
        "production": 350.0,
        "year": 2023,
        "region": "Norte",
        "ibge_code": "1303502"
      },
      "geometry": {
        "type": "Point",
        "coordinates": [
          -62.618995101592155,
          -5.480693939867487
        ]
      }
    },
    {
      "type": "Feature",
      "properties": {
        "municipality": "Presidente Figueiredo",
        "state": "AM",
        "crop": "Banana (cacho)",
        "hectares": 397.0,
        "production": 397.0,
        "year": 2023,
        "region": "Norte",
        "ibge_code": "1303536"
      },
      "geometry": {
        "type": "Point",
        "coordinates": [
          -61.64787402771335,
          -5.232137664628209
        ]
      }
    },
    {
      "type": "Feature",
      "properties": {
        "municipality": "Rio Preto da Eva",
        "state": "AM",
        "crop": "Banana (cacho)",
        "hectares": 370.0,
        "production": 370.0,
        "year": 2023,
        "region": "Norte",
        "ibge_code": "1303569"
      },
      "geometry": {
        "type": "Point",
        "coordinates": [
          -61.24790941269896,
          -4.331096704084077
        ]
      }
    },
    {
      "type": "Feature",
      "properties": {
        "municipality": "São Gabriel da Cachoeira",
        "state": "AM",
        "crop": "Banana (cacho)",
        "hectares": 60.0,
        "production": 60.0,
        "year": 2023,
        "region": "Norte",
        "ibge_code": "1303809"
      },
      "geometry": {
        "type": "Point",
        "coordinates": [
          -61.415520486526475,
          -4.511140273890207
        ]
      }
    },
    {
      "type": "Feature",
      "properties": {
        "municipality": "São Paulo de Olivença",
        "state": "AM",
        "crop": "Banana (cacho)",
        "hectares": 32.0,
        "production": 32.0,
        "year": 2023,
        "region": "Norte",
        "ibge_code": "1303908"
      },
      "geometry": {
        "type": "Point",
        "coordinates": [
          -62.480898753788594,
          -5.0567682693018865
        ]
      }
    },
    {
      "type": "Feature",
      "properties": {
        "municipality": "São Sebastião do Uatumã",
        "state": "AM",
        "crop": "Banana (cacho)",
        "hectares": 20.0,
        "production": 20.0,
        "year": 2023,
        "region": "Norte",
        "ibge_code": "1303957"
      },
      "geometry": {
        "type": "Point",
        "coordinates": [
          -61.51498240889321,
          -4.780719239254255
        ]
      }
    },
    {
      "type": "Feature",
      "properties": {
        "municipality": "Silves",
        "state": "AM",
        "crop": "Banana (cacho)",
        "hectares": 5.0,
        "production": 5.0,
        "year": 2023,
        "region": "Norte",
        "ibge_code": "1304005"
      },
      "geometry": {
        "type": "Point",
        "coordinates": [
          -62.16887975654458,
          -4.348857059979726
        ]
      }
    },
    {
      "type": "Feature",
      "properties": {
        "municipality": "Tabatinga",
        "state": "AM",
        "crop": "Banana (cacho)",
        "hectares": 20.0,
        "production": 20.0,
        "year": 2023,
        "region": "Norte",
        "ibge_code": "1304062"
      },
      "geometry": {
        "type": "Point",
        "coordinates": [
          -61.89060642620482,
          -5.463229848391632
        ]
      }
    },
    {
      "type": "Feature",
      "properties": {
        "municipality": "Tapauá",
        "state": "AM",
        "crop": "Banana (cacho)",
        "hectares": 100.0,
        "production": 100.0,
        "year": 2023,
        "region": "Norte",
        "ibge_code": "1304104"
      },
      "geometry": {
        "type": "Point",
        "coordinates": [
          -61.26375099117262,
          -4.323738493599267
        ]
      }
    },
    {
      "type": "Feature",
      "properties": {
        "municipality": "Tefé",
        "state": "AM",
        "crop": "Banana (cacho)",
        "hectares": 51.0,
        "production": 51.0,
        "year": 2023,
        "region": "Norte",
        "ibge_code": "1304203"
      },
      "geometry": {
        "type": "Point",
        "coordinates": [
          -62.23004000241561,
          -4.00319261760644
        ]
      }
    },
    {
      "type": "Feature",
      "properties": {
        "municipality": "Tonantins",
        "state": "AM",
        "crop": "Banana (cacho)",
        "hectares": 32.0,
        "production": 32.0,
        "year": 2023,
        "region": "Norte",
        "ibge_code": "1304237"
      },
      "geometry": {
        "type": "Point",
        "coordinates": [
          -61.800540921567375,
          -4.531623520651133
        ]
      }
    },
    {
      "type": "Feature",
      "properties": {
        "municipality": "Uarini",
        "state": "AM",
        "crop": "Banana (cacho)",
        "hectares": 10.0,
        "production": 10.0,
        "year": 2023,
        "region": "Norte",
        "ibge_code": "1304260"
      },
      "geometry": {
        "type": "Point",
        "coordinates": [
          -62.2638819853014,
          -5.461615767978133
        ]
      }
    },
    {
      "type": "Feature",
      "properties": {
        "municipality": "Urucará",
        "state": "AM",
        "crop": "Banana (cacho)",
        "hectares": 68.0,
        "production": 68.0,
        "year": 2023,
        "region": "Norte",
        "ibge_code": "1304302"
      },
      "geometry": {
        "type": "Point",
        "coordinates": [
          -61.55535135472589,
          -5.8837963213252396
        ]
      }
    },
    {
      "type": "Feature",
      "properties": {
        "municipality": "Urucurituba",
        "state": "AM",
        "crop": "Banana (cacho)",
        "hectares": 60.0,
        "production": 60.0,
        "year": 2023,
        "region": "Norte",
        "ibge_code": "1304401"
      },
      "geometry": {
        "type": "Point",
        "coordinates": [
          -61.54438536195706,
          -5.177636594590044
        ]
      }
    },
    {
      "type": "Feature",
      "properties": {
        "municipality": "Amajari",
        "state": "RR",
        "crop": "Banana (cacho)",
        "hectares": 150.0,
        "production": 150.0,
        "year": 2023,
        "region": "Norte",
        "ibge_code": "1400027"
      },
      "geometry": {
        "type": "Point",
        "coordinates": [
          -61.8431152795287,
          3.364440856436163
        ]
      }
    },
    {
      "type": "Feature",
      "properties": {
        "municipality": "Alto Alegre",
        "state": "RR",
        "crop": "Banana (cacho)",
        "hectares": 120.0,
        "production": 120.0,
        "year": 2023,
        "region": "Norte",
        "ibge_code": "1400050"
      },
      "geometry": {
        "type": "Point",
        "coordinates": [
          -62.34111047300532,
          3.5838033765824266
        ]
      }
    },
    {
      "type": "Feature",
      "properties": {
        "municipality": "Boa Vista",
        "state": "RR",
        "crop": "Banana (cacho)",
        "hectares": 280.0,
        "production": 280.0,
        "year": 2023,
        "region": "Norte",
        "ibge_code": "1400100"
      },
      "geometry": {
        "type": "Point",
        "coordinates": [
          -62.384720478672236,
          2.150675757125021
        ]
      }
    },
    {
      "type": "Feature",
      "properties": {
        "municipality": "Bonfim",
        "state": "RR",
        "crop": "Banana (cacho)",
        "hectares": 230.0,
        "production": 230.0,
        "year": 2023,
        "region": "Norte",
        "ibge_code": "1400159"
      },
      "geometry": {
        "type": "Point",
        "coordinates": [
          -62.810038231657174,
          2.817353265013386
        ]
      }
    },
    {
      "type": "Feature",
      "properties": {
        "municipality": "Cantá",
        "state": "RR",
        "crop": "Banana (cacho)",
        "hectares": 100.0,
        "production": 100.0,
        "year": 2023,
        "region": "Norte",
        "ibge_code": "1400175"
      },
      "geometry": {
        "type": "Point",
        "coordinates": [
          -61.442926879670615,
          2.5357162802759055
        ]
      }
    },
    {
      "type": "Feature",
      "properties": {
        "municipality": "Caracaraí",
        "state": "RR",
        "crop": "Banana (cacho)",
        "hectares": 190.0,
        "production": 190.0,
        "year": 2023,
        "region": "Norte",
        "ibge_code": "1400209"
      },
      "geometry": {
        "type": "Point",
        "coordinates": [
          -62.03386792043871,
          3.0683829872699473
        ]
      }
    },
    {
      "type": "Feature",
      "properties": {
        "municipality": "Caroebe",
        "state": "RR",
        "crop": "Banana (cacho)",
        "hectares": 2350.0,
        "production": 2350.0,
        "year": 2023,
        "region": "Norte",
        "ibge_code": "1400233"
      },
      "geometry": {
        "type": "Point",
        "coordinates": [
          -62.72621484291481,
          2.795896390900272
        ]
      }
    },
    {
      "type": "Feature",
      "properties": {
        "municipality": "Iracema",
        "state": "RR",
        "crop": "Banana (cacho)",
        "hectares": 400.0,
        "production": 400.0,
        "year": 2023,
        "region": "Norte",
        "ibge_code": "1400282"
      },
      "geometry": {
        "type": "Point",
        "coordinates": [
          -61.77209760296311,
          2.2440406181298265
        ]
      }
    },
    {
      "type": "Feature",
      "properties": {
        "municipality": "Mucajaí",
        "state": "RR",
        "crop": "Banana (cacho)",
        "hectares": 290.0,
        "production": 290.0,
        "year": 2023,
        "region": "Norte",
        "ibge_code": "1400308"
      },
      "geometry": {
        "type": "Point",
        "coordinates": [
          -61.499584785468755,
          3.097812867568348
        ]
      }
    },
    {
      "type": "Feature",
      "properties": {
        "municipality": "Normandia",
        "state": "RR",
        "crop": "Banana (cacho)",
        "hectares": 100.0,
        "production": 100.0,
        "year": 2023,
        "region": "Norte",
        "ibge_code": "1400407"
      },
      "geometry": {
        "type": "Point",
        "coordinates": [
          -62.73023569319842,
          2.7683312956773003
        ]
      }
    },
    {
      "type": "Feature",
      "properties": {
        "municipality": "Pacaraima",
        "state": "RR",
        "crop": "Banana (cacho)",
        "hectares": 250.0,
        "production": 250.0,
        "year": 2023,
        "region": "Norte",
        "ibge_code": "1400456"
      },
      "geometry": {
        "type": "Point",
        "coordinates": [
          -62.138750766377065,
          2.455022410922658
        ]
      }
    },
    {
      "type": "Feature",
      "properties": {
        "municipality": "Rorainópolis",
        "state": "RR",
        "crop": "Banana (cacho)",
        "hectares": 300.0,
        "production": 300.0,
        "year": 2023,
        "region": "Norte",
        "ibge_code": "1400472"
      },
      "geometry": {
        "type": "Point",
        "coordinates": [
          -61.1344557879898,
          2.9792301969685298
        ]
      }
    },
    {
      "type": "Feature",
      "properties": {
        "municipality": "São João da Baliza",
        "state": "RR",
        "crop": "Banana (cacho)",
        "hectares": 1200.0,
        "production": 1200.0,
        "year": 2023,
        "region": "Norte",
        "ibge_code": "1400506"
      },
      "geometry": {
        "type": "Point",
        "coordinates": [
          -62.976621765346934,
          1.9665425235172518
        ]
      }
    },
    {
      "type": "Feature",
      "properties": {
        "municipality": "São Luiz",
        "state": "RR",
        "crop": "Banana (cacho)",
        "hectares": 300.0,
        "production": 300.0,
        "year": 2023,
        "region": "Norte",
        "ibge_code": "1400605"
      },
      "geometry": {
        "type": "Point",
        "coordinates": [
          -62.567180217620866,
          3.73367714129792
        ]
      }
    },
    {
      "type": "Feature",
      "properties": {
        "municipality": "Uiramutã",
        "state": "RR",
        "crop": "Banana (cacho)",
        "hectares": 25.0,
        "production": 25.0,
        "year": 2023,
        "region": "Norte",
        "ibge_code": "1400704"
      },
      "geometry": {
        "type": "Point",
        "coordinates": [
          -61.838899367146624,
          2.1569619587417144
        ]
      }
    },
    {
      "type": "Feature",
      "properties": {
        "municipality": "Abaetetuba",
        "state": "PA",
        "crop": "Banana (cacho)",
        "hectares": 50.0,
        "production": 50.0,
        "year": 2023,
        "region": "Norte",
        "ibge_code": "1500107"
      },
      "geometry": {
        "type": "Point",
        "coordinates": [
          -52.80190089133465,
          -4.577795482481193
        ]
      }
    },
    {
      "type": "Feature",
      "properties": {
        "municipality": "Abel Figueiredo",
        "state": "PA",
        "crop": "Banana (cacho)",
        "hectares": 21.0,
        "production": 21.0,
        "year": 2023,
        "region": "Norte",
        "ibge_code": "1500131"
      },
      "geometry": {
        "type": "Point",
        "coordinates": [
          -51.87500533500761,
          -3.521733579821166
        ]
      }
    },
    {
      "type": "Feature",
      "properties": {
        "municipality": "Acará",
        "state": "PA",
        "crop": "Banana (cacho)",
        "hectares": 120.0,
        "production": 120.0,
        "year": 2023,
        "region": "Norte",
        "ibge_code": "1500206"
      },
      "geometry": {
        "type": "Point",
        "coordinates": [
          -51.79790543865896,
          -4.474564730770357
        ]
      }
    },
    {
      "type": "Feature",
      "properties": {
        "municipality": "Afuá",
        "state": "PA",
        "crop": "Banana (cacho)",
        "hectares": 40.0,
        "production": 40.0,
        "year": 2023,
        "region": "Norte",
        "ibge_code": "1500305"
      },
      "geometry": {
        "type": "Point",
        "coordinates": [
          -51.45886952684592,
          -3.8463798643281217
        ]
      }
    },
    {
      "type": "Feature",
      "properties": {
        "municipality": "Água Azul do Norte",
        "state": "PA",
        "crop": "Banana (cacho)",
        "hectares": 120.0,
        "production": 120.0,
        "year": 2023,
        "region": "Norte",
        "ibge_code": "1500347"
      },
      "geometry": {
        "type": "Point",
        "coordinates": [
          -52.15009760296311,
          -4.205559381870174
        ]
      }
    },
    {
      "type": "Feature",
      "properties": {
        "municipality": "Alenquer",
        "state": "PA",
        "crop": "Banana (cacho)",
        "hectares": 534.0,
        "production": 534.0,
        "year": 2023,
        "region": "Norte",
        "ibge_code": "1500404"
      },
      "geometry": {
        "type": "Point",
        "coordinates": [
          -52.39063875190689,
          -3.679611225503399
        ]
      }
    },
    {
      "type": "Feature",
      "properties": {
        "municipality": "Almeirim",
        "state": "PA",
        "crop": "Banana (cacho)",
        "hectares": 55.0,
        "production": 55.0,
        "year": 2023,
        "region": "Norte",
        "ibge_code": "1500503"
      },
      "geometry": {
        "type": "Point",
        "coordinates": [
          -52.06633462735893,
          -4.2875946606979305
        ]
      }
    },
    {
      "type": "Feature",
      "properties": {
        "municipality": "Altamira",
        "state": "PA",
        "crop": "Banana (cacho)",
        "hectares": 1420.0,
        "production": 1420.0,
        "year": 2023,
        "region": "Norte",
        "ibge_code": "1500602"
      },
      "geometry": {
        "type": "Point",
        "coordinates": [
          -52.35017657269312,
          -3.3428432995326123
        ]
      }
    },
    {
      "type": "Feature",
      "properties": {
        "municipality": "Anajás",
        "state": "PA",
        "crop": "Banana (cacho)",
        "hectares": 160.0,
        "production": 160.0,
        "year": 2023,
        "region": "Norte",
        "ibge_code": "1500701"
      },
      "geometry": {
        "type": "Point",
        "coordinates": [
          -52.06291472370738,
          -2.717911871616736
        ]
      }
    },
    {
      "type": "Feature",
      "properties": {
        "municipality": "Ananindeua",
        "state": "PA",
        "crop": "Banana (cacho)",
        "hectares": 11.0,
        "production": 11.0,
        "year": 2023,
        "region": "Norte",
        "ibge_code": "1500800"
      },
      "geometry": {
        "type": "Point",
        "coordinates": [
          -52.08757433521904,
          -2.907767585492958
        ]
      }
    },
    {
      "type": "Feature",
      "properties": {
        "municipality": "Anapu",
        "state": "PA",
        "crop": "Banana (cacho)",
        "hectares": 1000.0,
        "production": 1000.0,
        "year": 2023,
        "region": "Norte",
        "ibge_code": "1500859"
      },
      "geometry": {
        "type": "Point",
        "coordinates": [
          -52.71982073238164,
          -4.039614282600856
        ]
      }
    },
    {
      "type": "Feature",
      "properties": {
        "municipality": "Augusto Corrêa",
        "state": "PA",
        "crop": "Banana (cacho)",
        "hectares": 11.0,
        "production": 11.0,
        "year": 2023,
        "region": "Norte",
        "ibge_code": "1500909"
      },
      "geometry": {
        "type": "Point",
        "coordinates": [
          -51.65695353186815,
          -3.4786588363896054
        ]
      }
    },
    {
      "type": "Feature",
      "properties": {
        "municipality": "Aurora do Pará",
        "state": "PA",
        "crop": "Banana (cacho)",
        "hectares": 5.0,
        "production": 5.0,
        "year": 2023,
        "region": "Norte",
        "ibge_code": "1500958"
      },
      "geometry": {
        "type": "Point",
        "coordinates": [
          -52.25348963934446,
          -3.0692849371208215
        ]
      }
    },
    {
      "type": "Feature",
      "properties": {
        "municipality": "Aveiro",
        "state": "PA",
        "crop": "Banana (cacho)",
        "hectares": 300.0,
        "production": 300.0,
        "year": 2023,
        "region": "Norte",
        "ibge_code": "1501006"
      },
      "geometry": {
        "type": "Point",
        "coordinates": [
          -52.464400505399674,
          -2.887313281280502
        ]
      }
    },
    {
      "type": "Feature",
      "properties": {
        "municipality": "Bagre",
        "state": "PA",
        "crop": "Banana (cacho)",
        "hectares": 10.0,
        "production": 10.0,
        "year": 2023,
        "region": "Norte",
        "ibge_code": "1501105"
      },
      "geometry": {
        "type": "Point",
        "coordinates": [
          -51.54884382600857,
          -4.382324079998043
        ]
      }
    },
    {
      "type": "Feature",
      "properties": {
        "municipality": "Barcarena",
        "state": "PA",
        "crop": "Banana (cacho)",
        "hectares": 62.0,
        "production": 62.0,
        "year": 2023,
        "region": "Norte",
        "ibge_code": "1501303"
      },
      "geometry": {
        "type": "Point",
        "coordinates": [
          -51.97537821166217,
          -3.4217981004219293
        ]
      }
    },
    {
      "type": "Feature",
      "properties": {
        "municipality": "Belterra",
        "state": "PA",
        "crop": "Banana (cacho)",
        "hectares": 81.0,
        "production": 81.0,
        "year": 2023,
        "region": "Norte",
        "ibge_code": "1501451"
      },
      "geometry": {
        "type": "Point",
        "coordinates": [
          -53.05998112408905,
          -3.526863837823437
        ]
      }
    },
    {
      "type": "Feature",
      "properties": {
        "municipality": "Bom Jesus do Tocantins",
        "state": "PA",
        "crop": "Banana (cacho)",
        "hectares": 32.0,
        "production": 32.0,
        "year": 2023,
        "region": "Norte",
        "ibge_code": "1501576"
      },
      "geometry": {
        "type": "Point",
        "coordinates": [
          -51.63019099079526,
          -3.977939276799733
        ]
      }
    },
    {
      "type": "Feature",
      "properties": {
        "municipality": "Bonito",
        "state": "PA",
        "crop": "Banana (cacho)",
        "hectares": 40.0,
        "production": 40.0,
        "year": 2023,
        "region": "Norte",
        "ibge_code": "1501600"
      },
      "geometry": {
        "type": "Point",
        "coordinates": [
          -52.0927197283299,
          -3.546823121233645
        ]
      }
    },
    {
      "type": "Feature",
      "properties": {
        "municipality": "Bragança",
        "state": "PA",
        "crop": "Banana (cacho)",
        "hectares": 25.0,
        "production": 25.0,
        "year": 2023,
        "region": "Norte",
        "ibge_code": "1501709"
      },
      "geometry": {
        "type": "Point",
        "coordinates": [
          -52.11042641734357,
          -3.687690980957351
        ]
      }
    },
    {
      "type": "Feature",
      "properties": {
        "municipality": "Brasil Novo",
        "state": "PA",
        "crop": "Banana (cacho)",
        "hectares": 400.0,
        "production": 400.0,
        "year": 2023,
        "region": "Norte",
        "ibge_code": "1501725"
      },
      "geometry": {
        "type": "Point",
        "coordinates": [
          -53.26105411318223,
          -3.0830437091043796
        ]
      }
    },
    {
      "type": "Feature",
      "properties": {
        "municipality": "Brejo Grande do Araguaia",
        "state": "PA",
        "crop": "Banana (cacho)",
        "hectares": 200.0,
        "production": 200.0,
        "year": 2023,
        "region": "Norte",
        "ibge_code": "1501758"
      },
      "geometry": {
        "type": "Point",
        "coordinates": [
          -52.85587112028,
          -4.180931886653392
        ]
      }
    },
    {
      "type": "Feature",
      "properties": {
        "municipality": "Breu Branco",
        "state": "PA",
        "crop": "Banana (cacho)",
        "hectares": 12.0,
        "production": 12.0,
        "year": 2023,
        "region": "Norte",
        "ibge_code": "1501782"
      },
      "geometry": {
        "type": "Point",
        "coordinates": [
          -52.230490595459486,
          -3.403120362076355
        ]
      }
    },
    {
      "type": "Feature",
      "properties": {
        "municipality": "Breves",
        "state": "PA",
        "crop": "Banana (cacho)",
        "hectares": 160.0,
        "production": 160.0,
        "year": 2023,
        "region": "Norte",
        "ibge_code": "1501808"
      },
      "geometry": {
        "type": "Point",
        "coordinates": [
          -53.07407686033237,
          -3.917022246037085
        ]
      }
    },
    {
      "type": "Feature",
      "properties": {
        "municipality": "Bujaru",
        "state": "PA",
        "crop": "Banana (cacho)",
        "hectares": 5.0,
        "production": 5.0,
        "year": 2023,
        "region": "Norte",
        "ibge_code": "1501907"
      },
      "geometry": {
        "type": "Point",
        "coordinates": [
          -53.228302277839525,
          -4.687443505204049
        ]
      }
    },
    {
      "type": "Feature",
      "properties": {
        "municipality": "Cachoeira do Piriá",
        "state": "PA",
        "crop": "Banana (cacho)",
        "hectares": 50.0,
        "production": 50.0,
        "year": 2023,
        "region": "Norte",
        "ibge_code": "1501956"
      },
      "geometry": {
        "type": "Point",
        "coordinates": [
          -51.91643536676947,
          -2.967668039344036
        ]
      }
    },
    {
      "type": "Feature",
      "properties": {
        "municipality": "Cametá",
        "state": "PA",
        "crop": "Banana (cacho)",
        "hectares": 20.0,
        "production": 20.0,
        "year": 2023,
        "region": "Norte",
        "ibge_code": "1502103"
      },
      "geometry": {
        "type": "Point",
        "coordinates": [
          -52.543245990971954,
          -4.42066148979174
        ]
      }
    },
    {
      "type": "Feature",
      "properties": {
        "municipality": "Canaã dos Carajás",
        "state": "PA",
        "crop": "Banana (cacho)",
        "hectares": 500.0,
        "production": 500.0,
        "year": 2023,
        "region": "Norte",
        "ibge_code": "1502152"
      },
      "geometry": {
        "type": "Point",
        "coordinates": [
          -52.80719026467396,
          -3.69587377581997
        ]
      }
    },
    {
      "type": "Feature",
      "properties": {
        "municipality": "Capanema",
        "state": "PA",
        "crop": "Banana (cacho)",
        "hectares": 6.0,
        "production": 6.0,
        "year": 2023,
        "region": "Norte",
        "ibge_code": "1502202"
      },
      "geometry": {
        "type": "Point",
        "coordinates": [
          -52.97980372418071,
          -2.8319318192983087
        ]
      }
    },
    {
      "type": "Feature",
      "properties": {
        "municipality": "Capitão Poço",
        "state": "PA",
        "crop": "Banana (cacho)",
        "hectares": 120.0,
        "production": 120.0,
        "year": 2023,
        "region": "Norte",
        "ibge_code": "1502301"
      },
      "geometry": {
        "type": "Point",
        "coordinates": [
          -53.17559792527761,
          -4.058575313401521
        ]
      }
    },
    {
      "type": "Feature",
      "properties": {
        "municipality": "Castanhal",
        "state": "PA",
        "crop": "Banana (cacho)",
        "hectares": 120.0,
        "production": 120.0,
        "year": 2023,
        "region": "Norte",
        "ibge_code": "1502400"
      },
      "geometry": {
        "type": "Point",
        "coordinates": [
          -51.59915240796179,
          -4.611658031666888
        ]
      }
    },
    {
      "type": "Feature",
      "properties": {
        "municipality": "Colares",
        "state": "PA",
        "crop": "Banana (cacho)",
        "hectares": 3.0,
        "production": 3.0,
        "year": 2023,
        "region": "Norte",
        "ibge_code": "1502608"
      },
      "geometry": {
        "type": "Point",
        "coordinates": [
          -51.58706271829129,
          -3.936887409779054
        ]
      }
    },
    {
      "type": "Feature",
      "properties": {
        "municipality": "Conceição do Araguaia",
        "state": "PA",
        "crop": "Banana (cacho)",
        "hectares": 100.0,
        "production": 100.0,
        "year": 2023,
        "region": "Norte",
        "ibge_code": "1502707"
      },
      "geometry": {
        "type": "Point",
        "coordinates": [
          -52.39590642620482,
          -4.214329848391632
        ]
      }
    },
    {
      "type": "Feature",
      "properties": {
        "municipality": "Concórdia do Pará",
        "state": "PA",
        "crop": "Banana (cacho)",
        "hectares": 45.0,
        "production": 45.0,
        "year": 2023,
        "region": "Norte",
        "ibge_code": "1502756"
      },
      "geometry": {
        "type": "Point",
        "coordinates": [
          -52.01330238938425,
          -3.6791231810444742
        ]
      }
    },
    {
      "type": "Feature",
      "properties": {
        "municipality": "Cumaru do Norte",
        "state": "PA",
        "crop": "Banana (cacho)",
        "hectares": 230.0,
        "production": 230.0,
        "year": 2023,
        "region": "Norte",
        "ibge_code": "1502764"
      },
      "geometry": {
        "type": "Point",
        "coordinates": [
          -52.1772400442915,
          -3.6053920594176097
        ]
      }
    },
    {
      "type": "Feature",
      "properties": {
        "municipality": "Curionópolis",
        "state": "PA",
        "crop": "Banana (cacho)",
        "hectares": 200.0,
        "production": 200.0,
        "year": 2023,
        "region": "Norte",
        "ibge_code": "1502772"
      },
      "geometry": {
        "type": "Point",
        "coordinates": [
          -52.76143635332389,
          -3.615761892376602
        ]
      }
    },
    {
      "type": "Feature",
      "properties": {
        "municipality": "Curuá",
        "state": "PA",
        "crop": "Banana (cacho)",
        "hectares": 10.0,
        "production": 10.0,
        "year": 2023,
        "region": "Norte",
        "ibge_code": "1502855"
      },
      "geometry": {
        "type": "Point",
        "coordinates": [
          -51.540218274619335,
          -2.814756349553554
        ]
      }
    },
    {
      "type": "Feature",
      "properties": {
        "municipality": "Curuçá",
        "state": "PA",
        "crop": "Banana (cacho)",
        "hectares": 15.0,
        "production": 15.0,
        "year": 2023,
        "region": "Norte",
        "ibge_code": "1502905"
      },
      "geometry": {
        "type": "Point",
        "coordinates": [
          -52.877190046261624,
          -4.348427837313711
        ]
      }
    },
    {
      "type": "Feature",
      "properties": {
        "municipality": "Dom Eliseu",
        "state": "PA",
        "crop": "Banana (cacho)",
        "hectares": 12.0,
        "production": 12.0,
        "year": 2023,
        "region": "Norte",
        "ibge_code": "1502939"
      },
      "geometry": {
        "type": "Point",
        "coordinates": [
          -53.3583033317958,
          -3.096750837531827
        ]
      }
    },
    {
      "type": "Feature",
      "properties": {
        "municipality": "Eldorado do Carajás",
        "state": "PA",
        "crop": "Banana (cacho)",
        "hectares": 250.0,
        "production": 250.0,
        "year": 2023,
        "region": "Norte",
        "ibge_code": "1502954"
      },
      "geometry": {
        "type": "Point",
        "coordinates": [
          -52.545348963223596,
          -3.325383971547633
        ]
      }
    },
    {
      "type": "Feature",
      "properties": {
        "municipality": "Faro",
        "state": "PA",
        "crop": "Banana (cacho)",
        "hectares": 10.0,
        "production": 10.0,
        "year": 2023,
        "region": "Norte",
        "ibge_code": "1503002"
      },
      "geometry": {
        "type": "Point",
        "coordinates": [
          -52.18863400884244,
          -3.5713431537262537
        ]
      }
    },
    {
      "type": "Feature",
      "properties": {
        "municipality": "Garrafão do Norte",
        "state": "PA",
        "crop": "Banana (cacho)",
        "hectares": 15.0,
        "production": 15.0,
        "year": 2023,
        "region": "Norte",
        "ibge_code": "1503077"
      },
      "geometry": {
        "type": "Point",
        "coordinates": [
          -51.87595585722682,
          -2.819622940070236
        ]
      }
    },
    {
      "type": "Feature",
      "properties": {
        "municipality": "Goianésia do Pará",
        "state": "PA",
        "crop": "Banana (cacho)",
        "hectares": 30.0,
        "production": 30.0,
        "year": 2023,
        "region": "Norte",
        "ibge_code": "1503093"
      },
      "geometry": {
        "type": "Point",
        "coordinates": [
          -53.14312002838497,
          -2.73609406615929
        ]
      }
    },
    {
      "type": "Feature",
      "properties": {
        "municipality": "Gurupá",
        "state": "PA",
        "crop": "Banana (cacho)",
        "hectares": 16.0,
        "production": 16.0,
        "year": 2023,
        "region": "Norte",
        "ibge_code": "1503101"
      },
      "geometry": {
        "type": "Point",
        "coordinates": [
          -51.96973112964595,
          -4.384845490766613
        ]
      }
    },
    {
      "type": "Feature",
      "properties": {
        "municipality": "Igarapé-Açu",
        "state": "PA",
        "crop": "Banana (cacho)",
        "hectares": 50.0,
        "production": 50.0,
        "year": 2023,
        "region": "Norte",
        "ibge_code": "1503200"
      },
      "geometry": {
        "type": "Point",
        "coordinates": [
          -52.5324917613051,
          -3.7542416376115364
        ]
      }
    },
    {
      "type": "Feature",
      "properties": {
        "municipality": "Igarapé-Miri",
        "state": "PA",
        "crop": "Banana (cacho)",
        "hectares": 50.0,
        "production": 50.0,
        "year": 2023,
        "region": "Norte",
        "ibge_code": "1503309"
      },
      "geometry": {
        "type": "Point",
        "coordinates": [
          -51.79763603440307,
          -3.192712029103798
        ]
      }
    },
    {
      "type": "Feature",
      "properties": {
        "municipality": "Inhangapi",
        "state": "PA",
        "crop": "Banana (cacho)",
        "hectares": 140.0,
        "production": 140.0,
        "year": 2023,
        "region": "Norte",
        "ibge_code": "1503408"
      },
      "geometry": {
        "type": "Point",
        "coordinates": [
          -51.9853682465155,
          -3.395124982227255
        ]
      }
    },
    {
      "type": "Feature",
      "properties": {
        "municipality": "Ipixuna do Pará",
        "state": "PA",
        "crop": "Banana (cacho)",
        "hectares": 30.0,
        "production": 30.0,
        "year": 2023,
        "region": "Norte",
        "ibge_code": "1503457"
      },
      "geometry": {
        "type": "Point",
        "coordinates": [
          -52.28517187883402,
          -4.552309538961778
        ]
      }
    },
    {
      "type": "Feature",
      "properties": {
        "municipality": "Irituia",
        "state": "PA",
        "crop": "Banana (cacho)",
        "hectares": 100.0,
        "production": 100.0,
        "year": 2023,
        "region": "Norte",
        "ibge_code": "1503507"
      },
      "geometry": {
        "type": "Point",
        "coordinates": [
          -52.216899367146624,
          -4.292638041258286
        ]
      }
    },
    {
      "type": "Feature",
      "properties": {
        "municipality": "Itaituba",
        "state": "PA",
        "crop": "Banana (cacho)",
        "hectares": 1000.0,
        "production": 1000.0,
        "year": 2023,
        "region": "Norte",
        "ibge_code": "1503606"
      },
      "geometry": {
        "type": "Point",
        "coordinates": [
          -51.84811027495047,
          -2.9321150601668453
        ]
      }
    },
    {
      "type": "Feature",
      "properties": {
        "municipality": "Itupiranga",
        "state": "PA",
        "crop": "Banana (cacho)",
        "hectares": 540.0,
        "production": 540.0,
        "year": 2023,
        "region": "Norte",
        "ibge_code": "1503705"
      },
      "geometry": {
        "type": "Point",
        "coordinates": [
          -51.85956574919465,
          -4.365653795840394
        ]
      }
    },
    {
      "type": "Feature",
      "properties": {
        "municipality": "Jacareacanga",
        "state": "PA",
        "crop": "Banana (cacho)",
        "hectares": 220.0,
        "production": 220.0,
        "year": 2023,
        "region": "Norte",
        "ibge_code": "1503754"
      },
      "geometry": {
        "type": "Point",
        "coordinates": [
          -52.82216829308481,
          -3.8844048599615
        ]
      }
    },
    {
      "type": "Feature",
      "properties": {
        "municipality": "Juruti",
        "state": "PA",
        "crop": "Banana (cacho)",
        "hectares": 5.0,
        "production": 5.0,
        "year": 2023,
        "region": "Norte",
        "ibge_code": "1503903"
      },
      "geometry": {
        "type": "Point",
        "coordinates": [
          -53.107046219903914,
          -2.8560168682446516
        ]
      }
    },
    {
      "type": "Feature",
      "properties": {
        "municipality": "Limoeiro do Ajuru",
        "state": "PA",
        "crop": "Banana (cacho)",
        "hectares": 11.0,
        "production": 11.0,
        "year": 2023,
        "region": "Norte",
        "ibge_code": "1504000"
      },
      "geometry": {
        "type": "Point",
        "coordinates": [
          -53.1428808671189,
          -3.085633645795862
        ]
      }
    },
    {
      "type": "Feature",
      "properties": {
        "municipality": "Mãe do Rio",
        "state": "PA",
        "crop": "Banana (cacho)",
        "hectares": 10.0,
        "production": 10.0,
        "year": 2023,
        "region": "Norte",
        "ibge_code": "1504059"
      },
      "geometry": {
        "type": "Point",
        "coordinates": [
          -52.34358362081896,
          -2.8624345201482653
        ]
      }
    },
    {
      "type": "Feature",
      "properties": {
        "municipality": "Magalhães Barata",
        "state": "PA",
        "crop": "Banana (cacho)",
        "hectares": 8.0,
        "production": 8.0,
        "year": 2023,
        "region": "Norte",
        "ibge_code": "1504109"
      },
      "geometry": {
        "type": "Point",
        "coordinates": [
          -52.19589586824903,
          -3.118102959472668
        ]
      }
    },
    {
      "type": "Feature",
      "properties": {
        "municipality": "Marabá",
        "state": "PA",
        "crop": "Banana (cacho)",
        "hectares": 650.0,
        "production": 650.0,
        "year": 2023,
        "region": "Norte",
        "ibge_code": "1504208"
      },
      "geometry": {
        "type": "Point",
        "coordinates": [
          -51.64645369203947,
          -3.7997607020460635
        ]
      }
    },
    {
      "type": "Feature",
      "properties": {
        "municipality": "Maracanã",
        "state": "PA",
        "crop": "Banana (cacho)",
        "hectares": 50.0,
        "production": 50.0,
        "year": 2023,
        "region": "Norte",
        "ibge_code": "1504307"
      },
      "geometry": {
        "type": "Point",
        "coordinates": [
          -51.577034352288194,
          -4.290657924063412
        ]
      }
    },
    {
      "type": "Feature",
      "properties": {
        "municipality": "Marapanim",
        "state": "PA",
        "crop": "Banana (cacho)",
        "hectares": 10.0,
        "production": 10.0,
        "year": 2023,
        "region": "Norte",
        "ibge_code": "1504406"
      },
      "geometry": {
        "type": "Point",
        "coordinates": [
          -51.48835511859021,
          -3.919474192837907
        ]
      }
    },
    {
      "type": "Feature",
      "properties": {
        "municipality": "Medicilândia",
        "state": "PA",
        "crop": "Banana (cacho)",
        "hectares": 10530.0,
        "production": 10530.0,
        "year": 2023,
        "region": "Norte",
        "ibge_code": "1504455"
      },
      "geometry": {
        "type": "Point",
        "coordinates": [
          -53.24584206117708,
          -3.3954749754700404
        ]
      }
    },
    {
      "type": "Feature",
      "properties": {
        "municipality": "Melgaço",
        "state": "PA",
        "crop": "Banana (cacho)",
        "hectares": 65.0,
        "production": 65.0,
        "year": 2023,
        "region": "Norte",
        "ibge_code": "1504505"
      },
      "geometry": {
        "type": "Point",
        "coordinates": [
          -51.83971844576264,
          -3.668032180575014
        ]
      }
    },
    {
      "type": "Feature",
      "properties": {
        "municipality": "Mocajuba",
        "state": "PA",
        "crop": "Banana (cacho)",
        "hectares": 13.0,
        "production": 13.0,
        "year": 2023,
        "region": "Norte",
        "ibge_code": "1504604"
      },
      "geometry": {
        "type": "Point",
        "coordinates": [
          -52.15646445045625,
          -4.6447040059605715
        ]
      }
    },
    {
      "type": "Feature",
      "properties": {
        "municipality": "Moju",
        "state": "PA",
        "crop": "Banana (cacho)",
        "hectares": 1000.0,
        "production": 1000.0,
        "year": 2023,
        "region": "Norte",
        "ibge_code": "1504703"
      },
      "geometry": {
        "type": "Point",
        "coordinates": [
          -52.387524573226976,
          -3.9963325059246735
        ]
      }
    },
    {
      "type": "Feature",
      "properties": {
        "municipality": "Mojuí dos Campos",
        "state": "PA",
        "crop": "Banana (cacho)",
        "hectares": 45.0,
        "production": 45.0,
        "year": 2023,
        "region": "Norte",
        "ibge_code": "1504752"
      },
      "geometry": {
        "type": "Point",
        "coordinates": [
          -51.83976401325876,
          -4.308630562748136
        ]
      }
    },
    {
      "type": "Feature",
      "properties": {
        "municipality": "Monte Alegre",
        "state": "PA",
        "crop": "Banana (cacho)",
        "hectares": 330.0,
        "production": 330.0,
        "year": 2023,
        "region": "Norte",
        "ibge_code": "1504802"
      },
      "geometry": {
        "type": "Point",
        "coordinates": [
          -53.0767883117854,
          -3.3428924084353797
        ]
      }
    },
    {
      "type": "Feature",
      "properties": {
        "municipality": "Nova Esperança do Piriá",
        "state": "PA",
        "crop": "Banana (cacho)",
        "hectares": 70.0,
        "production": 70.0,
        "year": 2023,
        "region": "Norte",
        "ibge_code": "1504950"
      },
      "geometry": {
        "type": "Point",
        "coordinates": [
          -52.97413011045065,
          -3.3119098434865046
        ]
      }
    },
    {
      "type": "Feature",
      "properties": {
        "municipality": "Nova Ipixuna",
        "state": "PA",
        "crop": "Banana (cacho)",
        "hectares": 50.0,
        "production": 50.0,
        "year": 2023,
        "region": "Norte",
        "ibge_code": "1504976"
      },
      "geometry": {
        "type": "Point",
        "coordinates": [
          -53.36881565498298,
          -3.5209625329423453
        ]
      }
    },
    {
      "type": "Feature",
      "properties": {
        "municipality": "Novo Progresso",
        "state": "PA",
        "crop": "Banana (cacho)",
        "hectares": 120.0,
        "production": 120.0,
        "year": 2023,
        "region": "Norte",
        "ibge_code": "1505031"
      },
      "geometry": {
        "type": "Point",
        "coordinates": [
          -51.65695353186815,
          -3.4786588363896054
        ]
      }
    },
    {
      "type": "Feature",
      "properties": {
        "municipality": "Novo Repartimento",
        "state": "PA",
        "crop": "Banana (cacho)",
        "hectares": 484.0,
        "production": 484.0,
        "year": 2023,
        "region": "Norte",
        "ibge_code": "1505064"
      },
      "geometry": {
        "type": "Point",
        "coordinates": [
          -53.27324120467018,
          -3.1202712624799167
        ]
      }
    },
    {
      "type": "Feature",
      "properties": {
        "municipality": "Óbidos",
        "state": "PA",
        "crop": "Banana (cacho)",
        "hectares": 105.0,
        "production": 105.0,
        "year": 2023,
        "region": "Norte",
        "ibge_code": "1505106"
      },
      "geometry": {
        "type": "Point",
        "coordinates": [
          -51.561440603180586,
          -2.9438472690194444
        ]
      }
    },
    {
      "type": "Feature",
      "properties": {
        "municipality": "Oeiras do Pará",
        "state": "PA",
        "crop": "Banana (cacho)",
        "hectares": 100.0,
        "production": 100.0,
        "year": 2023,
        "region": "Norte",
        "ibge_code": "1505205"
      },
      "geometry": {
        "type": "Point",
        "coordinates": [
          -52.89986126668236,
          -4.313977293315378
        ]
      }
    },
    {
      "type": "Feature",
      "properties": {
        "municipality": "Oriximiná",
        "state": "PA",
        "crop": "Banana (cacho)",
        "hectares": 68.0,
        "production": 68.0,
        "year": 2023,
        "region": "Norte",
        "ibge_code": "1505304"
      },
      "geometry": {
        "type": "Point",
        "coordinates": [
          -51.73163897048522,
          -4.016240352545964
        ]
      }
    },
    {
      "type": "Feature",
      "properties": {
        "municipality": "Ourilândia do Norte",
        "state": "PA",
        "crop": "Banana (cacho)",
        "hectares": 140.0,
        "production": 140.0,
        "year": 2023,
        "region": "Norte",
        "ibge_code": "1505437"
      },
      "geometry": {
        "type": "Point",
        "coordinates": [
          -52.94590382217634,
          -3.373782024635345
        ]
      }
    },
    {
      "type": "Feature",
      "properties": {
        "municipality": "Pacajá",
        "state": "PA",
        "crop": "Banana (cacho)",
        "hectares": 1000.0,
        "production": 1000.0,
        "year": 2023,
        "region": "Norte",
        "ibge_code": "1505486"
      },
      "geometry": {
        "type": "Point",
        "coordinates": [
          -51.8555387294905,
          -2.802600206944514
        ]
      }
    },
    {
      "type": "Feature",
      "properties": {
        "municipality": "Palestina do Pará",
        "state": "PA",
        "crop": "Banana (cacho)",
        "hectares": 120.0,
        "production": 120.0,
        "year": 2023,
        "region": "Norte",
        "ibge_code": "1505494"
      },
      "geometry": {
        "type": "Point",
        "coordinates": [
          -51.94260261152073,
          -3.422267979473954
        ]
      }
    },