{
  "type": "FeatureCollection",
  "name": "Borracha (látex coagulado)_production",
  "features": [
    {
      "type": "Feature",
      "properties": {
        "municipality": "Acrelândia",
        "state": "AC",
        "crop": "Borracha (látex coagulado)",
        "hectares": 3.0,
        "production": 3.0,
        "year": 2023,
        "region": "Norte",
        "ibge_code": "1200013"
      },
      "geometry": {
        "type": "Point",
        "coordinates": [
          -70.59514436812134,
          -8.117808694532357
        ]
      }
    },
    {
      "type": "Feature",
      "properties": {
        "municipality": "Brasiléia",
        "state": "AC",
        "crop": "Borracha (látex coagulado)",
        "hectares": 7.0,
        "production": 7.0,
        "year": 2023,
        "region": "Norte",
        "ibge_code": "1200104"
      },
      "geometry": {
        "type": "Point",
        "coordinates": [
          -70.209389668062,
          -8.161718776310932
        ]
      }
    },
    {
      "type": "Feature",
      "properties": {
        "municipality": "Bujari",
        "state": "AC",
        "crop": "Borracha (látex coagulado)",
        "hectares": 21.0,
        "production": 21.0,
        "year": 2023,
        "region": "Norte",
        "ibge_code": "1200138"
      },
      "geometry": {
        "type": "Point",
        "coordinates": [
          -70.18073127393497,
          -9.762759540198658
        ]
      }
    },
    {
      "type": "Feature",
      "properties": {
        "municipality": "Capixaba",
        "state": "AC",
        "crop": "Borracha (látex coagulado)",
        "hectares": 63.0,
        "production": 63.0,
        "year": 2023,
        "region": "Norte",
        "ibge_code": "1200179"
      },
      "geometry": {
        "type": "Point",
        "coordinates": [
          -70.47982488555012,
          -9.061306731853383
        ]
      }
    },
    {
      "type": "Feature",
      "properties": {
        "municipality": "Epitaciolândia",
        "state": "AC",
        "crop": "Borracha (látex coagulado)",
        "hectares": 3.0,
        "production": 3.0,
        "year": 2023,
        "region": "Norte",
        "ibge_code": "1200252"
      },
      "geometry": {
        "type": "Point",
        "coordinates": [
          -70.0674822383062,
          -8.92478837618645
        ]
      }
    },
    {
      "type": "Feature",
      "properties": {
        "municipality": "Plácido de Castro",
        "state": "AC",
        "crop": "Borracha (látex coagulado)",
        "hectares": 10.0,
        "production": 10.0,
        "year": 2023,
        "region": "Norte",
        "ibge_code": "1200385"
      },
      "geometry": {
        "type": "Point",
        "coordinates": [
          -70.44148401407092,
          -9.505783016569053
        ]
      }
    },
    {
      "type": "Feature",
      "properties": {
        "municipality": "Rio Branco",
        "state": "AC",
        "crop": "Borracha (látex coagulado)",
        "hectares": 3.0,
        "production": 3.0,
        "year": 2023,
        "region": "Norte",
        "ibge_code": "1200401"
      },
      "geometry": {
        "type": "Point",
        "coordinates": [
          -69.961295582124,
          -9.428658517488996
        ]
      }
    },
    {
      "type": "Feature",
      "properties": {
        "municipality": "Senador Guiomard",
        "state": "AC",
        "crop": "Borracha (látex coagulado)",
        "hectares": 75.0,
        "production": 75.0,
        "year": 2023,
        "region": "Norte",
        "ibge_code": "1200450"
      },
      "geometry": {
        "type": "Point",
        "coordinates": [
          -70.43474447329871,
          -8.769959231713251
        ]
      }
    },
    {
      "type": "Feature",
      "properties": {
        "municipality": "Sena Madureira",
        "state": "AC",
        "crop": "Borracha (látex coagulado)",
        "hectares": 7.0,
        "production": 7.0,
        "year": 2023,
        "region": "Norte",
        "ibge_code": "1200500"
      },
      "geometry": {
        "type": "Point",
        "coordinates": [
          -71.60889164058379,
          -9.389671870349403
        ]
      }
    },
    {
      "type": "Feature",
      "properties": {
        "municipality": "Xapuri",
        "state": "AC",
        "crop": "Borracha (látex coagulado)",
        "hectares": 15.0,
        "production": 15.0,
        "year": 2023,
        "region": "Norte",
        "ibge_code": "1200708"
      },
      "geometry": {
        "type": "Point",
        "coordinates": [
          -70.82535088926788,
          -8.544098482681997
        ]
      }
    },
    {
      "type": "Feature",
      "properties": {
        "municipality": "Canutama",
        "state": "AM",
        "crop": "Borracha (látex coagulado)",
        "hectares": 3.0,
        "production": 3.0,
        "year": 2023,
        "region": "Norte",
        "ibge_code": "1300904"
      },
      "geometry": {
        "type": "Point",
        "coordinates": [
          -62.345727075710016,
          -5.770230199043253
        ]
      }
    },
    {
      "type": "Feature",
      "properties": {
        "municipality": "Itacoatiara",
        "state": "AM",
        "crop": "Borracha (látex coagulado)",
        "hectares": 15.0,
        "production": 15.0,
        "year": 2023,
        "region": "Norte",
        "ibge_code": "1301902"
      },
      "geometry": {
        "type": "Point",
        "coordinates": [
          -62.84025948338317,
          -4.5577557238158155
        ]
      }
    },
    {
      "type": "Feature",
      "properties": {
        "municipality": "Santana do Araguaia",
        "state": "PA",
        "crop": "Borracha (látex coagulado)",
        "hectares": 780.0,
        "production": 780.0,
        "year": 2023,
        "region": "Norte",
        "ibge_code": "1506708"
      },
      "geometry": {
        "type": "Point",
        "coordinates": [
          -52.50236438921829,
          -4.0095250211016955
        ]
      }
    },
    {
      "type": "Feature",
      "properties": {
        "municipality": "Araguaçu",
        "state": "TO",
        "crop": "Borracha (látex coagulado)",
        "hectares": 606.0,
        "production": 606.0,
        "year": 2023,
        "region": "Norte",
        "ibge_code": "1702000"
      },
      "geometry": {
        "type": "Point",
        "coordinates": [
          -49.085460683461505,
          -10.141841874114137
        ]
      }
    },
    {
      "type": "Feature",
      "properties": {
        "municipality": "Cariri do Tocantins",
        "state": "TO",
        "crop": "Borracha (látex coagulado)",
        "hectares": 18.0,
        "production": 18.0,
        "year": 2023,
        "region": "Norte",
        "ibge_code": "1703867"
      },
      "geometry": {
        "type": "Point",
        "coordinates": [
          -48.34491172753846,
          -10.563722207086855
        ]
      }
    },
    {
      "type": "Feature",
      "properties": {
        "municipality": "Guaraí",
        "state": "TO",
        "crop": "Borracha (látex coagulado)",
        "hectares": 30.0,
        "production": 30.0,
        "year": 2023,
        "region": "Norte",
        "ibge_code": "1709302"
      },
      "geometry": {
        "type": "Point",
        "coordinates": [
          -48.06626942584755,
          -10.878957587225832
        ]
      }
    },
    {
      "type": "Feature",
      "properties": {
        "municipality": "Gurupi",
        "state": "TO",
        "crop": "Borracha (látex coagulado)",
        "hectares": 10.0,
        "production": 10.0,
        "year": 2023,
        "region": "Norte",
        "ibge_code": "1709500"
      },
      "geometry": {
        "type": "Point",
        "coordinates": [
          -48.44282860193161,
          -10.179927181569804
        ]
      }
    },
    {
      "type": "Feature",
      "properties": {
        "municipality": "Marianópolis do Tocantins",
        "state": "TO",
        "crop": "Borracha (látex coagulado)",
        "hectares": 32.0,
        "production": 32.0,
        "year": 2023,
        "region": "Norte",
        "ibge_code": "1712504"
      },
      "geometry": {
        "type": "Point",
        "coordinates": [
          -47.4025450258813,
          -9.2632314562215
        ]
      }
    },
    {
      "type": "Feature",
      "properties": {
        "municipality": "Oliveira de Fátima",
        "state": "TO",
        "crop": "Borracha (látex coagulado)",
        "hectares": 9.0,
        "production": 9.0,
        "year": 2023,
        "region": "Norte",
        "ibge_code": "1715507"
      },
      "geometry": {
        "type": "Point",
        "coordinates": [
          -48.53330979512253,
          -10.2857285469629
        ]
      }
    },
    {
      "type": "Feature",
      "properties": {
        "municipality": "Palmeirópolis",
        "state": "TO",
        "crop": "Borracha (látex coagulado)",
        "hectares": 1106.0,
        "production": 1106.0,
        "year": 2023,
        "region": "Norte",
        "ibge_code": "1715754"
      },
      "geometry": {
        "type": "Point",
        "coordinates": [
          -48.973945689553034,
          -10.214178364677451
        ]
      }
    },
    {
      "type": "Feature",
      "properties": {
        "municipality": "Pedro Afonso",
        "state": "TO",
        "crop": "Borracha (látex coagulado)",
        "hectares": 75.0,
        "production": 75.0,
        "year": 2023,
        "region": "Norte",
        "ibge_code": "1716505"
      },
      "geometry": {
        "type": "Point",
        "coordinates": [
          -47.42237577313689,
          -9.21115494044534
        ]
      }
    },
    {
      "type": "Feature",
      "properties": {
        "municipality": "Sandolândia",
        "state": "TO",
        "crop": "Borracha (látex coagulado)",
        "hectares": 64.0,
        "production": 64.0,
        "year": 2023,
        "region": "Norte",
        "ibge_code": "1718840"
      },
      "geometry": {
        "type": "Point",
        "coordinates": [
          -47.8024585745632,
          -10.168664598433935
        ]
      }
    },
    {
      "type": "Feature",
      "properties": {
        "municipality": "Santa Fé do Araguaia",
        "state": "TO",
        "crop": "Borracha (látex coagulado)",
        "hectares": 500.0,
        "production": 500.0,
        "year": 2023,
        "region": "Norte",
        "ibge_code": "1718865"
      },
      "geometry": {
        "type": "Point",
        "coordinates": [
          -47.81483112964595,
          -10.848145490766612
        ]
      }
    },
    {
      "type": "Feature",
      "properties": {
        "municipality": "Talismã",
        "state": "TO",
        "crop": "Borracha (látex coagulado)",
        "hectares": 35.0,
        "production": 35.0,
        "year": 2023,
        "region": "Norte",
        "ibge_code": "1720978"
      },
      "geometry": {
        "type": "Point",
        "coordinates": [
          -47.61415099117262,
          -9.538138493599266
        ]
      }
    },
    {
      "type": "Feature",
      "properties": {
        "municipality": "Açailândia",
        "state": "MA",
        "crop": "Borracha (látex coagulado)",
        "hectares": 12.0,
        "production": 12.0,
        "year": 2023,
        "region": "Nordeste",
        "ibge_code": "2100055"
      },
      "geometry": {
        "type": "Point",
        "coordinates": [
          -45.48886088406008,
          -4.731406210845574
        ]
      }
    },
    {
      "type": "Feature",
      "properties": {
        "municipality": "Imperatriz",
        "state": "MA",
        "crop": "Borracha (látex coagulado)",
        "hectares": 9.0,
        "production": 9.0,
        "year": 2023,
        "region": "Nordeste",
        "ibge_code": "2105302"
      },
      "geometry": {
        "type": "Point",
        "coordinates": [
          -45.38795810873852,
          -4.817094300099886
        ]
      }
    },
    {
      "type": "Feature",
      "properties": {
        "municipality": "Itinga do Maranhão",
        "state": "MA",
        "crop": "Borracha (látex coagulado)",
        "hectares": 260.0,
        "production": 260.0,
        "year": 2023,
        "region": "Nordeste",
        "ibge_code": "2105427"
      },
      "geometry": {
        "type": "Point",
        "coordinates": [
          -44.66106401325876,
          -5.557530562748136
        ]
      }
    },
    {
      "type": "Feature",
      "properties": {
        "municipality": "São Francisco do Brejão",
        "state": "MA",
        "crop": "Borracha (látex coagulado)",
        "hectares": 98.0,
        "production": 98.0,
        "year": 2023,
        "region": "Nordeste",
        "ibge_code": "2110856"
      },
      "geometry": {
        "type": "Point",
        "coordinates": [
          -44.571599249969104,
          -4.148157689477076
        ]
      }
    },
    {
      "type": "Feature",
      "properties": {
        "municipality": "São Pedro da Água Branca",
        "state": "MA",
        "crop": "Borracha (látex coagulado)",
        "hectares": 48.0,
        "production": 48.0,
        "year": 2023,
        "region": "Nordeste",
        "ibge_code": "2111532"
      },
      "geometry": {
        "type": "Point",
        "coordinates": [
          -44.833967668957875,
          -4.616331527922901
        ]
      }
    },
    {
      "type": "Feature",
      "properties": {
        "municipality": "Escada",
        "state": "PE",
        "crop": "Borracha (látex coagulado)",
        "hectares": 100.0,
        "production": 100.0,
        "year": 2023,
        "region": "Nordeste",
        "ibge_code": "2605202"
      },
      "geometry": {
        "type": "Point",
        "coordinates": [
          -36.06061006008329,
          -9.621017771111493
        ]
      }
    },
    {
      "type": "Feature",
      "properties": {
        "municipality": "Gameleira",
        "state": "PE",
        "crop": "Borracha (látex coagulado)",
        "hectares": 8.0,
        "production": 8.0,
        "year": 2023,
        "region": "Nordeste",
        "ibge_code": "2605905"
      },
      "geometry": {
        "type": "Point",
        "coordinates": [
          -36.30073218310254,
          -9.604641895805432
        ]
      }
    },
    {
      "type": "Feature",
      "properties": {
        "municipality": "Rio Formoso",
        "state": "PE",
        "crop": "Borracha (látex coagulado)",
        "hectares": 150.0,
        "production": 150.0,
        "year": 2023,
        "region": "Nordeste",
        "ibge_code": "2611903"
      },
      "geometry": {
        "type": "Point",
        "coordinates": [
          -37.57045235774225,
          -9.481271128866311
        ]
      }
    },
    {
      "type": "Feature",
      "properties": {
        "municipality": "Sirinhaém",
        "state": "PE",
        "crop": "Borracha (látex coagulado)",
        "hectares": 150.0,
        "production": 150.0,
        "year": 2023,
        "region": "Nordeste",
        "ibge_code": "2614204"
      },
      "geometry": {
        "type": "Point",
        "coordinates": [
          -37.594462102709365,
          -7.961074282985972
        ]
      }
    },
    {
      "type": "Feature",
      "properties": {
        "municipality": "Alcobaça",
        "state": "BA",
        "crop": "Borracha (látex coagulado)",
        "hectares": 9.0,
        "production": 9.0,
        "year": 2023,
        "region": "Nordeste",
        "ibge_code": "2900801"
      },
      "geometry": {
        "type": "Point",
        "coordinates": [
          -41.84166682250102,
          -14.084141991005163
        ]
      }
    },
    {
      "type": "Feature",
      "properties": {
        "municipality": "Almadina",
        "state": "BA",
        "crop": "Borracha (látex coagulado)",
        "hectares": 6.0,
        "production": 6.0,
        "year": 2023,
        "region": "Nordeste",
        "ibge_code": "2900900"
      },
      "geometry": {
        "type": "Point",
        "coordinates": [
          -42.60457533791058,
          -14.284534667793439
        ]
      }
    },
    {
      "type": "Feature",
      "properties": {
        "municipality": "Arataca",
        "state": "BA",
        "crop": "Borracha (látex coagulado)",
        "hectares": 354.0,
        "production": 354.0,
        "year": 2023,
        "region": "Nordeste",
        "ibge_code": "2902252"
      },
      "geometry": {
        "type": "Point",
        "coordinates": [
          -42.31389579245138,
          -13.544628469976281
        ]
      }
    },
    {
      "type": "Feature",
      "properties": {
        "municipality": "Barra do Rocha",
        "state": "BA",
        "crop": "Borracha (látex coagulado)",
        "hectares": 21.0,
        "production": 21.0,
        "year": 2023,
        "region": "Nordeste",
        "ibge_code": "2903102"
      },
      "geometry": {
        "type": "Point",
        "coordinates": [
          -42.05920089133465,
          -14.156295482481193
        ]
      }
    },
    {
      "type": "Feature",
      "properties": {
        "municipality": "Barro Preto",
        "state": "BA",
        "crop": "Borracha (látex coagulado)",
        "hectares": 141.0,
        "production": 141.0,
        "year": 2023,
        "region": "Nordeste",
        "ibge_code": "2903300"
      },
      "geometry": {
        "type": "Point",
        "coordinates": [
          -42.69479564555753,
          -13.783322604807257
        ]
      }
    },
    {
      "type": "Feature",
      "properties": {
        "municipality": "Belmonte",
        "state": "BA",
        "crop": "Borracha (látex coagulado)",
        "hectares": 1.0,
        "production": 1.0,
        "year": 2023,
        "region": "Nordeste",
        "ibge_code": "2903409"
      },
      "geometry": {
        "type": "Point",
        "coordinates": [
          -41.36442465622979,
          -13.046719137106916
        ]
      }
    },
    {
      "type": "Feature",
      "properties": {
        "municipality": "Buerarema",
        "state": "BA",
        "crop": "Borracha (látex coagulado)",
        "hectares": 210.0,
        "production": 210.0,
        "year": 2023,
        "region": "Nordeste",
        "ibge_code": "2904704"
      },
      "geometry": {
        "type": "Point",
        "coordinates": [
          -41.88391436714348,
          -14.156732047314497
        ]
      }
    },
    {
      "type": "Feature",
      "properties": {
        "municipality": "Camacan",
        "state": "BA",
        "crop": "Borracha (látex coagulado)",
        "hectares": 42.0,
        "production": 42.0,
        "year": 2023,
        "region": "Nordeste",
        "ibge_code": "2905602"
      },
      "geometry": {
        "type": "Point",
        "coordinates": [
          -40.99367548043681,
          -14.090808391446465
        ]
      }
    },
    {
      "type": "Feature",
      "properties": {
        "municipality": "Camamu",
        "state": "BA",
        "crop": "Borracha (látex coagulado)",
        "hectares": 3321.0,
        "production": 3321.0,
        "year": 2023,
        "region": "Nordeste",
        "ibge_code": "2905800"
      },
      "geometry": {
        "type": "Point",
        "coordinates": [
          -41.19282212086149,
          -12.96461576916309
        ]
      }
    },
    {
      "type": "Feature",
      "properties": {
        "municipality": "Canavieiras",
        "state": "BA",
        "crop": "Borracha (látex coagulado)",
        "hectares": 9.0,
        "production": 9.0,
        "year": 2023,
        "region": "Nordeste",
        "ibge_code": "2906303"
      },
      "geometry": {
        "type": "Point",
        "coordinates": [
          -42.25876594526991,
          -13.573003262391696
        ]
      }
    },
    {
      "type": "Feature",
      "properties": {
        "municipality": "Caravelas",
        "state": "BA",
        "crop": "Borracha (látex coagulado)",
        "hectares": 5.0,
        "production": 5.0,
        "year": 2023,
        "region": "Nordeste",
        "ibge_code": "2906907"
      },
      "geometry": {
        "type": "Point",
        "coordinates": [
          -40.729000938972256,
          -13.88071754987731
        ]
      }
    },
    {
      "type": "Feature",
      "properties": {
        "municipality": "Coaraci",
        "state": "BA",
        "crop": "Borracha (látex coagulado)",
        "hectares": 20.0,
        "production": 20.0,
        "year": 2023,
        "region": "Nordeste",
        "ibge_code": "2908002"
      },
      "geometry": {
        "type": "Point",
        "coordinates": [
          -42.28316642107002,
          -14.135656432293391
        ]
      }
    },
    {
      "type": "Feature",
      "properties": {
        "municipality": "Eunápolis",
        "state": "BA",
        "crop": "Borracha (látex coagulado)",
        "hectares": 120.0,
        "production": 120.0,
        "year": 2023,
        "region": "Nordeste",
        "ibge_code": "2910727"
      },
      "geometry": {
        "type": "Point",
        "coordinates": [
          -41.214658574563195,
          -13.283864598433937
        ]
      }
    },
    {
      "type": "Feature",
      "properties": {
        "municipality": "Gandu",
        "state": "BA",
        "crop": "Borracha (látex coagulado)",
        "hectares": 104.0,
        "production": 104.0,
        "year": 2023,
        "region": "Nordeste",
        "ibge_code": "2911204"
      },
      "geometry": {
        "type": "Point",
        "coordinates": [
          -41.493544368121334,
          -12.384508694532357
        ]
      }
    },
    {
      "type": "Feature",
      "properties": {
        "municipality": "Guaratinga",
        "state": "BA",
        "crop": "Borracha (látex coagulado)",
        "hectares": 36.0,
        "production": 36.0,
        "year": 2023,
        "region": "Nordeste",
        "ibge_code": "2911808"
      },
      "geometry": {
        "type": "Point",
        "coordinates": [
          -42.47597858646141,
          -12.815400819753629
        ]
      }
    },
    {
      "type": "Feature",
      "properties": {
        "municipality": "Ibicaraí",
        "state": "BA",
        "crop": "Borracha (látex coagulado)",
        "hectares": 48.0,
        "production": 48.0,
        "year": 2023,
        "region": "Nordeste",
        "ibge_code": "2912103"
      },
      "geometry": {
        "type": "Point",
        "coordinates": [
          -42.171432614076295,
          -13.573036775664825
        ]
      }
    },
    {
      "type": "Feature",
      "properties": {
        "municipality": "Ibirapitanga",
        "state": "BA",
        "crop": "Borracha (látex coagulado)",
        "hectares": 94.0,
        "production": 94.0,
        "year": 2023,
        "region": "Nordeste",
        "ibge_code": "2912707"
      },
      "geometry": {
        "type": "Point",
        "coordinates": [
          -41.78338423388291,
          -13.637465361819013
        ]
      }
    },
    {
      "type": "Feature",
      "properties": {
        "municipality": "Ibirataia",
        "state": "BA",
        "crop": "Borracha (látex coagulado)",
        "hectares": 24.0,
        "production": 24.0,
        "year": 2023,
        "region": "Nordeste",
        "ibge_code": "2912905"
      },
      "geometry": {
        "type": "Point",
        "coordinates": [
          -41.014135967507286,
          -12.313598239502062
        ]
      }
    },
    {
      "type": "Feature",
      "properties": {
        "municipality": "Igrapiúna",
        "state": "BA",
        "crop": "Borracha (látex coagulado)",
        "hectares": 4300.0,
        "production": 4300.0,
        "year": 2023,
        "region": "Nordeste",
        "ibge_code": "2913457"
      },
      "geometry": {
        "type": "Point",
        "coordinates": [
          -41.40739760296311,
          -13.784059381870174
        ]
      }
    },
    {
      "type": "Feature",
      "properties": {
        "municipality": "Ilhéus",
        "state": "BA",
        "crop": "Borracha (látex coagulado)",
        "hectares": 742.0,
        "production": 742.0,
        "year": 2023,
        "region": "Nordeste",
        "ibge_code": "2913606"
      },
      "geometry": {
        "type": "Point",
        "coordinates": [
          -41.82283005867878,
          -12.459592387139983
        ]
      }
    },
    {
      "type": "Feature",
      "properties": {
        "municipality": "Ipiaú",
        "state": "BA",
        "crop": "Borracha (látex coagulado)",
        "hectares": 12.0,
        "production": 12.0,
        "year": 2023,
        "region": "Nordeste",
        "ibge_code": "2913903"
      },
      "geometry": {
        "type": "Point",
        "coordinates": [
          -41.34313595022391,
          -13.662691583152752
        ]
      }
    },
    {
      "type": "Feature",
      "properties": {
        "municipality": "Itabela",
        "state": "BA",
        "crop": "Borracha (látex coagulado)",
        "hectares": 30.0,
        "production": 30.0,
        "year": 2023,
        "region": "Nordeste",
        "ibge_code": "2914653"
      },
      "geometry": {
        "type": "Point",
        "coordinates": [
          -42.62965402393395,
          -12.664756707700297
        ]
      }
    },
    {
      "type": "Feature",
      "properties": {
        "municipality": "Itabuna",
        "state": "BA",
        "crop": "Borracha (látex coagulado)",
        "hectares": 10.0,
        "production": 10.0,
        "year": 2023,
        "region": "Nordeste",
        "ibge_code": "2914802"
      },
      "geometry": {
        "type": "Point",
        "coordinates": [
          -42.20320382217634,
          -12.952282024635345
        ]
      }
    },
    {
      "type": "Feature",
      "properties": {
        "municipality": "Itacaré",
        "state": "BA",
        "crop": "Borracha (látex coagulado)",
        "hectares": 167.0,
        "production": 167.0,
        "year": 2023,
        "region": "Nordeste",
        "ibge_code": "2914901"
      },
      "geometry": {
        "type": "Point",
        "coordinates": [
          -41.61388938098942,
          -12.368938486489535
        ]
      }
    },
    {
      "type": "Feature",
      "properties": {
        "municipality": "Itagi",
        "state": "BA",
        "crop": "Borracha (látex coagulado)",
        "hectares": 5.0,
        "production": 5.0,
        "year": 2023,
        "region": "Nordeste",
        "ibge_code": "2915106"
      },
      "geometry": {
        "type": "Point",
        "coordinates": [
          -42.12966852827323,
          -13.156251942796032
        ]
      }
    },
    {
      "type": "Feature",
      "properties": {
        "municipality": "Itajuípe",
        "state": "BA",
        "crop": "Borracha (látex coagulado)",
        "hectares": 20.0,
        "production": 20.0,
        "year": 2023,
        "region": "Nordeste",
        "ibge_code": "2915502"
      },
      "geometry": {
        "type": "Point",
        "coordinates": [
          -42.60274176267823,
          -13.617843235272739
        ]
      }
    },
    {
      "type": "Feature",
      "properties": {
        "municipality": "Itamaraju",
        "state": "BA",
        "crop": "Borracha (látex coagulado)",
        "hectares": 150.0,
        "production": 150.0,
        "year": 2023,
        "region": "Nordeste",
        "ibge_code": "2915601"
      },
      "geometry": {
        "type": "Point",
        "coordinates": [
          -42.33310365736925,
          -13.260624091984502
        ]
      }
    },
    {
      "type": "Feature",
      "properties": {
        "municipality": "Ituberá",
        "state": "BA",
        "crop": "Borracha (látex coagulado)",
        "hectares": 3000.0,
        "production": 3000.0,
        "year": 2023,
        "region": "Nordeste",
        "ibge_code": "2917300"
      },
      "geometry": {
        "type": "Point",
        "coordinates": [
          -42.50686584870191,
          -14.241179935446752
        ]
      }
    },
    {
      "type": "Feature",
      "properties": {
        "municipality": "Jiquiriçá",
        "state": "BA",
        "crop": "Borracha (látex coagulado)",
        "hectares": 21.0,
        "production": 21.0,
        "year": 2023,
        "region": "Nordeste",
        "ibge_code": "2918209"
      },
      "geometry": {
        "type": "Point",
        "coordinates": [
          -41.89495579784139,
          -13.465642345491442
        ]
      }
    },
    {
      "type": "Feature",
      "properties": {
        "municipality": "Jucuruçu",
        "state": "BA",
        "crop": "Borracha (látex coagulado)",
        "hectares": 45.0,
        "production": 45.0,
        "year": 2023,
        "region": "Nordeste",
        "ibge_code": "2918456"
      },
      "geometry": {
        "type": "Point",
        "coordinates": [
          -42.21777562254052,
          -12.332326050898264
        ]
      }
    },
    {
      "type": "Feature",
      "properties": {
        "municipality": "Laje",
        "state": "BA",
        "crop": "Borracha (látex coagulado)",
        "hectares": 11.0,
        "production": 11.0,
        "year": 2023,
        "region": "Nordeste",
        "ibge_code": "2918803"
      },
      "geometry": {
        "type": "Point",
        "coordinates": [
          -40.7717334675571,
          -13.161293533872342
        ]
      }
    },
    {
      "type": "Feature",
      "properties": {
        "municipality": "Maraú",
        "state": "BA",
        "crop": "Borracha (látex coagulado)",
        "hectares": 886.0,
        "production": 886.0,
        "year": 2023,
        "region": "Nordeste",
        "ibge_code": "2920700"
      },
      "geometry": {
        "type": "Point",
        "coordinates": [
          -40.85645240796179,
          -14.190158031666888
        ]
      }
    },
    {
      "type": "Feature",
      "properties": {
        "municipality": "Mascote",
        "state": "BA",
        "crop": "Borracha (látex coagulado)",
        "hectares": 6.0,
        "production": 6.0,
        "year": 2023,
        "region": "Nordeste",
        "ibge_code": "2920908"
      },
      "geometry": {
        "type": "Point",
        "coordinates": [
          -41.85257619536036,
          -13.467561687749367
        ]
      }
    },
    {
      "type": "Feature",
      "properties": {
        "municipality": "Mucuri",
        "state": "BA",
        "crop": "Borracha (látex coagulado)",
        "hectares": 32.0,
        "production": 32.0,
        "year": 2023,
        "region": "Nordeste",
        "ibge_code": "2922003"
      },
      "geometry": {
        "type": "Point",
        "coordinates": [
          -41.71977953605917,
          -12.94400832982926
        ]
      }
    },
    {
      "type": "Feature",
      "properties": {
        "municipality": "Mutuípe",
        "state": "BA",
        "crop": "Borracha (látex coagulado)",
        "hectares": 66.0,
        "production": 66.0,
        "year": 2023,
        "region": "Nordeste",
        "ibge_code": "2922409"
      },
      "geometry": {
        "type": "Point",
        "coordinates": [
          -41.32021472370738,
          -12.296411871616735
        ]
      }
    },
    {
      "type": "Feature",
      "properties": {
        "municipality": "Nilo Peçanha",
        "state": "BA",
        "crop": "Borracha (látex coagulado)",
        "hectares": 500.0,
        "production": 500.0,
        "year": 2023,
        "region": "Nordeste",
        "ibge_code": "2922607"
      },
      "geometry": {
        "type": "Point",
        "coordinates": [
          -42.205444617100454,
          -14.250798921071139
        ]
      }
    },
    {
      "type": "Feature",
      "properties": {
        "municipality": "Nova Viçosa",
        "state": "BA",
        "crop": "Borracha (látex coagulado)",
        "hectares": 41.0,
        "production": 41.0,
        "year": 2023,
        "region": "Nordeste",
        "ibge_code": "2923001"
      },
      "geometry": {
        "type": "Point",
        "coordinates": [
          -41.2491054494136,
          -12.855887516893032
        ]
      }
    },
    {
      "type": "Feature",
      "properties": {
        "municipality": "Pau Brasil",
        "state": "BA",
        "crop": "Borracha (látex coagulado)",
        "hectares": 13.0,
        "production": 13.0,
        "year": 2023,
        "region": "Nordeste",
        "ibge_code": "2923902"
      },
      "geometry": {
        "type": "Point",
        "coordinates": [
          -41.48779059545949,
          -12.981620362076354
        ]
      }
    },
    {
      "type": "Feature",
      "properties": {
        "municipality": "Piraí do Norte",
        "state": "BA",
        "crop": "Borracha (látex coagulado)",
        "hectares": 450.0,
        "production": 450.0,
        "year": 2023,
        "region": "Nordeste",
        "ibge_code": "2924678"
      },
      "geometry": {
        "type": "Point",
        "coordinates": [
          -40.753025039920466,
          -13.436362217066218
        ]
      }
    },
    {
      "type": "Feature",
      "properties": {
        "municipality": "Porto Seguro",
        "state": "BA",
        "crop": "Borracha (látex coagulado)",
        "hectares": 989.0,
        "production": 989.0,
        "year": 2023,
        "region": "Nordeste",
        "ibge_code": "2925303"
      },
      "geometry": {
        "type": "Point",
        "coordinates": [
          -41.014135967507286,
          -12.313598239502062
        ]
      }
    },
    {
      "type": "Feature",
      "properties": {
        "municipality": "Prado",
        "state": "BA",
        "crop": "Borracha (látex coagulado)",
        "hectares": 15.0,
        "production": 15.0,
        "year": 2023,
        "region": "Nordeste",
        "ibge_code": "2925501"
      },
      "geometry": {
        "type": "Point",
        "coordinates": [
          -40.97742694423408,
          -13.98529147704954
        ]
      }
    },
    {
      "type": "Feature",
      "properties": {
        "municipality": "Presidente Tancredo Neves",
        "state": "BA",
        "crop": "Borracha (látex coagulado)",
        "hectares": 130.0,
        "production": 130.0,
        "year": 2023,
        "region": "Nordeste",
        "ibge_code": "2925758"
      },
      "geometry": {
        "type": "Point",
        "coordinates": [
          -41.63283360932826,
          -14.135015967561094
        ]
      }
    },
    {
      "type": "Feature",
      "properties": {
        "municipality": "Santa Cruz Cabrália",
        "state": "BA",
        "crop": "Borracha (látex coagulado)",
        "hectares": 18.0,
        "production": 18.0,
        "year": 2023,
        "region": "Nordeste",
        "ibge_code": "2927705"
      },
      "geometry": {
        "type": "Point",
        "coordinates": [
          -41.54782013921844,
          -13.797536080661283
        ]
      }
    },
    {
      "type": "Feature",
      "properties": {
        "municipality": "Santa Luzia",
        "state": "BA",
        "crop": "Borracha (látex coagulado)",
        "hectares": 113.0,
        "production": 113.0,
        "year": 2023,
        "region": "Nordeste",
        "ibge_code": "2928059"
      },
      "geometry": {
        "type": "Point",
        "coordinates": [
          -41.7596959606196,
          -14.006004835266625
        ]
      }
    },
    {
      "type": "Feature",
      "properties": {
        "municipality": "São José da Vitória",
        "state": "BA",
        "crop": "Borracha (látex coagulado)",
        "hectares": 116.0,
        "production": 116.0,
        "year": 2023,
        "region": "Nordeste",
        "ibge_code": "2929354"
      },
      "geometry": {
        "type": "Point",
        "coordinates": [
          -40.74397216684744,
          -13.633098958933804
        ]
      }
    },
    {
      "type": "Feature",
      "properties": {
        "municipality": "Teixeira de Freitas",
        "state": "BA",
        "crop": "Borracha (látex coagulado)",
        "hectares": 40.0,
        "production": 40.0,
        "year": 2023,
        "region": "Nordeste",
        "ibge_code": "2931350"
      },
      "geometry": {
        "type": "Point",
        "coordinates": [
          -42.485602277839526,
          -14.26594350520405
        ]
      }
    },
    {
      "type": "Feature",
      "properties": {
        "municipality": "Una",
        "state": "BA",
        "crop": "Borracha (látex coagulado)",
        "hectares": 6252.0,
        "production": 6252.0,
        "year": 2023,
        "region": "Nordeste",
        "ibge_code": "2932507"
      },
      "geometry": {
        "type": "Point",
        "coordinates": [
          -41.91550894582834,
          -13.878575300097763
        ]
      }
    },
    {
      "type": "Feature",
      "properties": {
        "municipality": "Uruçuca",
        "state": "BA",
        "crop": "Borracha (látex coagulado)",
        "hectares": 371.0,
        "production": 371.0,
        "year": 2023,
        "region": "Nordeste",
        "ibge_code": "2932705"
      },
      "geometry": {
        "type": "Point",
        "coordinates": [
          -42.68392496818996,
          -13.67271068251409
        ]
      }
    },
    {
      "type": "Feature",
      "properties": {
        "municipality": "Valença",
        "state": "BA",
        "crop": "Borracha (látex coagulado)",
        "hectares": 504.0,
        "production": 504.0,
        "year": 2023,
        "region": "Nordeste",
        "ibge_code": "2932903"
      },
      "geometry": {
        "type": "Point",
        "coordinates": [
          -42.02002047867224,
          -13.877424242874978
        ]
      }
    },
    {
      "type": "Feature",
      "properties": {
        "municipality": "Wenceslau Guimarães",
        "state": "BA",
        "crop": "Borracha (látex coagulado)",
        "hectares": 377.0,
        "production": 377.0,
        "year": 2023,
        "region": "Nordeste",
        "ibge_code": "2933505"
      },
      "geometry": {
        "type": "Point",
        "coordinates": [
          -42.40719204847991,
          -13.069703687659388
        ]
      }
    },
    {
      "type": "Feature",
      "properties": {
        "municipality": "Água Comprida",
        "state": "MG",
        "crop": "Borracha (látex coagulado)",
        "hectares": 380.0,
        "production": 380.0,
        "year": 2023,
        "region": "Sudeste",
        "ibge_code": "3100708"
      },
      "geometry": {
        "type": "Point",
        "coordinates": [
          -44.17774447329871,
          -18.258359231713253
        ]
      }
    },
    {
      "type": "Feature",
      "properties": {
        "municipality": "Araguari",
        "state": "MG",
        "crop": "Borracha (látex coagulado)",
        "hectares": 310.0,
        "production": 310.0,
        "year": 2023,
        "region": "Sudeste",
        "ibge_code": "3103504"
      },
      "geometry": {
        "type": "Point",
        "coordinates": [
          -45.32057858646141,
          -18.03710081975363
        ]
      }
    },
    {
      "type": "Feature",
      "properties": {
        "municipality": "Astolfo Dutra",
        "state": "MG",
        "crop": "Borracha (látex coagulado)",
        "hectares": 2.0,
        "production": 2.0,
        "year": 2023,
        "region": "Sudeste",
        "ibge_code": "3104601"
      },
      "geometry": {
        "type": "Point",
        "coordinates": [
          -43.71671143457994,
          -19.42410553260665
        ]
      }
    },
    {
      "type": "Feature",
      "properties": {
        "municipality": "Biquinhas",
        "state": "MG",
        "crop": "Borracha (látex coagulado)",
        "hectares": 19.0,
        "production": 19.0,
        "year": 2023,
        "region": "Sudeste",
        "ibge_code": "3107000"
      },
      "geometry": {
        "type": "Point",
        "coordinates": [
          -44.760709369227364,
          -17.622015609257446
        ]
      }
    },
    {
      "type": "Feature",
      "properties": {
        "municipality": "Bom Despacho",
        "state": "MG",
        "crop": "Borracha (látex coagulado)",
        "hectares": 24.0,
        "production": 24.0,
        "year": 2023,
        "region": "Sudeste",
        "ibge_code": "3107406"
      },
      "geometry": {
        "type": "Point",
        "coordinates": [
          -43.71675724287319,
          -17.70935359674158
        ]
      }
    },
    {
      "type": "Feature",
      "properties": {
        "municipality": "Campina Verde",
        "state": "MG",
        "crop": "Borracha (látex coagulado)",
        "hectares": 500.0,
        "production": 500.0,
        "year": 2023,
        "region": "Sudeste",
        "ibge_code": "3111101"
      },
      "geometry": {
        "type": "Point",
        "coordinates": [
          -45.300781628978605,
          -18.24125796860654
        ]
      }
    },
    {
      "type": "Feature",
      "properties": {
        "municipality": "Campo Florido",
        "state": "MG",
        "crop": "Borracha (látex coagulado)",
        "hectares": 187.0,
        "production": 187.0,
        "year": 2023,
        "region": "Sudeste",
        "ibge_code": "3111408"
      },
      "geometry": {
        "type": "Point",
        "coordinates": [
          -44.47812861768743,
          -18.9010637958908
        ]
      }
    },
    {
      "type": "Feature",
      "properties": {
        "municipality": "Canápolis",
        "state": "MG",
        "crop": "Borracha (látex coagulado)",
        "hectares": 96.0,
        "production": 96.0,
        "year": 2023,
        "region": "Sudeste",
        "ibge_code": "3111804"
      },
      "geometry": {
        "type": "Point",
        "coordinates": [
          -43.94166401325876,
          -19.108830562748135
        ]
      }
    },
    {
      "type": "Feature",
      "properties": {
        "municipality": "Carneirinho",
        "state": "MG",
        "crop": "Borracha (látex coagulado)",
        "hectares": 370.0,
        "production": 370.0,
        "year": 2023,
        "region": "Sudeste",
        "ibge_code": "3114550"
      },
      "geometry": {
        "type": "Point",
        "coordinates": [
          -43.722391591958626,
          -18.102699315203694
        ]
      }
    },
    {
      "type": "Feature",
      "properties": {
        "municipality": "Cássia",
        "state": "MG",
        "crop": "Borracha (látex coagulado)",
        "hectares": 30.0,
        "production": 30.0,
        "year": 2023,
        "region": "Sudeste",
        "ibge_code": "3115102"
      },
      "geometry": {
        "type": "Point",
        "coordinates": [
          -44.86698847841699,
          -17.631077049318105
        ]
      }
    },
    {
      "type": "Feature",
      "properties": {
        "municipality": "Cataguases",
        "state": "MG",
        "crop": "Borracha (látex coagulado)",
        "hectares": 80.0,
        "production": 80.0,
        "year": 2023,
        "region": "Sudeste",
        "ibge_code": "3115300"
      },
      "geometry": {
        "type": "Point",
        "coordinates": [
          -44.08118360101849,
          -18.157665321543114
        ]
      }
    },
    {
      "type": "Feature",
      "properties": {
        "municipality": "Catuji",
        "state": "MG",
        "crop": "Borracha (látex coagulado)",
        "hectares": 30.0,
        "production": 30.0,
        "year": 2023,
        "region": "Sudeste",
        "ibge_code": "3115458"
      },
      "geometry": {
        "type": "Point",
        "coordinates": [
          -45.07401634492078,
          -18.96036417980492
        ]
      }
    },
    {
      "type": "Feature",
      "properties": {
        "municipality": "Centralina",
        "state": "MG",
        "crop": "Borracha (látex coagulado)",
        "hectares": 60.0,
        "production": 60.0,
        "year": 2023,
        "region": "Sudeste",
        "ibge_code": "3115805"
      },
      "geometry": {
        "type": "Point",
        "coordinates": [
          -43.661510060083295,
          -19.319517771111492
        ]
      }
    },
    {
      "type": "Feature",
      "properties": {
        "municipality": "Chapada Gaúcha",
        "state": "MG",
        "crop": "Borracha (látex coagulado)",
        "hectares": 450.0,
        "production": 450.0,
        "year": 2023,
        "region": "Sudeste",
        "ibge_code": "3116159"
      },
      "geometry": {
        "type": "Point",
        "coordinates": [
          -45.475023055032274,
          -18.63180100823503
        ]
      }
    },
    {
      "type": "Feature",
      "properties": {
        "municipality": "Claraval",
        "state": "MG",
        "crop": "Borracha (látex coagulado)",
        "hectares": 30.0,
        "production": 30.0,
        "year": 2023,
        "region": "Sudeste",
        "ibge_code": "3116407"
      },
      "geometry": {
        "type": "Point",
        "coordinates": [
          -44.77209901649388,
          -17.55689335442344
        ]
      }
    },
    {
      "type": "Feature",
      "properties": {
        "municipality": "Comendador Gomes",
        "state": "MG",
        "crop": "Borracha (látex coagulado)",
        "hectares": 500.0,
        "production": 500.0,
        "year": 2023,
        "region": "Sudeste",
        "ibge_code": "3116902"
      },
      "geometry": {
        "type": "Point",
        "coordinates": [
          -44.15808764708399,
          -18.959410386887395
        ]
      }
    },
    {
      "type": "Feature",
      "properties": {
        "municipality": "Conceição das Alagoas",
        "state": "MG",
        "crop": "Borracha (látex coagulado)",
        "hectares": 7.0,
        "production": 7.0,
        "year": 2023,
        "region": "Sudeste",
        "ibge_code": "3117306"
      },
      "geometry": {
        "type": "Point",
        "coordinates": [
          -44.27874984819735,
          -17.87031446978332
        ]
      }
    },
    {
      "type": "Feature",
      "properties": {
        "municipality": "Coromandel",
        "state": "MG",
        "crop": "Borracha (látex coagulado)",
        "hectares": 25.0,
        "production": 25.0,
        "year": 2023,
        "region": "Sudeste",
        "ibge_code": "3119302"
      },
      "geometry": {
        "type": "Point",
        "coordinates": [
          -43.72892912997211,
          -18.902387177850606
        ]
      }
    },
    {
      "type": "Feature",
      "properties": {
        "municipality": "Cristais",
        "state": "MG",
        "crop": "Borracha (látex coagulado)",
        "hectares": 52.0,
        "production": 52.0,
        "year": 2023,
        "region": "Sudeste",
        "ibge_code": "3120201"
      },
      "geometry": {
        "type": "Point",
        "coordinates": [
          -45.17270788259832,
          -19.131219624449862
        ]
      }
    },
    {
      "type": "Feature",
      "properties": {
        "municipality": "Curvelo",
        "state": "MG",
        "crop": "Borracha (látex coagulado)",
        "hectares": 150.0,
        "production": 150.0,
        "year": 2023,
        "region": "Sudeste",
        "ibge_code": "3120904"
      },
      "geometry": {
        "type": "Point",
        "coordinates": [
          -44.338144368121334,
          -17.606208694532356
        ]
      }
    },
    {
      "type": "Feature",
      "properties": {
        "municipality": "Estrela do Sul",
        "state": "MG",
        "crop": "Borracha (látex coagulado)",
        "hectares": 2.0,
        "production": 2.0,
        "year": 2023,
        "region": "Sudeste",
        "ibge_code": "3124807"
      },
      "geometry": {
        "type": "Point",
        "coordinates": [
          -43.86637987525143,
          -19.21298631852781
        ]
      }
    },
    {
      "type": "Feature",
      "properties": {
        "municipality": "Fernandes Tourinho",
        "state": "MG",
        "crop": "Borracha (látex coagulado)",
        "hectares": 97.0,
        "production": 97.0,
        "year": 2023,
        "region": "Sudeste",
        "ibge_code": "3125804"
      },
      "geometry": {
        "type": "Point",
        "coordinates": [
          -43.62182538291511,
          -18.015794928243526
        ]
      }
    },
    {
      "type": "Feature",
      "properties": {
        "municipality": "Frei Inocêncio",
        "state": "MG",
        "crop": "Borracha (látex coagulado)",
        "hectares": 10.0,
        "production": 10.0,
        "year": 2023,
        "region": "Sudeste",
        "ibge_code": "3126901"
      },
      "geometry": {
        "type": "Point",
        "coordinates": [
          -43.89914573378772,
          -18.027965445126448
        ]
      }
    },
    {
      "type": "Feature",
      "properties": {
        "municipality": "Fronteira",
        "state": "MG",
        "crop": "Borracha (látex coagulado)",
        "hectares": 123.0,
        "production": 123.0,
        "year": 2023,
        "region": "Sudeste",
        "ibge_code": "3127008"
      },
      "geometry": {
        "type": "Point",
        "coordinates": [
          -44.10096888343216,
          -17.866322777496862
        ]
      }
    },
    {
      "type": "Feature",
      "properties": {
        "municipality": "Frutal",
        "state": "MG",
        "crop": "Borracha (látex coagulado)",
        "hectares": 2000.0,
        "production": 2000.0,
        "year": 2023,
        "region": "Sudeste",
        "ibge_code": "3127107"
      },
      "geometry": {
        "type": "Point",
        "coordinates": [
          -45.18664725218752,
          -18.719425061469224
        ]
      }
    },
    {
      "type": "Feature",
      "properties": {
        "municipality": "Ibiá",
        "state": "MG",
        "crop": "Borracha (látex coagulado)",
        "hectares": 195.0,
        "production": 195.0,
        "year": 2023,
        "region": "Sudeste",
        "ibge_code": "3129509"
      },
      "geometry": {
        "type": "Point",
        "coordinates": [
          -43.6556938766949,
          -19.369227378967103
        ]
      }
    },
    {
      "type": "Feature",
      "properties": {
        "municipality": "Indianópolis",
        "state": "MG",
        "crop": "Borracha (látex coagulado)",
        "hectares": 340.0,
        "production": 340.0,
        "year": 2023,
        "region": "Sudeste",
        "ibge_code": "3130705"
      },
      "geometry": {
        "type": "Point",
        "coordinates": [
          -44.64184329255285,
          -19.337263656828206
        ]
      }
    },
    {
      "type": "Feature",
      "properties": {
        "municipality": "Itapagipe",
        "state": "MG",
        "crop": "Borracha (látex coagulado)",
        "hectares": 250.0,
        "production": 250.0,
        "year": 2023,
        "region": "Sudeste",
        "ibge_code": "3133402"
      },
      "geometry": {
        "type": "Point",
        "coordinates": [
          -44.10303286455515,
          -17.69977531256126
        ]
      }
    },
    {
      "type": "Feature",
      "properties": {
        "municipality": "Ituiutaba",
        "state": "MG",
        "crop": "Borracha (látex coagulado)",
        "hectares": 484.0,
        "production": 484.0,
        "year": 2023,
        "region": "Sudeste",
        "ibge_code": "3134202"
      },
      "geometry": {
        "type": "Point",
        "coordinates": [
          -44.97972204901979,
          -17.903420106212167
        ]
      }
    },
    {
      "type": "Feature",
      "properties": {
        "municipality": "Iturama",
        "state": "MG",
        "crop": "Borracha (látex coagulado)",
        "hectares": 4800.0,
        "production": 4800.0,
        "year": 2023,
        "region": "Sudeste",
        "ibge_code": "3134400"
      },
      "geometry": {
        "type": "Point",
        "coordinates": [
          -45.29766476217821,
          -19.43139100891515
        ]
      }
    },
    {
      "type": "Feature",
      "properties": {
        "municipality": "Leopoldina",
        "state": "MG",
        "crop": "Borracha (látex coagulado)",
        "hectares": 10.0,
        "production": 10.0,
        "year": 2023,
        "region": "Sudeste",
        "ibge_code": "3138401"
      },
      "geometry": {
        "type": "Point",
        "coordinates": [
          -43.63040992833123,
          -19.058788281237902
        ]
      }
    },
    {
      "type": "Feature",
      "properties": {
        "municipality": "Limeira do Oeste",
        "state": "MG",
        "crop": "Borracha (látex coagulado)",
        "hectares": 80.0,
        "production": 80.0,
        "year": 2023,
        "region": "Sudeste",
        "ibge_code": "3138625"
      },
      "geometry": {
        "type": "Point",
        "coordinates": [
          -45.289938231657175,
          -18.432446734986613
        ]
      }
    },
    {
      "type": "Feature",
      "properties": {
        "municipality": "Mantena",
        "state": "MG",
        "crop": "Borracha (látex coagulado)",
        "hectares": 60.0,
        "production": 60.0,
        "year": 2023,
        "region": "Sudeste",
        "ibge_code": "3139607"
      },
      "geometry": {
        "type": "Point",
        "coordinates": [
          -43.863037357454864,
          -18.09905252950165
        ]
      }
    },
    {
      "type": "Feature",
      "properties": {
        "municipality": "Mata Verde",
        "state": "MG",
        "crop": "Borracha (látex coagulado)",
        "hectares": 2.0,
        "production": 2.0,
        "year": 2023,
        "region": "Sudeste",
        "ibge_code": "3140555"
      },
      "geometry": {
        "type": "Point",
        "coordinates": [
          -44.97972204901979,
          -17.903420106212167
        ]
      }
    },
    {
      "type": "Feature",
      "properties": {
        "municipality": "Miraí",
        "state": "MG",
        "crop": "Borracha (látex coagulado)",
        "hectares": 2.0,
        "production": 2.0,
        "year": 2023,
        "region": "Sudeste",
        "ibge_code": "3142205"
      },
      "geometry": {
        "type": "Point",
        "coordinates": [
          -44.338144368121334,
          -17.606208694532356
        ]
      }
    },
    {
      "type": "Feature",
      "properties": {
        "municipality": "Monte Alegre de Minas",
        "state": "MG",
        "crop": "Borracha (látex coagulado)",
        "hectares": 472.0,
        "production": 472.0,
        "year": 2023,
        "region": "Sudeste",
        "ibge_code": "3142809"
      },
      "geometry": {
        "type": "Point",
        "coordinates": [
          -44.10303286455515,
          -17.69977531256126
        ]
      }
    },
    {
      "type": "Feature",
      "properties": {
        "municipality": "Monte Carmelo",
        "state": "MG",
        "crop": "Borracha (látex coagulado)",
        "hectares": 350.0,
        "production": 350.0,
        "year": 2023,
        "region": "Sudeste",
        "ibge_code": "3143104"
      },
      "geometry": {
        "type": "Point",
        "coordinates": [
          -44.10980299700879,
          -18.263611979160306
        ]
      }
    },
    {
      "type": "Feature",
      "properties": {
        "municipality": "Morro da Garça",
        "state": "MG",
        "crop": "Borracha (látex coagulado)",
        "hectares": 75.0,
        "production": 75.0,
        "year": 2023,
        "region": "Sudeste",
        "ibge_code": "3143609"
      },
      "geometry": {
        "type": "Point",
        "coordinates": [
          -43.94912784898166,
          -19.396346223958147
        ]
      }
    },
    {
      "type": "Feature",
      "properties": {
        "municipality": "Muriaé",
        "state": "MG",
        "crop": "Borracha (látex coagulado)",
        "hectares": 80.0,
        "production": 80.0,
        "year": 2023,
        "region": "Sudeste",
        "ibge_code": "3143906"
      },
      "geometry": {
        "type": "Point",
        "coordinates": [
          -43.84158062753703,
          -18.544098110630255
        ]
      }
    },
    {
      "type": "Feature",
      "properties": {
        "municipality": "Palma",
        "state": "MG",
        "crop": "Borracha (látex coagulado)",
        "hectares": 10.0,
        "production": 10.0,
        "year": 2023,
        "region": "Sudeste",
        "ibge_code": "3146701"
      },
      "geometry": {
        "type": "Point",
        "coordinates": [
          -44.555775776929,
          -18.929165967080802
        ]
      }
    },
    {
      "type": "Feature",
      "properties": {
        "municipality": "Pará de Minas",
        "state": "MG",
        "crop": "Borracha (látex coagulado)",
        "hectares": 60.0,
        "production": 60.0,
        "year": 2023,
        "region": "Sudeste",
        "ibge_code": "3147105"
      },
      "geometry": {
        "type": "Point",
        "coordinates": [
          -44.05148987747264,
          -19.363025471154423
        ]
      }
    },
    {
      "type": "Feature",
      "properties": {
        "municipality": "Pirajuba",
        "state": "MG",
        "crop": "Borracha (látex coagulado)",
        "hectares": 50.0,
        "production": 50.0,
        "year": 2023,
        "region": "Sudeste",
        "ibge_code": "3150703"
      },
      "geometry": {
        "type": "Point",
        "coordinates": [
          -43.73228293858779,
          -19.383979155688525
        ]
      }
    },
    {
      "type": "Feature",
      "properties": {
        "municipality": "Planura",
        "state": "MG",
        "crop": "Borracha (látex coagulado)",
        "hectares": 120.0,
        "production": 120.0,
        "year": 2023,
        "region": "Sudeste",
        "ibge_code": "3151602"
      },
      "geometry": {
        "type": "Point",
        "coordinates": [
          -44.88546918317991,
          -18.70964287155489
        ]
      }
    },
    {
      "type": "Feature",
      "properties": {
        "municipality": "Prata",
        "state": "MG",
        "crop": "Borracha (látex coagulado)",
        "hectares": 3967.0,
        "production": 3967.0,
        "year": 2023,
        "region": "Sudeste",
        "ibge_code": "3152808"
      },
      "geometry": {
        "type": "Point",
        "coordinates": [
          -43.70105240796179,
          -19.41185803166689
        ]
      }
    },
    {
      "type": "Feature",
      "properties": {
        "municipality": "Quartel Geral",
        "state": "MG",
        "crop": "Borracha (látex coagulado)",
        "hectares": 12.0,
        "production": 12.0,
        "year": 2023,
        "region": "Sudeste",
        "ibge_code": "3153707"
      },
      "geometry": {
        "type": "Point",
        "coordinates": [
          -45.543452834418645,
          -17.970881564254263
        ]
      }
    },
    {
      "type": "Feature",
      "properties": {
        "municipality": "Raul Soares",
        "state": "MG",
        "crop": "Borracha (látex coagulado)",
        "hectares": 180.0,
        "production": 180.0,
        "year": 2023,
        "region": "Sudeste",
        "ibge_code": "3154002"
      },
      "geometry": {
        "type": "Point",
        "coordinates": [
          -45.41262496417243,
          -17.98266787493127
        ]
      }
    },
    {
      "type": "Feature",
      "properties": {
        "municipality": "Recreio",
        "state": "MG",
        "crop": "Borracha (látex coagulado)",
        "hectares": 8.0,
        "production": 8.0,
        "year": 2023,
        "region": "Sudeste",
        "ibge_code": "3154101"
      },
      "geometry": {
        "type": "Point",
        "coordinates": [
          -43.80164938859449,
          -18.23314389823118
        ]
      }
    },
    {
      "type": "Feature",
      "properties": {
        "municipality": "Rosário da Limeira",
        "state": "MG",
        "crop": "Borracha (látex coagulado)",
        "hectares": 2.0,
        "production": 2.0,
        "year": 2023,
        "region": "Sudeste",
        "ibge_code": "3156452"
      },
      "geometry": {
        "type": "Point",
        "coordinates": [
          -44.08118360101849,
          -18.157665321543114
        ]
      }
    },
    {
      "type": "Feature",
      "properties": {
        "municipality": "Sacramento",
        "state": "MG",
        "crop": "Borracha (látex coagulado)",
        "hectares": 24.0,
        "production": 24.0,
        "year": 2023,
        "region": "Sudeste",
        "ibge_code": "3156908"
      },
      "geometry": {
        "type": "Point",
        "coordinates": [
          -44.170974480620416,
          -19.122569164586476
        ]
      }
    },
    {
      "type": "Feature",
      "properties": {
        "municipality": "Santana de Cataguases",
        "state": "MG",
        "crop": "Borracha (látex coagulado)",
        "hectares": 4.0,
        "production": 4.0,
        "year": 2023,
        "region": "Sudeste",
        "ibge_code": "3158409"
      },
      "geometry": {
        "type": "Point",
        "coordinates": [
          -43.80164938859449,
          -18.23314389823118
        ]
      }
    },
    {
      "type": "Feature",
      "properties": {
        "municipality": "Santana do Jacaré",
        "state": "MG",
        "crop": "Borracha (látex coagulado)",
        "hectares": 80.0,
        "production": 80.0,
        "year": 2023,
        "region": "Sudeste",
        "ibge_code": "3158805"
      },
      "geometry": {
        "type": "Point",
        "coordinates": [
          -44.51438970899921,
          -18.90846381396125
        ]
      }
    },
    {
      "type": "Feature",
      "properties": {
        "municipality": "Santa Vitória",
        "state": "MG",
        "crop": "Borracha (látex coagulado)",
        "hectares": 145.0,
        "production": 145.0,
        "year": 2023,
        "region": "Sudeste",
        "ibge_code": "3159803"
      },
      "geometry": {
        "type": "Point",
        "coordinates": [
          -44.060482173901114,
          -18.905924373169388
        ]
      }
    },
    {
      "type": "Feature",
      "properties": {
        "municipality": "São Francisco de Sales",
        "state": "MG",
        "crop": "Borracha (látex coagulado)",
        "hectares": 658.0,
        "production": 658.0,
        "year": 2023,
        "region": "Sudeste",
        "ibge_code": "3161304"
      },
      "geometry": {
        "type": "Point",
        "coordinates": [
          -44.68582449251732,
          -19.370582145881855
        ]
      }
    },
    {
      "type": "Feature",
      "properties": {
        "municipality": "São Geraldo",
        "state": "MG",
        "crop": "Borracha (látex coagulado)",
        "hectares": 5.0,
        "production": 5.0,
        "year": 2023,
        "region": "Sudeste",
        "ibge_code": "3161502"
      },
      "geometry": {
        "type": "Point",
        "coordinates": [
          -44.97972204901979,
          -17.903420106212167
        ]
      }
    },
    {
      "type": "Feature",
      "properties": {
        "municipality": "São Gonçalo do Abaeté",
        "state": "MG",
        "crop": "Borracha (látex coagulado)",
        "hectares": 240.0,
        "production": 240.0,
        "year": 2023,
        "region": "Sudeste",
        "ibge_code": "3161700"
      },
      "geometry": {
        "type": "Point",
        "coordinates": [
          -44.860954652464265,
          -18.144038480446277
        ]
      }
    },
    {
      "type": "Feature",
      "properties": {
        "municipality": "São Gonçalo do Sapucaí",
        "state": "MG",
        "crop": "Borracha (látex coagulado)",
        "hectares": 75.0,
        "production": 75.0,
        "year": 2023,
        "region": "Sudeste",
        "ibge_code": "3162005"
      },
      "geometry": {
        "type": "Point",
        "coordinates": [
          -43.71772617816014,
          -19.15632553753352
        ]
      }
    },
    {
      "type": "Feature",
      "properties": {
        "municipality": "São João Nepomuceno",
        "state": "MG",
        "crop": "Borracha (látex coagulado)",
        "hectares": 8.0,
        "production": 8.0,
        "year": 2023,
        "region": "Sudeste",
        "ibge_code": "3162906"
      },
      "geometry": {
        "type": "Point",
        "coordinates": [
          -44.67064442540366,
          -17.90399390661881
        ]
      }
    },
    {
      "type": "Feature",
      "properties": {
        "municipality": "São José do Divino",
        "state": "MG",
        "crop": "Borracha (látex coagulado)",
        "hectares": 12.0,
        "production": 12.0,
        "year": 2023,
        "region": "Sudeste",
        "ibge_code": "3163300"
      },
      "geometry": {
        "type": "Point",
        "coordinates": [
          -44.51499654959096,
          -18.005282154878184
        ]
      }
    },
    {
      "type": "Feature",
      "properties": {
        "municipality": "São Pedro dos Ferros",
        "state": "MG",
        "crop": "Borracha (látex coagulado)",
        "hectares": 40.0,
        "production": 40.0,
        "year": 2023,
        "region": "Sudeste",
        "ibge_code": "3164001"
      },
      "geometry": {
        "type": "Point",
        "coordinates": [
          -45.45171023888958,
          -19.0023861272997
        ]
      }
    },
    {
      "type": "Feature",
      "properties": {
        "municipality": "São Sebastião do Oeste",
        "state": "MG",
        "crop": "Borracha (látex coagulado)",
        "hectares": 10.0,
        "production": 10.0,
        "year": 2023,
        "region": "Sudeste",
        "ibge_code": "3164605"
      },
      "geometry": {
        "type": "Point",
        "coordinates": [
          -45.213947813940614,
          -19.421715345432784
        ]
      }
    },
    {
      "type": "Feature",
      "properties": {
        "municipality": "Serra do Salitre",
        "state": "MG",
        "crop": "Borracha (látex coagulado)",
        "hectares": 93.0,
        "production": 93.0,
        "year": 2023,
        "region": "Sudeste",
        "ibge_code": "3166808"
      },
      "geometry": {
        "type": "Point",
        "coordinates": [
          -43.923966095329114,
          -19.184865333549862
        ]
      }
    },
    {
      "type": "Feature",
      "properties": {
        "municipality": "Tapira",
        "state": "MG",
        "crop": "Borracha (látex coagulado)",
        "hectares": 130.0,
        "production": 130.0,
        "year": 2023,
        "region": "Sudeste",
        "ibge_code": "3168101"
      },
      "geometry": {
        "type": "Point",
        "coordinates": [
          -44.25836445045625,
          -19.44490400596057
        ]
      }
    },
    {
      "type": "Feature",
      "properties": {
        "municipality": "Tupaciguara",
        "state": "MG",
        "crop": "Borracha (látex coagulado)",
        "hectares": 100.0,
        "production": 100.0,
        "year": 2023,
        "region": "Sudeste",
        "ibge_code": "3169604"
      },
      "geometry": {
        "type": "Point",
        "coordinates": [
          -43.82202694423408,
          -19.206991477049538
        ]
      }
    },
    {
      "type": "Feature",
      "properties": {
        "municipality": "Uberaba",
        "state": "MG",
        "crop": "Borracha (látex coagulado)",
        "hectares": 300.0,
        "production": 300.0,
        "year": 2023,
        "region": "Sudeste",
        "ibge_code": "3170107"
      },
      "geometry": {
        "type": "Point",
        "coordinates": [
          -44.84220876636503,
          -18.98553890566625
        ]
      }
    },
    {
      "type": "Feature",
      "properties": {
        "municipality": "Uberlândia",
        "state": "MG",
        "crop": "Borracha (látex coagulado)",
        "hectares": 150.0,
        "production": 150.0,
        "year": 2023,
        "region": "Sudeste",
        "ibge_code": "3170206"
      },
      "geometry": {
        "type": "Point",
        "coordinates": [
          -45.420571773329655,
          -17.882416926893683
        ]
      }
    },
    {
      "type": "Feature",
      "properties": {
        "municipality": "Unaí",
        "state": "MG",
        "crop": "Borracha (látex coagulado)",
        "hectares": 49.0,
        "production": 49.0,
        "year": 2023,
        "region": "Sudeste",
        "ibge_code": "3170404"
      },
      "geometry": {
        "type": "Point",
        "coordinates": [
          -45.49076621646274,
          -19.133810791968013
        ]
      }
    },
    {
      "type": "Feature",
      "properties": {
        "municipality": "União de Minas",
        "state": "MG",
        "crop": "Borracha (látex coagulado)",
        "hectares": 907.0,
        "production": 907.0,
        "year": 2023,
        "region": "Sudeste",
        "ibge_code": "3170438"
      },
      "geometry": {
        "type": "Point",
        "coordinates": [
          -45.06550583390284,
          -19.44522040578309
        ]
      }
    },
    {
      "type": "Feature",
      "properties": {
        "municipality": "Vargem Bonita",
        "state": "MG",
        "crop": "Borracha (látex coagulado)",
        "hectares": 38.0,
        "production": 38.0,
        "year": 2023,
        "region": "Sudeste",
        "ibge_code": "3170602"
      },
      "geometry": {
        "type": "Point",
        "coordinates": [
          -44.43134789366699,
          -17.949083407765126
        ]
      }
    },
    {
      "type": "Feature",
      "properties": {
        "municipality": "Veríssimo",
        "state": "MG",
        "crop": "Borracha (látex coagulado)",
        "hectares": 6.0,
        "production": 6.0,
        "year": 2023,
        "region": "Sudeste",
        "ibge_code": "3171105"
      },
      "geometry": {
        "type": "Point",
        "coordinates": [
          -45.44734176267823,
          -18.83954323527274
        ]
      }
    },
    {
      "type": "Feature",
      "properties": {
        "municipality": "Vermelho Novo",
        "state": "MG",
        "crop": "Borracha (látex coagulado)",
        "hectares": 15.0,
        "production": 15.0,
        "year": 2023,
        "region": "Sudeste",
        "ibge_code": "3171154"
      },
      "geometry": {
        "type": "Point",
        "coordinates": [
          -44.478681496442114,
          -19.394099684984397
        ]
      }
    },
    {
      "type": "Feature",
      "properties": {
        "municipality": "Mathias Lobato",
        "state": "MG",
        "crop": "Borracha (látex coagulado)",
        "hectares": 5.0,
        "production": 5.0,
        "year": 2023,
        "region": "Sudeste",
        "ibge_code": "3171501"
      },
      "geometry": {
        "type": "Point",
        "coordinates": [
          -43.945498591764924,
          -17.711752240281374
        ]
      }
    },
    {
      "type": "Feature",
      "properties": {
        "municipality": "Águia Branca",
        "state": "ES",
        "crop": "Borracha (látex coagulado)",
        "hectares": 30.0,
        "production": 30.0,
        "year": 2023,
        "region": "Sudeste",
        "ibge_code": "3200136"
      },
      "geometry": {
        "type": "Point",
        "coordinates": [
          -39.777870529122055,
          -18.608740436742465
        ]
      }
    },
    {
      "type": "Feature",
      "properties": {
        "municipality": "Água Doce do Norte",
        "state": "ES",
        "crop": "Borracha (látex coagulado)",
        "hectares": 50.0,
        "production": 50.0,
        "year": 2023,
        "region": "Sudeste",
        "ibge_code": "3200169"
      },
      "geometry": {
        "type": "Point",
        "coordinates": [
          -40.133687096286046,
          -18.65472340539858
        ]
      }
    },
    {
      "type": "Feature",
      "properties": {
        "municipality": "Alfredo Chaves",
        "state": "ES",
        "crop": "Borracha (látex coagulado)",
        "hectares": 35.0,
        "production": 35.0,
        "year": 2023,
        "region": "Sudeste",
        "ibge_code": "3200300"
      },
      "geometry": {
        "type": "Point",
        "coordinates": [
          -41.007201652151,
          -19.535734470333676
        ]
      }
    },
    {
      "type": "Feature",
      "properties": {
        "municipality": "Anchieta",
        "state": "ES",
        "crop": "Borracha (látex coagulado)",
        "hectares": 640.0,
        "production": 640.0,
        "year": 2023,
        "region": "Sudeste",
        "ibge_code": "3200409"
      },
      "geometry": {
        "type": "Point",
        "coordinates": [
          -40.35561172753846,
          -19.571822207086853
        ]
      }
    },
    {
      "type": "Feature",
      "properties": {
        "municipality": "Apiacá",
        "state": "ES",
        "crop": "Borracha (látex coagulado)",
        "hectares": 67.0,
        "production": 67.0,
        "year": 2023,
        "region": "Sudeste",
        "ibge_code": "3200508"
      },
      "geometry": {
        "type": "Point",
        "coordinates": [
          -39.47629159195863,
          -18.773899315203693
        ]
      }
    },
    {
      "type": "Feature",
      "properties": {
        "municipality": "Aracruz",
        "state": "ES",
        "crop": "Borracha (látex coagulado)",
        "hectares": 601.0,
        "production": 601.0,
        "year": 2023,
        "region": "Sudeste",
        "ibge_code": "3200607"
      },
      "geometry": {
        "type": "Point",
        "coordinates": [
          -40.40233057367075,
          -19.171519172459504
        ]
      }
    },
    {
      "type": "Feature",
      "properties": {
        "municipality": "Atílio Vivácqua",
        "state": "ES",
        "crop": "Borracha (látex coagulado)",
        "hectares": 70.0,
        "production": 70.0,
        "year": 2023,
        "region": "Sudeste",
        "ibge_code": "3200706"
      },
      "geometry": {
        "type": "Point",
        "coordinates": [
          -41.0777181077144,
          -19.78586271516116
        ]
      }
    },
    {
      "type": "Feature",
      "properties": {
        "municipality": "Barra de São Francisco",
        "state": "ES",
        "crop": "Borracha (látex coagulado)",
        "hectares": 4.0,
        "production": 4.0,
        "year": 2023,
        "region": "Sudeste",
        "ibge_code": "3200904"
      },
      "geometry": {
        "type": "Point",
        "coordinates": [
          -40.226014953143384,
          -18.719806864935716
        ]
      }
    },
    {
      "type": "Feature",
      "properties": {
        "municipality": "Boa Esperança",
        "state": "ES",
        "crop": "Borracha (látex coagulado)",
        "hectares": 440.0,
        "production": 440.0,
        "year": 2023,
        "region": "Sudeste",
        "ibge_code": "3201001"
      },
      "geometry": {
        "type": "Point",
        "coordinates": [
          -39.97321636983657,
          -19.906914748610063
        ]
      }
    },
    {
      "type": "Feature",
      "properties": {
        "municipality": "Cachoeiro de Itapemirim",
        "state": "ES",
        "crop": "Borracha (látex coagulado)",
        "hectares": 40.0,
        "production": 40.0,
        "year": 2023,
        "region": "Sudeste",
        "ibge_code": "3201209"
      },
      "geometry": {
        "type": "Point",
        "coordinates": [
          -41.098275840759094,
          -19.02151618836552
        ]
      }
    },
    {
      "type": "Feature",
      "properties": {
        "municipality": "Cariacica",
        "state": "ES",
        "crop": "Borracha (látex coagulado)",
        "hectares": 3.0,
        "production": 3.0,
        "year": 2023,
        "region": "Sudeste",
        "ibge_code": "3201308"
      },
      "geometry": {
        "type": "Point",
        "coordinates": [
          -40.57298356456136,
          -18.26111757788846
        ]
      }
    },
    {
      "type": "Feature",
      "properties": {
        "municipality": "Colatina",
        "state": "ES",
        "crop": "Borracha (látex coagulado)",
        "hectares": 60.0,
        "production": 60.0,
        "year": 2023,
        "region": "Sudeste",
        "ibge_code": "3201506"
      },
      "geometry": {
        "type": "Point",
        "coordinates": [
          -40.41845521294202,
          -19.07226579485454
        ]
      }
    },
    {
      "type": "Feature",
      "properties": {
        "municipality": "Conceição da Barra",
        "state": "ES",
        "crop": "Borracha (látex coagulado)",
        "hectares": 128.0,
        "production": 128.0,
        "year": 2023,
        "region": "Sudeste",
        "ibge_code": "3201605"
      },
      "geometry": {
        "type": "Point",
        "coordinates": [
          -40.40868742976618,
          -19.796527330215234
        ]
      }
    },
    {
      "type": "Feature",
      "properties": {
        "municipality": "Ecoporanga",
        "state": "ES",
        "crop": "Borracha (látex coagulado)",
        "hectares": 40.0,
        "production": 40.0,
        "year": 2023,
        "region": "Sudeste",
        "ibge_code": "3202108"
      },
      "geometry": {
        "type": "Point",
        "coordinates": [
          -41.12351315630334,
          -19.776059105157895
        ]
      }
    },
    {
      "type": "Feature",
      "properties": {
        "municipality": "Fundão",
        "state": "ES",
        "crop": "Borracha (látex coagulado)",
        "hectares": 96.0,
        "production": 96.0,
        "year": 2023,
        "region": "Sudeste",
        "ibge_code": "3202207"
      },
      "geometry": {
        "type": "Point",
        "coordinates": [
          -41.12171266373223,
          -19.692463833574248
        ]
      }
    },
    {
      "type": "Feature",
      "properties": {
        "municipality": "Guarapari",
        "state": "ES",
        "crop": "Borracha (látex coagulado)",
        "hectares": 1400.0,
        "production": 1400.0,
        "year": 2023,
        "region": "Sudeste",
        "ibge_code": "3202405"
      },
      "geometry": {
        "type": "Point",
        "coordinates": [
          -40.23012690407294,
          -19.02162741355454
        ]
      }
    },
    {
      "type": "Feature",
      "properties": {
        "municipality": "Ibiraçu",
        "state": "ES",
        "crop": "Borracha (látex coagulado)",
        "hectares": 40.0,
        "production": 40.0,
        "year": 2023,
        "region": "Sudeste",
        "ibge_code": "3202504"
      },
      "geometry": {
        "type": "Point",
        "coordinates": [
          -40.508911208057974,
          -18.40686384709502
        ]
      }
    },
    {
      "type": "Feature",
      "properties": {
        "municipality": "Iconha",
        "state": "ES",
        "crop": "Borracha (látex coagulado)",
        "hectares": 5.0,
        "production": 5.0,
        "year": 2023,
        "region": "Sudeste",
        "ibge_code": "3202603"
      },
      "geometry": {
        "type": "Point",
        "coordinates": [
          -41.13159458556629,
          -19.048636422633443
        ]
      }
    },
    {
      "type": "Feature",
      "properties": {
        "municipality": "Itapemirim",
        "state": "ES",
        "crop": "Borracha (látex coagulado)",
        "hectares": 30.0,
        "production": 30.0,
        "year": 2023,
        "region": "Sudeste",
        "ibge_code": "3202801"
      },
      "geometry": {
        "type": "Point",
        "coordinates": [
          -39.56760535909489,
          -19.51068009521447
        ]
      }
    },
    {
      "type": "Feature",
      "properties": {
        "municipality": "Jaguaré",
        "state": "ES",
        "crop": "Borracha (látex coagulado)",
        "hectares": 298.0,
        "production": 298.0,
        "year": 2023,
        "region": "Sudeste",
        "ibge_code": "3203056"
      },
      "geometry": {
        "type": "Point",
        "coordinates": [
          -40.85726594526991,
          -19.465903262391695
        ]
      }
    },
    {
      "type": "Feature",
      "properties": {
        "municipality": "João Neiva",
        "state": "ES",
        "crop": "Borracha (látex coagulado)",
        "hectares": 2.0,
        "production": 2.0,
        "year": 2023,
        "region": "Sudeste",
        "ibge_code": "3203130"
      },
      "geometry": {
        "type": "Point",
        "coordinates": [
          -40.60263050904634,
          -19.073729087513566
        ]
      }
    },
    {
      "type": "Feature",
      "properties": {
        "municipality": "Linhares",
        "state": "ES",
        "crop": "Borracha (látex coagulado)",
        "hectares": 400.0,
        "production": 400.0,
        "year": 2023,
        "region": "Sudeste",
        "ibge_code": "3203205"
      },
      "geometry": {
        "type": "Point",
        "coordinates": [
          -41.1987802230123,
          -18.347987926575527
        ]
      }
    },
    {
      "type": "Feature",
      "properties": {
        "municipality": "Marataízes",
        "state": "ES",
        "crop": "Borracha (látex coagulado)",
        "hectares": 20.0,
        "production": 20.0,
        "year": 2023,
        "region": "Sudeste",
        "ibge_code": "3203320"
      },
      "geometry": {
        "type": "Point",
        "coordinates": [
          -39.90699028937262,
          -18.522058432872683
        ]
      }
    },
    {
      "type": "Feature",
      "properties": {
        "municipality": "Mimoso do Sul",
        "state": "ES",
        "crop": "Borracha (látex coagulado)",
        "hectares": 474.0,
        "production": 474.0,
        "year": 2023,
        "region": "Sudeste",
        "ibge_code": "3203403"
      },
      "geometry": {
        "type": "Point",
        "coordinates": [
          -39.78513097548234,
          -19.97198159947719
        ]
      }
    },
    {
      "type": "Feature",
      "properties": {
        "municipality": "Montanha",
        "state": "ES",
        "crop": "Borracha (látex coagulado)",
        "hectares": 49.0,
        "production": 49.0,
        "year": 2023,
        "region": "Sudeste",
        "ibge_code": "3203502"
      },
      "geometry": {
        "type": "Point",
        "coordinates": [
          -39.76780899024247,
          -19.139613856448264
        ]
      }
    },
    {
      "type": "Feature",
      "properties": {
        "municipality": "Nova Venécia",
        "state": "ES",
        "crop": "Borracha (látex coagulado)",
        "hectares": 110.0,
        "production": 110.0,
        "year": 2023,
        "region": "Sudeste",
        "ibge_code": "3203908"
      },
      "geometry": {
        "type": "Point",
        "coordinates": [
          -39.65343603440307,
          -18.664112029103798
        ]
      }
    },
    {
      "type": "Feature",
      "properties": {
        "municipality": "Pancas",
        "state": "ES",
        "crop": "Borracha (látex coagulado)",
        "hectares": 5.0,
        "production": 5.0,
        "year": 2023,
        "region": "Sudeste",
        "ibge_code": "3204005"
      },
      "geometry": {
        "type": "Point",
        "coordinates": [
          -40.18938817200219,
          -18.25156162395011
        ]
      }
    },
    {
      "type": "Feature",
      "properties": {
        "municipality": "Pedro Canário",
        "state": "ES",
        "crop": "Borracha (látex coagulado)",
        "hectares": 100.0,
        "production": 100.0,
        "year": 2023,
        "region": "Sudeste",
        "ibge_code": "3204054"
      },
      "geometry": {
        "type": "Point",
        "coordinates": [
          -39.391074365022014,
          -19.197758816009628
        ]
      }
    },
    {
      "type": "Feature",
      "properties": {
        "municipality": "Pinheiros",
        "state": "ES",
        "crop": "Borracha (látex coagulado)",
        "hectares": 1350.0,
        "production": 1350.0,
        "year": 2023,
        "region": "Sudeste",
        "ibge_code": "3204104"
      },
      "geometry": {
        "type": "Point",
        "coordinates": [
          -40.68171377220632,
          -19.071413526424916
        ]
      }
    },
    {
      "type": "Feature",
      "properties": {
        "municipality": "Piúma",
        "state": "ES",
        "crop": "Borracha (látex coagulado)",
        "hectares": 60.0,
        "production": 60.0,
        "year": 2023,
        "region": "Sudeste",
        "ibge_code": "3204203"
      },
      "geometry": {
        "type": "Point",
        "coordinates": [
          -39.744595184168524,
          -18.448690482605695
        ]
      }
    },
    {
      "type": "Feature",
      "properties": {
        "municipality": "Presidente Kennedy",
        "state": "ES",
        "crop": "Borracha (látex coagulado)",
        "hectares": 70.0,
        "production": 70.0,
        "year": 2023,
        "region": "Sudeste",
        "ibge_code": "3204302"
      },
      "geometry": {
        "type": "Point",
        "coordinates": [
          -39.99395499468549,
          -19.2342586426229
        ]
      }
    },
    {
      "type": "Feature",
      "properties": {
        "municipality": "Rio Bananal",
        "state": "ES",
        "crop": "Borracha (látex coagulado)",
        "hectares": 40.0,
        "production": 40.0,
        "year": 2023,
        "region": "Sudeste",
        "ibge_code": "3204351"
      },
      "geometry": {
        "type": "Point",
        "coordinates": [
          -39.35225089391452,
          -18.787977897813633
        ]
      }
    },
    {
      "type": "Feature",
      "properties": {
        "municipality": "Rio Novo do Sul",
        "state": "ES",
        "crop": "Borracha (látex coagulado)",
        "hectares": 264.0,
        "production": 264.0,
        "year": 2023,
        "region": "Sudeste",
        "ibge_code": "3204401"
      },
      "geometry": {
        "type": "Point",
        "coordinates": [
          -39.91645135472589,
          -20.10629632132524
        ]
      }
    },
    {
      "type": "Feature",
      "properties": {
        "municipality": "Santa Teresa",
        "state": "ES",
        "crop": "Borracha (látex coagulado)",
        "hectares": 8.0,
        "production": 8.0,
        "year": 2023,
        "region": "Sudeste",
        "ibge_code": "3204609"
      },
      "geometry": {
        "type": "Point",
        "coordinates": [
          -40.333111618029506,
          -19.194851387699273
        ]
      }
    },
    {
      "type": "Feature",
      "properties": {
        "municipality": "São Domingos do Norte",
        "state": "ES",
        "crop": "Borracha (látex coagulado)",
        "hectares": 65.0,
        "production": 65.0,
        "year": 2023,
        "region": "Sudeste",
        "ibge_code": "3204658"
      },
      "geometry": {
        "type": "Point",
        "coordinates": [
          -40.88119680335442,
          -20.14780504333206
        ]
      }
    },
    {
      "type": "Feature",
      "properties": {
        "municipality": "São Gabriel da Palha",
        "state": "ES",
        "crop": "Borracha (látex coagulado)",
        "hectares": 96.0,
        "production": 96.0,
        "year": 2023,
        "region": "Sudeste",
        "ibge_code": "3204708"
      },
      "geometry": {
        "type": "Point",
        "coordinates": [
          -40.964035693198426,
          -19.1526687043227
        ]
      }
    },
    {
      "type": "Feature",
      "properties": {
        "municipality": "São Mateus",
        "state": "ES",
        "crop": "Borracha (látex coagulado)",
        "hectares": 1720.0,
        "production": 1720.0,
        "year": 2023,
        "region": "Sudeste",
        "ibge_code": "3204906"
      },
      "geometry": {
        "type": "Point",
        "coordinates": [
          -39.996065458946994,
          -19.500872333143313
        ]
      }
    },
    {
      "type": "Feature",
      "properties": {
        "municipality": "Serra",
        "state": "ES",
        "crop": "Borracha (látex coagulado)",
        "hectares": 802.0,
        "production": 802.0,
        "year": 2023,
        "region": "Sudeste",
        "ibge_code": "3205002"
      },
      "geometry": {
        "type": "Point",
        "coordinates": [
          -40.40010939550534,
          -19.28686555657266
        ]
      }
    },
    {
      "type": "Feature",
      "properties": {
        "municipality": "Sooretama",
        "state": "ES",
        "crop": "Borracha (látex coagulado)",
        "hectares": 413.0,
        "production": 413.0,
        "year": 2023,
        "region": "Sudeste",
        "ibge_code": "3205010"
      },
      "geometry": {
        "type": "Point",
        "coordinates": [
          -39.899264698285805,
          -19.259006032908882
        ]
      }
    },
    {
      "type": "Feature",
      "properties": {
        "municipality": "Viana",
        "state": "ES",
        "crop": "Borracha (látex coagulado)",
        "hectares": 250.0,
        "production": 250.0,
        "year": 2023,
        "region": "Sudeste",
        "ibge_code": "3205101"
      },
      "geometry": {
        "type": "Point",
        "coordinates": [
          -39.83508360101849,
          -18.828865321543113
        ]
      }
    },
    {
      "type": "Feature",
      "properties": {
        "municipality": "Vila Pavão",
        "state": "ES",
        "crop": "Borracha (látex coagulado)",
        "hectares": 13.0,
        "production": 13.0,
        "year": 2023,
        "region": "Sudeste",
        "ibge_code": "3205150"
      },
      "geometry": {
        "type": "Point",
        "coordinates": [
          -40.719721719248426,
          -19.320960894194002
        ]
      }
    },
    {
      "type": "Feature",
      "properties": {
        "municipality": "Vila Valério",
        "state": "ES",
        "crop": "Borracha (látex coagulado)",
        "hectares": 40.0,
        "production": 40.0,
        "year": 2023,
        "region": "Sudeste",
        "ibge_code": "3205176"
      },
      "geometry": {
        "type": "Point",
        "coordinates": [
          -40.65708771187493,
          -18.585169261766545
        ]
      }
    },
    {
      "type": "Feature",
      "properties": {
        "municipality": "Vila Velha",
        "state": "ES",
        "crop": "Borracha (látex coagulado)",
        "hectares": 200.0,
        "production": 200.0,
        "year": 2023,
        "region": "Sudeste",
        "ibge_code": "3205200"
      },
      "geometry": {
        "type": "Point",
        "coordinates": [
          -39.317918924527014,
          -18.814895387193836
        ]
      }
    },
    {
      "type": "Feature",
      "properties": {
        "municipality": "Porciúncula",
        "state": "RJ",
        "crop": "Borracha (látex coagulado)",
        "hectares": 50.0,
        "production": 50.0,
        "year": 2023,
        "region": "Sudeste",
        "ibge_code": "3304102"
      },
      "geometry": {
        "type": "Point",
        "coordinates": [
          -43.99822043102987,
          -22.146108288990963
        ]
      }
    },
    {
      "type": "Feature",
      "properties": {
        "municipality": "Silva Jardim",
        "state": "RJ",
        "crop": "Borracha (látex coagulado)",
        "hectares": 85.0,
        "production": 85.0,
        "year": 2023,
        "region": "Sudeste",
        "ibge_code": "3305604"
      },
      "geometry": {
        "type": "Point",
        "coordinates": [
          -42.9455414324755,
          -23.290765719822247
        ]
      }
    },
    {
      "type": "Feature",
      "properties": {
        "municipality": "Adamantina",
        "state": "SP",
        "crop": "Borracha (látex coagulado)",
        "hectares": 156.0,
        "production": 156.0,
        "year": 2023,
        "region": "Sudeste",
        "ibge_code": "3500105"
      },
      "geometry": {
        "type": "Point",
        "coordinates": [
          -46.07056188891384,
          -24.497813239080948
        ]
      }
    },
    {
      "type": "Feature",
      "properties": {
        "municipality": "Adolfo",
        "state": "SP",
        "crop": "Borracha (látex coagulado)",
        "hectares": 556.0,
        "production": 556.0,
        "year": 2023,
        "region": "Sudeste",
        "ibge_code": "3500204"
      },
      "geometry": {
        "type": "Point",
        "coordinates": [
          -45.787081897761404,
          -23.312171664377342
        ]
      }
    },
    {
      "type": "Feature",
      "properties": {
        "municipality": "Alfredo Marcondes",
        "state": "SP",
        "crop": "Borracha (látex coagulado)",
        "hectares": 8.0,
        "production": 8.0,
        "year": 2023,
        "region": "Sudeste",
        "ibge_code": "3500808"
      },
      "geometry": {
        "type": "Point",
        "coordinates": [
          -46.57517898841823,
          -23.268808750214586
        ]
      }
    },
    {
      "type": "Feature",
      "properties": {
        "municipality": "Altair",
        "state": "SP",
        "crop": "Borracha (látex coagulado)",
        "hectares": 232.0,
        "production": 232.0,
        "year": 2023,
        "region": "Sudeste",
        "ibge_code": "3500907"
      },
      "geometry": {
        "type": "Point",
        "coordinates": [
          -46.11572212086149,
          -23.22461576916309
        ]
      }
    },
    {
      "type": "Feature",
      "properties": {
        "municipality": "Alto Alegre",
        "state": "SP",
        "crop": "Borracha (látex coagulado)",
        "hectares": 96.0,
        "production": 96.0,
        "year": 2023,
        "region": "Sudeste",
        "ibge_code": "3501103"
      },
      "geometry": {
        "type": "Point",
        "coordinates": [
          -46.89931047300532,
          -22.704296623417573
        ]
      }
    },
    {
      "type": "Feature",
      "properties": {
        "municipality": "Álvares Florence",
        "state": "SP",
        "crop": "Borracha (látex coagulado)",
        "hectares": 1400.0,
        "production": 1400.0,
        "year": 2023,
        "region": "Sudeste",
        "ibge_code": "3501202"
      },
      "geometry": {
        "type": "Point",
        "coordinates": [
          -46.7126917613051,
          -23.592741637611535
        ]
      }
    },
    {
      "type": "Feature",
      "properties": {
        "municipality": "Álvares Machado",
        "state": "SP",
        "crop": "Borracha (látex coagulado)",
        "hectares": 15.0,
        "production": 15.0,
        "year": 2023,
        "region": "Sudeste",
        "ibge_code": "3501301"
      },
      "geometry": {
        "type": "Point",
        "coordinates": [
          -47.11893960604288,
          -22.909615909568764
        ]
      }
    },
    {
      "type": "Feature",
      "properties": {
        "municipality": "Álvaro de Carvalho",
        "state": "SP",
        "crop": "Borracha (látex coagulado)",
        "hectares": 20.0,
        "production": 20.0,
        "year": 2023,
        "region": "Sudeste",
        "ibge_code": "3501400"
      },
      "geometry": {
        "type": "Point",
        "coordinates": [
          -47.327271210459074,
          -24.156174823784202
        ]
      }
    },
    {
      "type": "Feature",
      "properties": {
        "municipality": "Américo de Campos",
        "state": "SP",
        "crop": "Borracha (látex coagulado)",
        "hectares": 600.0,
        "production": 600.0,
        "year": 2023,
        "region": "Sudeste",
        "ibge_code": "3501806"
      },
      "geometry": {
        "type": "Point",
        "coordinates": [
          -47.22779473530818,
          -23.05591746755343
        ]
      }
    },
    {
      "type": "Feature",
      "properties": {
        "municipality": "Andradina",
        "state": "SP",
        "crop": "Borracha (látex coagulado)",
        "hectares": 40.0,
        "production": 40.0,
        "year": 2023,
        "region": "Sudeste",
        "ibge_code": "3502101"
      },
      "geometry": {
        "type": "Point",
        "coordinates": [
          -46.26603595022391,
          -23.92269158315275
        ]
      }
    },
    {
      "type": "Feature",
      "properties": {
        "municipality": "Anhembi",
        "state": "SP",
        "crop": "Borracha (látex coagulado)",
        "hectares": 36.0,
        "production": 36.0,
        "year": 2023,
        "region": "Sudeste",
        "ibge_code": "3502309"
      },
      "geometry": {
        "type": "Point",
        "coordinates": [
          -47.17969670989132,
          -23.50800162574546
        ]
      }
    },
    {
      "type": "Feature",
      "properties": {
        "municipality": "Anhumas",
        "state": "SP",
        "crop": "Borracha (látex coagulado)",
        "hectares": 15.0,
        "production": 15.0,
        "year": 2023,
        "region": "Sudeste",
        "ibge_code": "3502408"
      },
      "geometry": {
        "type": "Point",
        "coordinates": [
          -45.85540558145818,
          -23.57494104228008
        ]
      }
    },
    {
      "type": "Feature",
      "properties": {
        "municipality": "Aparecida d'Oeste",
        "state": "SP",
        "crop": "Borracha (látex coagulado)",
        "hectares": 210.0,
        "production": 210.0,
        "year": 2023,
        "region": "Sudeste",
        "ibge_code": "3502606"
      },
      "geometry": {
        "type": "Point",
        "coordinates": [
          -47.52747533791058,
          -24.54453466779344
        ]
      }
    },
    {
      "type": "Feature",
      "properties": {
        "municipality": "Araçatuba",
        "state": "SP",
        "crop": "Borracha (látex coagulado)",
        "hectares": 220.0,
        "production": 220.0,
        "year": 2023,
        "region": "Sudeste",
        "ibge_code": "3502804"
      },
      "geometry": {
        "type": "Point",
        "coordinates": [
          -47.30639813692252,
          -23.023342450585297
        ]
      }
    },
    {
      "type": "Feature",
      "properties": {
        "municipality": "Aramina",
        "state": "SP",
        "crop": "Borracha (látex coagulado)",
        "hectares": 78.0,
        "production": 78.0,
        "year": 2023,
        "region": "Sudeste",
        "ibge_code": "3503000"
      },
      "geometry": {
        "type": "Point",
        "coordinates": [
          -46.58747047269042,
          -22.83394142806638
        ]
      }
    },
    {
      "type": "Feature",
      "properties": {
        "municipality": "Arco-Íris",
        "state": "SP",
        "crop": "Borracha (látex coagulado)",
        "hectares": 162.0,
        "production": 162.0,
        "year": 2023,
        "region": "Sudeste",
        "ibge_code": "3503356"
      },
      "geometry": {
        "type": "Point",
        "coordinates": [
          -46.35778190522091,
          -23.212740013697744
        ]
      }
    },
    {
      "type": "Feature",
      "properties": {
        "municipality": "Arealva",
        "state": "SP",
        "crop": "Borracha (látex coagulado)",
        "hectares": 220.0,
        "production": 220.0,
        "year": 2023,
        "region": "Sudeste",
        "ibge_code": "3503406"
      },
      "geometry": {
        "type": "Point",
        "coordinates": [
          -46.8578406841695,
          -23.449262853029882
        ]
      }
    },