{
  "type": "FeatureCollection",
  "name": "Cana-de-açúcar_production",
  "features": [
    {
      "type": "Feature",
      "properties": {
        "municipality": "Alta Floresta D'Oeste",
        "state": "RO",
        "crop": "Cana-de-açúcar",
        "hectares": 5.0,
        "production": 5.0,
        "year": 2023,
        "region": "Norte",
        "ibge_code": "1100015"
      },
      "geometry": {
        "type": "Point",
        "coordinates": [
          -63.47108362081896,
          -10.656134520148264
        ]
      }
    },
    {
      "type": "Feature",
      "properties": {
        "municipality": "Ariquemes",
        "state": "RO",
        "crop": "Cana-de-açúcar",
        "hectares": 25.0,
        "production": 25.0,
        "year": 2023,
        "region": "Norte",
        "ibge_code": "1100023"
      },
      "geometry": {
        "type": "Point",
        "coordinates": [
          -64.07564461710045,
          -12.465998921071138
        ]
      }
    },
    {
      "type": "Feature",
      "properties": {
        "municipality": "Cabixi",
        "state": "RO",
        "crop": "Cana-de-açúcar",
        "hectares": 6.0,
        "production": 6.0,
        "year": 2023,
        "region": "Norte",
        "ibge_code": "1100031"
      },
      "geometry": {
        "type": "Point",
        "coordinates": [
          -63.09702602147854,
          -11.259896610220595
        ]
      }
    },
    {
      "type": "Feature",
      "properties": {
        "municipality": "Cacoal",
        "state": "RO",
        "crop": "Cana-de-açúcar",
        "hectares": 26.0,
        "production": 26.0,
        "year": 2023,
        "region": "Norte",
        "ibge_code": "1100049"
      },
      "geometry": {
        "type": "Point",
        "coordinates": [
          -62.79958886846444,
          -12.106099838063882
        ]
      }
    },
    {
      "type": "Feature",
      "properties": {
        "municipality": "Cerejeiras",
        "state": "RO",
        "crop": "Cana-de-açúcar",
        "hectares": 13.0,
        "production": 13.0,
        "year": 2023,
        "region": "Norte",
        "ibge_code": "1100056"
      },
      "geometry": {
        "type": "Point",
        "coordinates": [
          -64.47696670463657,
          -11.617781211289145
        ]
      }
    },
    {
      "type": "Feature",
      "properties": {
        "municipality": "Colorado do Oeste",
        "state": "RO",
        "crop": "Cana-de-açúcar",
        "hectares": 15.0,
        "production": 15.0,
        "year": 2023,
        "region": "Norte",
        "ibge_code": "1100064"
      },
      "geometry": {
        "type": "Point",
        "coordinates": [
          -64.20053708514064,
          -12.378133038890928
        ]
      }
    },
    {
      "type": "Feature",
      "properties": {
        "municipality": "Corumbiara",
        "state": "RO",
        "crop": "Cana-de-açúcar",
        "hectares": 13.0,
        "production": 13.0,
        "year": 2023,
        "region": "Norte",
        "ibge_code": "1100072"
      },
      "geometry": {
        "type": "Point",
        "coordinates": [
          -63.15845788701966,
          -11.206901103516405
        ]
      }
    },
    {
      "type": "Feature",
      "properties": {
        "municipality": "Costa Marques",
        "state": "RO",
        "crop": "Cana-de-açúcar",
        "hectares": 5.0,
        "production": 5.0,
        "year": 2023,
        "region": "Norte",
        "ibge_code": "1100080"
      },
      "geometry": {
        "type": "Point",
        "coordinates": [
          -63.00508478546875,
          -11.14548713243165
        ]
      }
    },
    {
      "type": "Feature",
      "properties": {
        "municipality": "Guajará-Mirim",
        "state": "RO",
        "crop": "Cana-de-açúcar",
        "hectares": 6.0,
        "production": 6.0,
        "year": 2023,
        "region": "Norte",
        "ibge_code": "1100106"
      },
      "geometry": {
        "type": "Point",
        "coordinates": [
          -63.76515579784139,
          -11.680842345491442
        ]
      }
    },
    {
      "type": "Feature",
      "properties": {
        "municipality": "Jaru",
        "state": "RO",
        "crop": "Cana-de-açúcar",
        "hectares": 6.0,
        "production": 6.0,
        "year": 2023,
        "region": "Norte",
        "ibge_code": "1100114"
      },
      "geometry": {
        "type": "Point",
        "coordinates": [
          -63.67403057367075,
          -11.493819172459503
        ]
      }
    },
    {
      "type": "Feature",
      "properties": {
        "municipality": "Ji-Paraná",
        "state": "RO",
        "crop": "Cana-de-açúcar",
        "hectares": 59.0,
        "production": 59.0,
        "year": 2023,
        "region": "Norte",
        "ibge_code": "1100122"
      },
      "geometry": {
        "type": "Point",
        "coordinates": [
          -63.54652753575108,
          -11.014580747632994
        ]
      }
    },
    {
      "type": "Feature",
      "properties": {
        "municipality": "Machadinho D'Oeste",
        "state": "RO",
        "crop": "Cana-de-açúcar",
        "hectares": 9.0,
        "production": 9.0,
        "year": 2023,
        "region": "Norte",
        "ibge_code": "1100130"
      },
      "geometry": {
        "type": "Point",
        "coordinates": [
          -63.35799059545948,
          -11.196820362076354
        ]
      }
    },
    {
      "type": "Feature",
      "properties": {
        "municipality": "Ouro Preto do Oeste",
        "state": "RO",
        "crop": "Cana-de-açúcar",
        "hectares": 15.0,
        "production": 15.0,
        "year": 2023,
        "region": "Norte",
        "ibge_code": "1100155"
      },
      "geometry": {
        "type": "Point",
        "coordinates": [
          -64.41508377555539,
          -12.257183906040966
        ]
      }
    },
    {
      "type": "Feature",
      "properties": {
        "municipality": "Porto Velho",
        "state": "RO",
        "crop": "Cana-de-açúcar",
        "hectares": 56.0,
        "production": 56.0,
        "year": 2023,
        "region": "Norte",
        "ibge_code": "1100205"
      },
      "geometry": {
        "type": "Point",
        "coordinates": [
          -63.63358436368998,
          -10.70297687930321
        ]
      }
    },
    {
      "type": "Feature",
      "properties": {
        "municipality": "Presidente Médici",
        "state": "RO",
        "crop": "Cana-de-açúcar",
        "hectares": 25.0,
        "production": 25.0,
        "year": 2023,
        "region": "Norte",
        "ibge_code": "1100254"
      },
      "geometry": {
        "type": "Point",
        "coordinates": [
          -63.804530540760624,
          -10.637176074592054
        ]
      }
    },
    {
      "type": "Feature",
      "properties": {
        "municipality": "Rolim de Moura",
        "state": "RO",
        "crop": "Cana-de-açúcar",
        "hectares": 25.0,
        "production": 25.0,
        "year": 2023,
        "region": "Norte",
        "ibge_code": "1100288"
      },
      "geometry": {
        "type": "Point",
        "coordinates": [
          -64.27038086711889,
          -10.87933364579586
        ]
      }
    },
    {
      "type": "Feature",
      "properties": {
        "municipality": "Santa Luzia D'Oeste",
        "state": "RO",
        "crop": "Cana-de-açúcar",
        "hectares": 19.0,
        "production": 19.0,
        "year": 2023,
        "region": "Norte",
        "ibge_code": "1100296"
      },
      "geometry": {
        "type": "Point",
        "coordinates": [
          -62.58344991353287,
          -10.696014596018466
        ]
      }
    },
    {
      "type": "Feature",
      "properties": {
        "municipality": "Vilhena",
        "state": "RO",
        "crop": "Cana-de-açúcar",
        "hectares": 3.0,
        "production": 3.0,
        "year": 2023,
        "region": "Norte",
        "ibge_code": "1100304"
      },
      "geometry": {
        "type": "Point",
        "coordinates": [
          -63.86284000241561,
          -10.54799261760644
        ]
      }
    },
    {
      "type": "Feature",
      "properties": {
        "municipality": "São Miguel do Guaporé",
        "state": "RO",
        "crop": "Cana-de-açúcar",
        "hectares": 3.0,
        "production": 3.0,
        "year": 2023,
        "region": "Norte",
        "ibge_code": "1100320"
      },
      "geometry": {
        "type": "Point",
        "coordinates": [
          -63.53096235767705,
          -11.646019929768352
        ]
      }
    },
    {
      "type": "Feature",
      "properties": {
        "municipality": "Alto Alegre dos Parecis",
        "state": "RO",
        "crop": "Cana-de-açúcar",
        "hectares": 8.0,
        "production": 8.0,
        "year": 2023,
        "region": "Norte",
        "ibge_code": "1100379"
      },
      "geometry": {
        "type": "Point",
        "coordinates": [
          -63.599844517858365,
          -10.990922536568295
        ]
      }
    },
    {
      "type": "Feature",
      "properties": {
        "municipality": "Novo Horizonte do Oeste",
        "state": "RO",
        "crop": "Cana-de-açúcar",
        "hectares": 3.0,
        "production": 3.0,
        "year": 2023,
        "region": "Norte",
        "ibge_code": "1100502"
      },
      "geometry": {
        "type": "Point",
        "coordinates": [
          -64.35162650273675,
          -11.429762581176158
        ]
      }
    },
    {
      "type": "Feature",
      "properties": {
        "municipality": "Cacaulândia",
        "state": "RO",
        "crop": "Cana-de-açúcar",
        "hectares": 19.0,
        "production": 19.0,
        "year": 2023,
        "region": "Norte",
        "ibge_code": "1100601"
      },
      "geometry": {
        "type": "Point",
        "coordinates": [
          -62.643838963814304,
          -10.665928757355275
        ]
      }
    },
    {
      "type": "Feature",
      "properties": {
        "municipality": "Campo Novo de Rondônia",
        "state": "RO",
        "crop": "Cana-de-açúcar",
        "hectares": 9.0,
        "production": 9.0,
        "year": 2023,
        "region": "Norte",
        "ibge_code": "1100700"
      },
      "geometry": {
        "type": "Point",
        "coordinates": [
          -64.10129994498661,
          -10.976126157271931
        ]
      }
    },
    {
      "type": "Feature",
      "properties": {
        "municipality": "Candeias do Jamari",
        "state": "RO",
        "crop": "Cana-de-açúcar",
        "hectares": 63.0,
        "production": 63.0,
        "year": 2023,
        "region": "Norte",
        "ibge_code": "1100809"
      },
      "geometry": {
        "type": "Point",
        "coordinates": [
          -62.784453531868145,
          -11.272358836389603
        ]
      }
    },
    {
      "type": "Feature",
      "properties": {
        "municipality": "Chupinguaia",
        "state": "RO",
        "crop": "Cana-de-açúcar",
        "hectares": 5.0,
        "production": 5.0,
        "year": 2023,
        "region": "Norte",
        "ibge_code": "1100924"
      },
      "geometry": {
        "type": "Point",
        "coordinates": [
          -62.759677440502905,
          -12.190954971005938
        ]
      }
    },
    {
      "type": "Feature",
      "properties": {
        "municipality": "Cujubim",
        "state": "RO",
        "crop": "Cana-de-açúcar",
        "hectares": 4.0,
        "production": 4.0,
        "year": 2023,
        "region": "Norte",
        "ibge_code": "1100940"
      },
      "geometry": {
        "type": "Point",
        "coordinates": [
          -62.66580633387573,
          -11.981285168630647
        ]
      }
    },
    {
      "type": "Feature",
      "properties": {
        "municipality": "Governador Jorge Teixeira",
        "state": "RO",
        "crop": "Cana-de-açúcar",
        "hectares": 16.0,
        "production": 16.0,
        "year": 2023,
        "region": "Norte",
        "ibge_code": "1101005"
      },
      "geometry": {
        "type": "Point",
        "coordinates": [
          -63.20907622560592,
          -11.174479049667092
        ]
      }
    },
    {
      "type": "Feature",
      "properties": {
        "municipality": "Itapuã do Oeste",
        "state": "RO",
        "crop": "Cana-de-açúcar",
        "hectares": 50.0,
        "production": 50.0,
        "year": 2023,
        "region": "Norte",
        "ibge_code": "1101104"
      },
      "geometry": {
        "type": "Point",
        "coordinates": [
          -63.776151391294626,
          -10.514610080263935
        ]
      }
    },
    {
      "type": "Feature",
      "properties": {
        "municipality": "Mirante da Serra",
        "state": "RO",
        "crop": "Cana-de-açúcar",
        "hectares": 13.0,
        "production": 13.0,
        "year": 2023,
        "region": "Norte",
        "ibge_code": "1101302"
      },
      "geometry": {
        "type": "Point",
        "coordinates": [
          -63.48499549300005,
          -11.961857622275188
        ]
      }
    },
    {
      "type": "Feature",
      "properties": {
        "municipality": "Monte Negro",
        "state": "RO",
        "crop": "Cana-de-açúcar",
        "hectares": 6.0,
        "production": 6.0,
        "year": 2023,
        "region": "Norte",
        "ibge_code": "1101401"
      },
      "geometry": {
        "type": "Point",
        "coordinates": [
          -63.62561435364165,
          -12.316551245877804
        ]
      }
    },
    {
      "type": "Feature",
      "properties": {
        "municipality": "Nova União",
        "state": "RO",
        "crop": "Cana-de-açúcar",
        "hectares": 19.0,
        "production": 19.0,
        "year": 2023,
        "region": "Norte",
        "ibge_code": "1101435"
      },
      "geometry": {
        "type": "Point",
        "coordinates": [
          -64.0361243430993,
          -10.806849968045134
        ]
      }
    },
    {
      "type": "Feature",
      "properties": {
        "municipality": "Pimenteiras do Oeste",
        "state": "RO",
        "crop": "Cana-de-açúcar",
        "hectares": 3.0,
        "production": 3.0,
        "year": 2023,
        "region": "Norte",
        "ibge_code": "1101468"
      },
      "geometry": {
        "type": "Point",
        "coordinates": [
          -64.16915200203783,
          -11.344185670132086
        ]
      }
    },
    {
      "type": "Feature",
      "properties": {
        "municipality": "Primavera de Rondônia",
        "state": "RO",
        "crop": "Cana-de-açúcar",
        "hectares": 6.0,
        "production": 6.0,
        "year": 2023,
        "region": "Norte",
        "ibge_code": "1101476"
      },
      "geometry": {
        "type": "Point",
        "coordinates": [
          -64.44617177332965,
          -10.875916926893682
        ]
      }
    },
    {
      "type": "Feature",
      "properties": {
        "municipality": "São Felipe D'Oeste",
        "state": "RO",
        "crop": "Cana-de-açúcar",
        "hectares": 1.0,
        "production": 1.0,
        "year": 2023,
        "region": "Norte",
        "ibge_code": "1101484"
      },
      "geometry": {
        "type": "Point",
        "coordinates": [
          -63.023236007096536,
          -11.741252601805476
        ]
      }
    },
    {
      "type": "Feature",
      "properties": {
        "municipality": "Seringueiras",
        "state": "RO",
        "crop": "Cana-de-açúcar",
        "hectares": 6.0,
        "production": 6.0,
        "year": 2023,
        "region": "Norte",
        "ibge_code": "1101500"
      },
      "geometry": {
        "type": "Point",
        "coordinates": [
          -62.949331273934966,
          -12.244659540198658
        ]
      }
    },
    {
      "type": "Feature",
      "properties": {
        "municipality": "Teixeirópolis",
        "state": "RO",
        "crop": "Cana-de-açúcar",
        "hectares": 4.0,
        "production": 4.0,
        "year": 2023,
        "region": "Norte",
        "ibge_code": "1101559"
      },
      "geometry": {
        "type": "Point",
        "coordinates": [
          -62.68087114165585,
          -11.162974730557048
        ]
      }
    },
    {
      "type": "Feature",
      "properties": {
        "municipality": "Theobroma",
        "state": "RO",
        "crop": "Cana-de-açúcar",
        "hectares": 10.0,
        "production": 10.0,
        "year": 2023,
        "region": "Norte",
        "ibge_code": "1101609"
      },
      "geometry": {
        "type": "Point",
        "coordinates": [
          -63.215074335219036,
          -10.701467585492956
        ]
      }
    },
    {
      "type": "Feature",
      "properties": {
        "municipality": "Urupá",
        "state": "RO",
        "crop": "Cana-de-açúcar",
        "hectares": 1.0,
        "production": 1.0,
        "year": 2023,
        "region": "Norte",
        "ibge_code": "1101708"
      },
      "geometry": {
        "type": "Point",
        "coordinates": [
          -63.89118028388784,
          -11.310308429127343
        ]
      }
    },
    {
      "type": "Feature",
      "properties": {
        "municipality": "Vale do Anari",
        "state": "RO",
        "crop": "Cana-de-açúcar",
        "hectares": 19.0,
        "production": 19.0,
        "year": 2023,
        "region": "Norte",
        "ibge_code": "1101757"
      },
      "geometry": {
        "type": "Point",
        "coordinates": [
          -62.836872625954854,
          -10.585778139610088
        ]
      }
    },
    {
      "type": "Feature",
      "properties": {
        "municipality": "Vale do Paraíso",
        "state": "RO",
        "crop": "Cana-de-açúcar",
        "hectares": 19.0,
        "production": 19.0,
        "year": 2023,
        "region": "Norte",
        "ibge_code": "1101807"
      },
      "geometry": {
        "type": "Point",
        "coordinates": [
          -64.3959981009997,
          -10.511338329591068
        ]
      }
    },
    {
      "type": "Feature",
      "properties": {
        "municipality": "Acrelândia",
        "state": "AC",
        "crop": "Cana-de-açúcar",
        "hectares": 50.0,
        "production": 50.0,
        "year": 2023,
        "region": "Norte",
        "ibge_code": "1200013"
      },
      "geometry": {
        "type": "Point",
        "coordinates": [
          -70.59514436812134,
          -8.117808694532357
        ]
      }
    },
    {
      "type": "Feature",
      "properties": {
        "municipality": "Assis Brasil",
        "state": "AC",
        "crop": "Cana-de-açúcar",
        "hectares": 15.0,
        "production": 15.0,
        "year": 2023,
        "region": "Norte",
        "ibge_code": "1200054"
      },
      "geometry": {
        "type": "Point",
        "coordinates": [
          -69.82344697390286,
          -10.02142877421514
        ]
      }
    },
    {
      "type": "Feature",
      "properties": {
        "municipality": "Brasiléia",
        "state": "AC",
        "crop": "Cana-de-açúcar",
        "hectares": 12.0,
        "production": 12.0,
        "year": 2023,
        "region": "Norte",
        "ibge_code": "1200104"
      },
      "geometry": {
        "type": "Point",
        "coordinates": [
          -70.209389668062,
          -8.161718776310932
        ]
      }
    },
    {
      "type": "Feature",
      "properties": {
        "municipality": "Bujari",
        "state": "AC",
        "crop": "Cana-de-açúcar",
        "hectares": 40.0,
        "production": 40.0,
        "year": 2023,
        "region": "Norte",
        "ibge_code": "1200138"
      },
      "geometry": {
        "type": "Point",
        "coordinates": [
          -70.18073127393497,
          -9.762759540198658
        ]
      }
    },
    {
      "type": "Feature",
      "properties": {
        "municipality": "Capixaba",
        "state": "AC",
        "crop": "Cana-de-açúcar",
        "hectares": 18.0,
        "production": 18.0,
        "year": 2023,
        "region": "Norte",
        "ibge_code": "1200179"
      },
      "geometry": {
        "type": "Point",
        "coordinates": [
          -70.47982488555012,
          -9.061306731853383
        ]
      }
    },
    {
      "type": "Feature",
      "properties": {
        "municipality": "Cruzeiro do Sul",
        "state": "AC",
        "crop": "Cana-de-açúcar",
        "hectares": 30.0,
        "production": 30.0,
        "year": 2023,
        "region": "Norte",
        "ibge_code": "1200203"
      },
      "geometry": {
        "type": "Point",
        "coordinates": [
          -70.0298775641068,
          -9.104297642283615
        ]
      }
    },
    {
      "type": "Feature",
      "properties": {
        "municipality": "Epitaciolândia",
        "state": "AC",
        "crop": "Cana-de-açúcar",
        "hectares": 12.0,
        "production": 12.0,
        "year": 2023,
        "region": "Norte",
        "ibge_code": "1200252"
      },
      "geometry": {
        "type": "Point",
        "coordinates": [
          -70.0674822383062,
          -8.92478837618645
        ]
      }
    },
    {
      "type": "Feature",
      "properties": {
        "municipality": "Feijó",
        "state": "AC",
        "crop": "Cana-de-açúcar",
        "hectares": 20.0,
        "production": 20.0,
        "year": 2023,
        "region": "Norte",
        "ibge_code": "1200302"
      },
      "geometry": {
        "type": "Point",
        "coordinates": [
          -70.00511042723109,
          -8.60073080746991
        ]
      }
    },
    {
      "type": "Feature",
      "properties": {
        "municipality": "Jordão",
        "state": "AC",
        "crop": "Cana-de-açúcar",
        "hectares": 8.0,
        "production": 8.0,
        "year": 2023,
        "region": "Norte",
        "ibge_code": "1200328"
      },
      "geometry": {
        "type": "Point",
        "coordinates": [
          -71.25393440125423,
          -9.958154710265145
        ]
      }
    },
    {
      "type": "Feature",
      "properties": {
        "municipality": "Mâncio Lima",
        "state": "AC",
        "crop": "Cana-de-açúcar",
        "hectares": 20.0,
        "production": 20.0,
        "year": 2023,
        "region": "Norte",
        "ibge_code": "1200336"
      },
      "geometry": {
        "type": "Point",
        "coordinates": [
          -69.85428861893537,
          -9.741325872091588
        ]
      }
    },
    {
      "type": "Feature",
      "properties": {
        "municipality": "Manoel Urbano",
        "state": "AC",
        "crop": "Cana-de-açúcar",
        "hectares": 14.0,
        "production": 14.0,
        "year": 2023,
        "region": "Norte",
        "ibge_code": "1200344"
      },
      "geometry": {
        "type": "Point",
        "coordinates": [
          -70.9566286019316,
          -9.028427181569803
        ]
      }
    },
    {
      "type": "Feature",
      "properties": {
        "municipality": "Marechal Thaumaturgo",
        "state": "AC",
        "crop": "Cana-de-açúcar",
        "hectares": 25.0,
        "production": 25.0,
        "year": 2023,
        "region": "Norte",
        "ibge_code": "1200351"
      },
      "geometry": {
        "type": "Point",
        "coordinates": [
          -70.47386957647166,
          -9.011846666100318
        ]
      }
    },
    {
      "type": "Feature",
      "properties": {
        "municipality": "Plácido de Castro",
        "state": "AC",
        "crop": "Cana-de-açúcar",
        "hectares": 13.0,
        "production": 13.0,
        "year": 2023,
        "region": "Norte",
        "ibge_code": "1200385"
      },
      "geometry": {
        "type": "Point",
        "coordinates": [
          -70.44148401407092,
          -9.505783016569053
        ]
      }
    },
    {
      "type": "Feature",
      "properties": {
        "municipality": "Porto Walter",
        "state": "AC",
        "crop": "Cana-de-açúcar",
        "hectares": 12.0,
        "production": 12.0,
        "year": 2023,
        "region": "Norte",
        "ibge_code": "1200393"
      },
      "geometry": {
        "type": "Point",
        "coordinates": [
          -70.89884329255284,
          -9.848863656828206
        ]
      }
    },
    {
      "type": "Feature",
      "properties": {
        "municipality": "Rio Branco",
        "state": "AC",
        "crop": "Cana-de-açúcar",
        "hectares": 28.0,
        "production": 28.0,
        "year": 2023,
        "region": "Norte",
        "ibge_code": "1200401"
      },
      "geometry": {
        "type": "Point",
        "coordinates": [
          -69.961295582124,
          -9.428658517488996
        ]
      }
    },
    {
      "type": "Feature",
      "properties": {
        "municipality": "Rodrigues Alves",
        "state": "AC",
        "crop": "Cana-de-açúcar",
        "hectares": 15.0,
        "production": 15.0,
        "year": 2023,
        "region": "Norte",
        "ibge_code": "1200427"
      },
      "geometry": {
        "type": "Point",
        "coordinates": [
          -70.61238963934446,
          -8.381084937120821
        ]
      }
    },
    {
      "type": "Feature",
      "properties": {
        "municipality": "Santa Rosa do Purus",
        "state": "AC",
        "crop": "Cana-de-açúcar",
        "hectares": 10.0,
        "production": 10.0,
        "year": 2023,
        "region": "Norte",
        "ibge_code": "1200435"
      },
      "geometry": {
        "type": "Point",
        "coordinates": [
          -71.60137584075909,
          -8.861916188365523
        ]
      }
    },
    {
      "type": "Feature",
      "properties": {
        "municipality": "Senador Guiomard",
        "state": "AC",
        "crop": "Cana-de-açúcar",
        "hectares": 14.0,
        "production": 14.0,
        "year": 2023,
        "region": "Norte",
        "ibge_code": "1200450"
      },
      "geometry": {
        "type": "Point",
        "coordinates": [
          -70.43474447329871,
          -8.769959231713251
        ]
      }
    },
    {
      "type": "Feature",
      "properties": {
        "municipality": "Sena Madureira",
        "state": "AC",
        "crop": "Cana-de-açúcar",
        "hectares": 15.0,
        "production": 15.0,
        "year": 2023,
        "region": "Norte",
        "ibge_code": "1200500"
      },
      "geometry": {
        "type": "Point",
        "coordinates": [
          -71.60889164058379,
          -9.389671870349403
        ]
      }
    },
    {
      "type": "Feature",
      "properties": {
        "municipality": "Tarauacá",
        "state": "AC",
        "crop": "Cana-de-açúcar",
        "hectares": 25.0,
        "production": 25.0,
        "year": 2023,
        "region": "Norte",
        "ibge_code": "1200609"
      },
      "geometry": {
        "type": "Point",
        "coordinates": [
          -70.98312296206888,
          -9.402428125806555
        ]
      }
    },
    {
      "type": "Feature",
      "properties": {
        "municipality": "Xapuri",
        "state": "AC",
        "crop": "Cana-de-açúcar",
        "hectares": 25.0,
        "production": 25.0,
        "year": 2023,
        "region": "Norte",
        "ibge_code": "1200708"
      },
      "geometry": {
        "type": "Point",
        "coordinates": [
          -70.82535088926788,
          -8.544098482681997
        ]
      }
    },
    {
      "type": "Feature",
      "properties": {
        "municipality": "Porto Acre",
        "state": "AC",
        "crop": "Cana-de-açúcar",
        "hectares": 15.0,
        "production": 15.0,
        "year": 2023,
        "region": "Norte",
        "ibge_code": "1200807"
      },
      "geometry": {
        "type": "Point",
        "coordinates": [
          -70.2144387294905,
          -8.114400206944513
        ]
      }
    },
    {
      "type": "Feature",
      "properties": {
        "municipality": "Apuí",
        "state": "AM",
        "crop": "Cana-de-açúcar",
        "hectares": 7.0,
        "production": 7.0,
        "year": 2023,
        "region": "Norte",
        "ibge_code": "1300144"
      },
      "geometry": {
        "type": "Point",
        "coordinates": [
          -61.335645397067836,
          -5.5718255041336375
        ]
      }
    },
    {
      "type": "Feature",
      "properties": {
        "municipality": "Atalaia do Norte",
        "state": "AM",
        "crop": "Cana-de-açúcar",
        "hectares": 2.0,
        "production": 2.0,
        "year": 2023,
        "region": "Norte",
        "ibge_code": "1300201"
      },
      "geometry": {
        "type": "Point",
        "coordinates": [
          -62.55579500012854,
          -5.370093010783706
        ]
      }
    },
    {
      "type": "Feature",
      "properties": {
        "municipality": "Benjamin Constant",
        "state": "AM",
        "crop": "Cana-de-açúcar",
        "hectares": 7.0,
        "production": 7.0,
        "year": 2023,
        "region": "Norte",
        "ibge_code": "1300607"
      },
      "geometry": {
        "type": "Point",
        "coordinates": [
          -61.715515284539926,
          -5.64257954518688
        ]
      }
    },
    {
      "type": "Feature",
      "properties": {
        "municipality": "Boca do Acre",
        "state": "AM",
        "crop": "Cana-de-açúcar",
        "hectares": 19.0,
        "production": 19.0,
        "year": 2023,
        "region": "Norte",
        "ibge_code": "1300706"
      },
      "geometry": {
        "type": "Point",
        "coordinates": [
          -62.020784233882914,
          -5.307865361819012
        ]
      }
    },
    {
      "type": "Feature",
      "properties": {
        "municipality": "Carauari",
        "state": "AM",
        "crop": "Cana-de-açúcar",
        "hectares": 2.0,
        "production": 2.0,
        "year": 2023,
        "region": "Norte",
        "ibge_code": "1301001"
      },
      "geometry": {
        "type": "Point",
        "coordinates": [
          -62.23989208901886,
          -5.618969623235571
        ]
      }
    },
    {
      "type": "Feature",
      "properties": {
        "municipality": "Coari",
        "state": "AM",
        "crop": "Cana-de-açúcar",
        "hectares": 10.0,
        "production": 10.0,
        "year": 2023,
        "region": "Norte",
        "ibge_code": "1301209"
      },
      "geometry": {
        "type": "Point",
        "coordinates": [
          -61.10958304687498,
          -5.937360154160725
        ]
      }
    },
    {
      "type": "Feature",
      "properties": {
        "municipality": "Eirunepé",
        "state": "AM",
        "crop": "Cana-de-açúcar",
        "hectares": 80.0,
        "production": 80.0,
        "year": 2023,
        "region": "Norte",
        "ibge_code": "1301407"
      },
      "geometry": {
        "type": "Point",
        "coordinates": [
          -61.88222457322698,
          -5.2452325059246725
        ]
      }
    },
    {
      "type": "Feature",
      "properties": {
        "municipality": "Envira",
        "state": "AM",
        "crop": "Cana-de-açúcar",
        "hectares": 20.0,
        "production": 20.0,
        "year": 2023,
        "region": "Norte",
        "ibge_code": "1301506"
      },
      "geometry": {
        "type": "Point",
        "coordinates": [
          -61.913727535751086,
          -4.469780747632994
        ]
      }
    },
    {
      "type": "Feature",
      "properties": {
        "municipality": "Guajará",
        "state": "AM",
        "crop": "Cana-de-açúcar",
        "hectares": 7.0,
        "production": 7.0,
        "year": 2023,
        "region": "Norte",
        "ibge_code": "1301654"
      },
      "geometry": {
        "type": "Point",
        "coordinates": [
          -61.45135724995553,
          -4.910026983168274
        ]
      }
    },
    {
      "type": "Feature",
      "properties": {
        "municipality": "Ipixuna",
        "state": "AM",
        "crop": "Cana-de-açúcar",
        "hectares": 8.0,
        "production": 8.0,
        "year": 2023,
        "region": "Norte",
        "ibge_code": "1301803"
      },
      "geometry": {
        "type": "Point",
        "coordinates": [
          -61.68237443818982,
          -5.925609108980069
        ]
      }
    },
    {
      "type": "Feature",
      "properties": {
        "municipality": "Itamarati",
        "state": "AM",
        "crop": "Cana-de-açúcar",
        "hectares": 5.0,
        "production": 5.0,
        "year": 2023,
        "region": "Norte",
        "ibge_code": "1301951"
      },
      "geometry": {
        "type": "Point",
        "coordinates": [
          -62.50680409394203,
          -5.656607434313416
        ]
      }
    },
    {
      "type": "Feature",
      "properties": {
        "municipality": "Lábrea",
        "state": "AM",
        "crop": "Cana-de-açúcar",
        "hectares": 3.0,
        "production": 3.0,
        "year": 2023,
        "region": "Norte",
        "ibge_code": "1302405"
      },
      "geometry": {
        "type": "Point",
        "coordinates": [
          -61.85074837972674,
          -5.338470233178043
        ]
      }
    },
    {
      "type": "Feature",
      "properties": {
        "municipality": "Maués",
        "state": "AM",
        "crop": "Cana-de-açúcar",
        "hectares": 40.0,
        "production": 40.0,
        "year": 2023,
        "region": "Norte",
        "ibge_code": "1302900"
      },
      "geometry": {
        "type": "Point",
        "coordinates": [
          -61.59904061686728,
          -5.672420387530199
        ]
      }
    },
    {
      "type": "Feature",
      "properties": {
        "municipality": "Nhamundá",
        "state": "AM",
        "crop": "Cana-de-açúcar",
        "hectares": 1.0,
        "production": 1.0,
        "year": 2023,
        "region": "Norte",
        "ibge_code": "1303007"
      },
      "geometry": {
        "type": "Point",
        "coordinates": [
          -62.66706281984721,
          -4.044481240365454
        ]
      }
    },
    {
      "type": "Feature",
      "properties": {
        "municipality": "Parintins",
        "state": "AM",
        "crop": "Cana-de-açúcar",
        "hectares": 3.0,
        "production": 3.0,
        "year": 2023,
        "region": "Norte",
        "ibge_code": "1303403"
      },
      "geometry": {
        "type": "Point",
        "coordinates": [
          -62.144124969345334,
          -4.21341751361353
        ]
      }
    },
    {
      "type": "Feature",
      "properties": {
        "municipality": "Presidente Figueiredo",
        "state": "AM",
        "crop": "Cana-de-açúcar",
        "hectares": 4500.0,
        "production": 4500.0,
        "year": 2023,
        "region": "Norte",
        "ibge_code": "1303536"
      },
      "geometry": {
        "type": "Point",
        "coordinates": [
          -61.64787402771335,
          -5.232137664628209
        ]
      }
    },
    {
      "type": "Feature",
      "properties": {
        "municipality": "São Paulo de Olivença",
        "state": "AM",
        "crop": "Cana-de-açúcar",
        "hectares": 11.0,
        "production": 11.0,
        "year": 2023,
        "region": "Norte",
        "ibge_code": "1303908"
      },
      "geometry": {
        "type": "Point",
        "coordinates": [
          -62.480898753788594,
          -5.0567682693018865
        ]
      }
    },
    {
      "type": "Feature",
      "properties": {
        "municipality": "Tabatinga",
        "state": "AM",
        "crop": "Cana-de-açúcar",
        "hectares": 4.0,
        "production": 4.0,
        "year": 2023,
        "region": "Norte",
        "ibge_code": "1304062"
      },
      "geometry": {
        "type": "Point",
        "coordinates": [
          -61.89060642620482,
          -5.463229848391632
        ]
      }
    },
    {
      "type": "Feature",
      "properties": {
        "municipality": "Amajari",
        "state": "RR",
        "crop": "Cana-de-açúcar",
        "hectares": 10.0,
        "production": 10.0,
        "year": 2023,
        "region": "Norte",
        "ibge_code": "1400027"
      },
      "geometry": {
        "type": "Point",
        "coordinates": [
          -61.8431152795287,
          3.364440856436163
        ]
      }
    },
    {
      "type": "Feature",
      "properties": {
        "municipality": "Boa Vista",
        "state": "RR",
        "crop": "Cana-de-açúcar",
        "hectares": 50.0,
        "production": 50.0,
        "year": 2023,
        "region": "Norte",
        "ibge_code": "1400100"
      },
      "geometry": {
        "type": "Point",
        "coordinates": [
          -62.384720478672236,
          2.150675757125021
        ]
      }
    },
    {
      "type": "Feature",
      "properties": {
        "municipality": "Bonfim",
        "state": "RR",
        "crop": "Cana-de-açúcar",
        "hectares": 30.0,
        "production": 30.0,
        "year": 2023,
        "region": "Norte",
        "ibge_code": "1400159"
      },
      "geometry": {
        "type": "Point",
        "coordinates": [
          -62.810038231657174,
          2.817353265013386
        ]
      }
    },
    {
      "type": "Feature",
      "properties": {
        "municipality": "Cantá",
        "state": "RR",
        "crop": "Cana-de-açúcar",
        "hectares": 30.0,
        "production": 30.0,
        "year": 2023,
        "region": "Norte",
        "ibge_code": "1400175"
      },
      "geometry": {
        "type": "Point",
        "coordinates": [
          -61.442926879670615,
          2.5357162802759055
        ]
      }
    },
    {
      "type": "Feature",
      "properties": {
        "municipality": "Caroebe",
        "state": "RR",
        "crop": "Cana-de-açúcar",
        "hectares": 10.0,
        "production": 10.0,
        "year": 2023,
        "region": "Norte",
        "ibge_code": "1400233"
      },
      "geometry": {
        "type": "Point",
        "coordinates": [
          -62.72621484291481,
          2.795896390900272
        ]
      }
    },
    {
      "type": "Feature",
      "properties": {
        "municipality": "Rorainópolis",
        "state": "RR",
        "crop": "Cana-de-açúcar",
        "hectares": 30.0,
        "production": 30.0,
        "year": 2023,
        "region": "Norte",
        "ibge_code": "1400472"
      },
      "geometry": {
        "type": "Point",
        "coordinates": [
          -61.1344557879898,
          2.9792301969685298
        ]
      }
    },
    {
      "type": "Feature",
      "properties": {
        "municipality": "São João da Baliza",
        "state": "RR",
        "crop": "Cana-de-açúcar",
        "hectares": 15.0,
        "production": 15.0,
        "year": 2023,
        "region": "Norte",
        "ibge_code": "1400506"
      },
      "geometry": {
        "type": "Point",
        "coordinates": [
          -62.976621765346934,
          1.9665425235172518
        ]
      }
    },
    {
      "type": "Feature",
      "properties": {
        "municipality": "Uiramutã",
        "state": "RR",
        "crop": "Cana-de-açúcar",
        "hectares": 10.0,
        "production": 10.0,
        "year": 2023,
        "region": "Norte",
        "ibge_code": "1400704"
      },
      "geometry": {
        "type": "Point",
        "coordinates": [
          -61.838899367146624,
          2.1569619587417144
        ]
      }
    },
    {
      "type": "Feature",
      "properties": {
        "municipality": "Abaetetuba",
        "state": "PA",
        "crop": "Cana-de-açúcar",
        "hectares": 100.0,
        "production": 100.0,
        "year": 2023,
        "region": "Norte",
        "ibge_code": "1500107"
      },
      "geometry": {
        "type": "Point",
        "coordinates": [
          -52.80190089133465,
          -4.577795482481193
        ]
      }
    },
    {
      "type": "Feature",
      "properties": {
        "municipality": "Abel Figueiredo",
        "state": "PA",
        "crop": "Cana-de-açúcar",
        "hectares": 11.0,
        "production": 11.0,
        "year": 2023,
        "region": "Norte",
        "ibge_code": "1500131"
      },
      "geometry": {
        "type": "Point",
        "coordinates": [
          -51.87500533500761,
          -3.521733579821166
        ]
      }
    },
    {
      "type": "Feature",
      "properties": {
        "municipality": "Alenquer",
        "state": "PA",
        "crop": "Cana-de-açúcar",
        "hectares": 16.0,
        "production": 16.0,
        "year": 2023,
        "region": "Norte",
        "ibge_code": "1500404"
      },
      "geometry": {
        "type": "Point",
        "coordinates": [
          -52.39063875190689,
          -3.679611225503399
        ]
      }
    },
    {
      "type": "Feature",
      "properties": {
        "municipality": "Almeirim",
        "state": "PA",
        "crop": "Cana-de-açúcar",
        "hectares": 8.0,
        "production": 8.0,
        "year": 2023,
        "region": "Norte",
        "ibge_code": "1500503"
      },
      "geometry": {
        "type": "Point",
        "coordinates": [
          -52.06633462735893,
          -4.2875946606979305
        ]
      }
    },
    {
      "type": "Feature",
      "properties": {
        "municipality": "Altamira",
        "state": "PA",
        "crop": "Cana-de-açúcar",
        "hectares": 20.0,
        "production": 20.0,
        "year": 2023,
        "region": "Norte",
        "ibge_code": "1500602"
      },
      "geometry": {
        "type": "Point",
        "coordinates": [
          -52.35017657269312,
          -3.3428432995326123
        ]
      }
    },
    {
      "type": "Feature",
      "properties": {
        "municipality": "Aveiro",
        "state": "PA",
        "crop": "Cana-de-açúcar",
        "hectares": 8.0,
        "production": 8.0,
        "year": 2023,
        "region": "Norte",
        "ibge_code": "1501006"
      },
      "geometry": {
        "type": "Point",
        "coordinates": [
          -52.464400505399674,
          -2.887313281280502
        ]
      }
    },
    {
      "type": "Feature",
      "properties": {
        "municipality": "Barcarena",
        "state": "PA",
        "crop": "Cana-de-açúcar",
        "hectares": 5.0,
        "production": 5.0,
        "year": 2023,
        "region": "Norte",
        "ibge_code": "1501303"
      },
      "geometry": {
        "type": "Point",
        "coordinates": [
          -51.97537821166217,
          -3.4217981004219293
        ]
      }
    },
    {
      "type": "Feature",
      "properties": {
        "municipality": "Brasil Novo",
        "state": "PA",
        "crop": "Cana-de-açúcar",
        "hectares": 2.0,
        "production": 2.0,
        "year": 2023,
        "region": "Norte",
        "ibge_code": "1501725"
      },
      "geometry": {
        "type": "Point",
        "coordinates": [
          -53.26105411318223,
          -3.0830437091043796
        ]
      }
    },
    {
      "type": "Feature",
      "properties": {
        "municipality": "Curralinho",
        "state": "PA",
        "crop": "Cana-de-açúcar",
        "hectares": 3.0,
        "production": 3.0,
        "year": 2023,
        "region": "Norte",
        "ibge_code": "1502806"
      },
      "geometry": {
        "type": "Point",
        "coordinates": [
          -52.08640200397083,
          -2.9183917480072203
        ]
      }
    },
    {
      "type": "Feature",
      "properties": {
        "municipality": "Faro",
        "state": "PA",
        "crop": "Cana-de-açúcar",
        "hectares": 2.0,
        "production": 2.0,
        "year": 2023,
        "region": "Norte",
        "ibge_code": "1503002"
      },
      "geometry": {
        "type": "Point",
        "coordinates": [
          -52.18863400884244,
          -3.5713431537262537
        ]
      }
    },
    {
      "type": "Feature",
      "properties": {
        "municipality": "Gurupá",
        "state": "PA",
        "crop": "Cana-de-açúcar",
        "hectares": 4.0,
        "production": 4.0,
        "year": 2023,
        "region": "Norte",
        "ibge_code": "1503101"
      },
      "geometry": {
        "type": "Point",
        "coordinates": [
          -51.96973112964595,
          -4.384845490766613
        ]
      }
    },
    {
      "type": "Feature",
      "properties": {
        "municipality": "Igarapé-Açu",
        "state": "PA",
        "crop": "Cana-de-açúcar",
        "hectares": 15.0,
        "production": 15.0,
        "year": 2023,
        "region": "Norte",
        "ibge_code": "1503200"
      },
      "geometry": {
        "type": "Point",
        "coordinates": [
          -52.5324917613051,
          -3.7542416376115364
        ]
      }
    },
    {
      "type": "Feature",
      "properties": {
        "municipality": "Igarapé-Miri",
        "state": "PA",
        "crop": "Cana-de-açúcar",
        "hectares": 10.0,
        "production": 10.0,
        "year": 2023,
        "region": "Norte",
        "ibge_code": "1503309"
      },
      "geometry": {
        "type": "Point",
        "coordinates": [
          -51.79763603440307,
          -3.192712029103798
        ]
      }
    },
    {
      "type": "Feature",
      "properties": {
        "municipality": "Itaituba",
        "state": "PA",
        "crop": "Cana-de-açúcar",
        "hectares": 10.0,
        "production": 10.0,
        "year": 2023,
        "region": "Norte",
        "ibge_code": "1503606"
      },
      "geometry": {
        "type": "Point",
        "coordinates": [
          -51.84811027495047,
          -2.9321150601668453
        ]
      }
    },
    {
      "type": "Feature",
      "properties": {
        "municipality": "Jacareacanga",
        "state": "PA",
        "crop": "Cana-de-açúcar",
        "hectares": 10.0,
        "production": 10.0,
        "year": 2023,
        "region": "Norte",
        "ibge_code": "1503754"
      },
      "geometry": {
        "type": "Point",
        "coordinates": [
          -52.82216829308481,
          -3.8844048599615
        ]
      }
    },
    {
      "type": "Feature",
      "properties": {
        "municipality": "Juruti",
        "state": "PA",
        "crop": "Cana-de-açúcar",
        "hectares": 1.0,
        "production": 1.0,
        "year": 2023,
        "region": "Norte",
        "ibge_code": "1503903"
      },
      "geometry": {
        "type": "Point",
        "coordinates": [
          -53.107046219903914,
          -2.8560168682446516
        ]
      }
    },
    {
      "type": "Feature",
      "properties": {
        "municipality": "Mojuí dos Campos",
        "state": "PA",
        "crop": "Cana-de-açúcar",
        "hectares": 10.0,
        "production": 10.0,
        "year": 2023,
        "region": "Norte",
        "ibge_code": "1504752"
      },
      "geometry": {
        "type": "Point",
        "coordinates": [
          -51.83976401325876,
          -4.308630562748136
        ]
      }
    },
    {
      "type": "Feature",
      "properties": {
        "municipality": "Monte Alegre",
        "state": "PA",
        "crop": "Cana-de-açúcar",
        "hectares": 15.0,
        "production": 15.0,
        "year": 2023,
        "region": "Norte",
        "ibge_code": "1504802"
      },
      "geometry": {
        "type": "Point",
        "coordinates": [
          -53.0767883117854,
          -3.3428924084353797
        ]
      }
    },
    {
      "type": "Feature",
      "properties": {
        "municipality": "Novo Progresso",
        "state": "PA",
        "crop": "Cana-de-açúcar",
        "hectares": 5.0,
        "production": 5.0,
        "year": 2023,
        "region": "Norte",
        "ibge_code": "1505031"
      },
      "geometry": {
        "type": "Point",
        "coordinates": [
          -51.65695353186815,
          -3.4786588363896054
        ]
      }
    },
    {
      "type": "Feature",
      "properties": {
        "municipality": "Óbidos",
        "state": "PA",
        "crop": "Cana-de-açúcar",
        "hectares": 15.0,
        "production": 15.0,
        "year": 2023,
        "region": "Norte",
        "ibge_code": "1505106"
      },
      "geometry": {
        "type": "Point",
        "coordinates": [
          -51.561440603180586,
          -2.9438472690194444
        ]
      }
    },
    {
      "type": "Feature",
      "properties": {
        "municipality": "Oriximiná",
        "state": "PA",
        "crop": "Cana-de-açúcar",
        "hectares": 5.0,
        "production": 5.0,
        "year": 2023,
        "region": "Norte",
        "ibge_code": "1505304"
      },
      "geometry": {
        "type": "Point",
        "coordinates": [
          -51.73163897048522,
          -4.016240352545964
        ]
      }
    },
    {
      "type": "Feature",
      "properties": {
        "municipality": "Pacajá",
        "state": "PA",
        "crop": "Cana-de-açúcar",
        "hectares": 10.0,
        "production": 10.0,
        "year": 2023,
        "region": "Norte",
        "ibge_code": "1505486"
      },
      "geometry": {
        "type": "Point",
        "coordinates": [
          -51.8555387294905,
          -2.802600206944514
        ]
      }
    },
    {
      "type": "Feature",
      "properties": {
        "municipality": "Placas",
        "state": "PA",
        "crop": "Cana-de-açúcar",
        "hectares": 8.0,
        "production": 8.0,
        "year": 2023,
        "region": "Norte",
        "ibge_code": "1505650"
      },
      "geometry": {
        "type": "Point",
        "coordinates": [
          -51.85519623839006,
          -4.155169968932039
        ]
      }
    },
    {
      "type": "Feature",
      "properties": {
        "municipality": "Porto de Moz",
        "state": "PA",
        "crop": "Cana-de-açúcar",
        "hectares": 15.0,
        "production": 15.0,
        "year": 2023,
        "region": "Norte",
        "ibge_code": "1505908"
      },
      "geometry": {
        "type": "Point",
        "coordinates": [
          -53.12246581835773,
          -3.599622146188791
        ]
      }
    },
    {
      "type": "Feature",
      "properties": {
        "municipality": "Prainha",
        "state": "PA",
        "crop": "Cana-de-açúcar",
        "hectares": 6.0,
        "production": 6.0,
        "year": 2023,
        "region": "Norte",
        "ibge_code": "1506005"
      },
      "geometry": {
        "type": "Point",
        "coordinates": [
          -52.48439087495176,
          -4.359864713765683
        ]
      }
    },
    {
      "type": "Feature",
      "properties": {
        "municipality": "Rurópolis",
        "state": "PA",
        "crop": "Cana-de-açúcar",
        "hectares": 10.0,
        "production": 10.0,
        "year": 2023,
        "region": "Norte",
        "ibge_code": "1506195"
      },
      "geometry": {
        "type": "Point",
        "coordinates": [
          -52.97413011045065,
          -3.3119098434865046
        ]
      }
    },
    {
      "type": "Feature",
      "properties": {
        "municipality": "Santarém",
        "state": "PA",
        "crop": "Cana-de-açúcar",
        "hectares": 15.0,
        "production": 15.0,
        "year": 2023,
        "region": "Norte",
        "ibge_code": "1506807"
      },
      "geometry": {
        "type": "Point",
        "coordinates": [
          -53.25557114812373,
          -3.6502389890628244
        ]
      }
    },
    {
      "type": "Feature",
      "properties": {
        "municipality": "São Francisco do Pará",
        "state": "PA",
        "crop": "Cana-de-açúcar",
        "hectares": 100.0,
        "production": 100.0,
        "year": 2023,
        "region": "Norte",
        "ibge_code": "1507409"
      },
      "geometry": {
        "type": "Point",
        "coordinates": [
          -53.20715242717694,
          -2.715246269732232
        ]
      }
    },
    {
      "type": "Feature",
      "properties": {
        "municipality": "Senador José Porfírio",
        "state": "PA",
        "crop": "Cana-de-açúcar",
        "hectares": 15.0,
        "production": 15.0,
        "year": 2023,
        "region": "Norte",
        "ibge_code": "1507805"
      },
      "geometry": {
        "type": "Point",
        "coordinates": [
          -52.00196516762357,
          -3.2459183227027775
        ]
      }
    },
    {
      "type": "Feature",
      "properties": {
        "municipality": "Terra Santa",
        "state": "PA",
        "crop": "Cana-de-açúcar",
        "hectares": 5.0,
        "production": 5.0,
        "year": 2023,
        "region": "Norte",
        "ibge_code": "1507979"
      },
      "geometry": {
        "type": "Point",
        "coordinates": [
          -52.36928681105112,
          -4.169017773480109
        ]
      }
    },
    {
      "type": "Feature",
      "properties": {
        "municipality": "Trairão",
        "state": "PA",
        "crop": "Cana-de-açúcar",
        "hectares": 10.0,
        "production": 10.0,
        "year": 2023,
        "region": "Norte",
        "ibge_code": "1508050"
      },
      "geometry": {
        "type": "Point",
        "coordinates": [
          -51.49064922987324,
          -4.477571777410734
        ]
      }
    },
    {
      "type": "Feature",
      "properties": {
        "municipality": "Ulianópolis",
        "state": "PA",
        "crop": "Cana-de-açúcar",
        "hectares": 17000.0,
        "production": 17000.0,
        "year": 2023,
        "region": "Norte",
        "ibge_code": "1508126"
      },
      "geometry": {
        "type": "Point",
        "coordinates": [
          -51.64721390084523,
          -4.604591659871788
        ]
      }
    },
    {
      "type": "Feature",
      "properties": {
        "municipality": "Vitória do Xingu",
        "state": "PA",
        "crop": "Cana-de-açúcar",
        "hectares": 4.0,
        "production": 4.0,
        "year": 2023,
        "region": "Norte",
        "ibge_code": "1508357"
      },
      "geometry": {
        "type": "Point",
        "coordinates": [
          -51.755855901251714,
          -3.9329163905248743
        ]
      }
    },
    {
      "type": "Feature",
      "properties": {
        "municipality": "Amapá",
        "state": "AP",
        "crop": "Cana-de-açúcar",
        "hectares": 92.0,
        "production": 92.0,
        "year": 2023,
        "region": "Norte",
        "ibge_code": "1600105"
      },
      "geometry": {
        "type": "Point",
        "coordinates": [
          -52.68882092251334,
          0.7247927612205398
        ]
      }
    },
    {
      "type": "Feature",
      "properties": {
        "municipality": "Pedra Branca do Amapari",
        "state": "AP",
        "crop": "Cana-de-açúcar",
        "hectares": 20.0,
        "production": 20.0,
        "year": 2023,
        "region": "Norte",
        "ibge_code": "1600154"
      },
      "geometry": {
        "type": "Point",
        "coordinates": [
          -51.702820045565765,
          2.3465198622852395
        ]
      }
    },
    {
      "type": "Feature",
      "properties": {
        "municipality": "Laranjal do Jari",
        "state": "AP",
        "crop": "Cana-de-açúcar",
        "hectares": 12.0,
        "production": 12.0,
        "year": 2023,
        "region": "Norte",
        "ibge_code": "1600279"
      },
      "geometry": {
        "type": "Point",
        "coordinates": [
          -52.552078586461406,
          1.8894991802463712
        ]
      }
    },
    {
      "type": "Feature",
      "properties": {
        "municipality": "Macapá",
        "state": "AP",
        "crop": "Cana-de-açúcar",
        "hectares": 32.0,
        "production": 32.0,
        "year": 2023,
        "region": "Norte",
        "ibge_code": "1600303"
      },
      "geometry": {
        "type": "Point",
        "coordinates": [
          -51.00548886846444,
          0.814000161936117
        ]
      }
    },
    {
      "type": "Feature",
      "properties": {
        "municipality": "Mazagão",
        "state": "AP",
        "crop": "Cana-de-açúcar",
        "hectares": 20.0,
        "production": 20.0,
        "year": 2023,
        "region": "Norte",
        "ibge_code": "1600402"
      },
      "geometry": {
        "type": "Point",
        "coordinates": [
          -52.30753011045065,
          1.8144901565134954
        ]
      }
    },
    {
      "type": "Feature",
      "properties": {
        "municipality": "Oiapoque",
        "state": "AP",
        "crop": "Cana-de-açúcar",
        "hectares": 17.0,
        "production": 17.0,
        "year": 2023,
        "region": "Norte",
        "ibge_code": "1600501"
      },
      "geometry": {
        "type": "Point",
        "coordinates": [
          -52.254152553854915,
          1.4094731375172047
        ]
      }
    },
    {
      "type": "Feature",
      "properties": {
        "municipality": "Santana",
        "state": "AP",
        "crop": "Cana-de-açúcar",
        "hectares": 10.0,
        "production": 10.0,
        "year": 2023,
        "region": "Norte",
        "ibge_code": "1600600"
      },
      "geometry": {
        "type": "Point",
        "coordinates": [
          -52.12852215733508,
          1.2177714763379068
        ]
      }
    },
    {
      "type": "Feature",
      "properties": {
        "municipality": "Tartarugalzinho",
        "state": "AP",
        "crop": "Cana-de-açúcar",
        "hectares": 10.0,
        "production": 10.0,
        "year": 2023,
        "region": "Norte",
        "ibge_code": "1600709"
      },
      "geometry": {
        "type": "Point",
        "coordinates": [
          -51.61857187883402,
          0.5740904610382227
        ]
      }
    },
    {
      "type": "Feature",
      "properties": {
        "municipality": "Vitória do Jari",
        "state": "AP",
        "crop": "Cana-de-açúcar",
        "hectares": 10.0,
        "production": 10.0,
        "year": 2023,
        "region": "Norte",
        "ibge_code": "1600808"
      },
      "geometry": {
        "type": "Point",
        "coordinates": [
          -51.00219234551775,
          0.8442043493656233
        ]
      }
    },
    {
      "type": "Feature",
      "properties": {
        "municipality": "Abreulândia",
        "state": "TO",
        "crop": "Cana-de-açúcar",
        "hectares": 10.0,
        "production": 10.0,
        "year": 2023,
        "region": "Norte",
        "ibge_code": "1700251"
      },
      "geometry": {
        "type": "Point",
        "coordinates": [
          -49.1094722528276,
          -10.693989744133535
        ]
      }
    },
    {
      "type": "Feature",
      "properties": {
        "municipality": "Aragominas",
        "state": "TO",
        "crop": "Cana-de-açúcar",
        "hectares": 5.0,
        "production": 5.0,
        "year": 2023,
        "region": "Norte",
        "ibge_code": "1701309"
      },
      "geometry": {
        "type": "Point",
        "coordinates": [
          -47.53362562632208,
          -11.10722501192528
        ]
      }
    },
    {
      "type": "Feature",
      "properties": {
        "municipality": "Araguaçu",
        "state": "TO",
        "crop": "Cana-de-açúcar",
        "hectares": 18.0,
        "production": 18.0,
        "year": 2023,
        "region": "Norte",
        "ibge_code": "1702000"
      },
      "geometry": {
        "type": "Point",
        "coordinates": [
          -49.085460683461505,
          -10.141841874114137
        ]
      }
    },
    {
      "type": "Feature",
      "properties": {
        "municipality": "Araguaína",
        "state": "TO",
        "crop": "Cana-de-açúcar",
        "hectares": 5.0,
        "production": 5.0,
        "year": 2023,
        "region": "Norte",
        "ibge_code": "1702109"
      },
      "geometry": {
        "type": "Point",
        "coordinates": [
          -47.404710060083296,
          -10.982617771111492
        ]
      }
    },
    {
      "type": "Feature",
      "properties": {
        "municipality": "Araguatins",
        "state": "TO",
        "crop": "Cana-de-açúcar",
        "hectares": 3.0,
        "production": 3.0,
        "year": 2023,
        "region": "Norte",
        "ibge_code": "1702208"
      },
      "geometry": {
        "type": "Point",
        "coordinates": [
          -49.20052092251334,
          -10.86490723877946
        ]
      }
    },
    {
      "type": "Feature",
      "properties": {
        "municipality": "Arraias",
        "state": "TO",
        "crop": "Cana-de-açúcar",
        "hectares": 40.0,
        "production": 40.0,
        "year": 2023,
        "region": "Norte",
        "ibge_code": "1702406"
      },
      "geometry": {
        "type": "Point",
        "coordinates": [
          -48.35167982207067,
          -9.819325732708682
        ]
      }
    },
    {
      "type": "Feature",
      "properties": {
        "municipality": "Augustinópolis",
        "state": "TO",
        "crop": "Cana-de-açúcar",
        "hectares": 1.0,
        "production": 1.0,
        "year": 2023,
        "region": "Norte",
        "ibge_code": "1702554"
      },
      "geometry": {
        "type": "Point",
        "coordinates": [
          -48.13562013921844,
          -10.682336080661283
        ]
      }
    },
    {
      "type": "Feature",
      "properties": {
        "municipality": "Aurora do Tocantins",
        "state": "TO",
        "crop": "Cana-de-açúcar",
        "hectares": 40.0,
        "production": 40.0,
        "year": 2023,
        "region": "Norte",
        "ibge_code": "1702703"
      },
      "geometry": {
        "type": "Point",
        "coordinates": [
          -49.25592166030959,
          -10.258791320341517
        ]
      }
    },
    {
      "type": "Feature",
      "properties": {
        "municipality": "Babaçulândia",
        "state": "TO",
        "crop": "Cana-de-açúcar",
        "hectares": 48.0,
        "production": 48.0,
        "year": 2023,
        "region": "Norte",
        "ibge_code": "1703008"
      },
      "geometry": {
        "type": "Point",
        "coordinates": [
          -48.87049680335442,
          -11.13970504333206
        ]
      }
    },
    {
      "type": "Feature",
      "properties": {
        "municipality": "Bernardo Sayão",
        "state": "TO",
        "crop": "Cana-de-açúcar",
        "hectares": 10.0,
        "production": 10.0,
        "year": 2023,
        "region": "Norte",
        "ibge_code": "1703206"
      },
      "geometry": {
        "type": "Point",
        "coordinates": [
          -48.026139385245386,
          -10.368296491448373
        ]
      }
    },
    {
      "type": "Feature",
      "properties": {
        "municipality": "Campos Lindos",
        "state": "TO",
        "crop": "Cana-de-açúcar",
        "hectares": 10.0,
        "production": 10.0,
        "year": 2023,
        "region": "Norte",
        "ibge_code": "1703842"
      },
      "geometry": {
        "type": "Point",
        "coordinates": [
          -47.54246419252198,
          -10.258086581225877
        ]
      }
    },
    {
      "type": "Feature",
      "properties": {
        "municipality": "Chapada da Natividade",
        "state": "TO",
        "crop": "Cana-de-açúcar",
        "hectares": 16.0,
        "production": 16.0,
        "year": 2023,
        "region": "Norte",
        "ibge_code": "1705102"
      },
      "geometry": {
        "type": "Point",
        "coordinates": [
          -48.433680964690446,
          -10.197599091363724
        ]
      }
    },
    {
      "type": "Feature",
      "properties": {
        "municipality": "Combinado",
        "state": "TO",
        "crop": "Cana-de-açúcar",
        "hectares": 40.0,
        "production": 40.0,
        "year": 2023,
        "region": "Norte",
        "ibge_code": "1705557"
      },
      "geometry": {
        "type": "Point",
        "coordinates": [
          -48.482797065294974,
          -9.963782244065547
        ]
      }
    },
    {
      "type": "Feature",
      "properties": {
        "municipality": "Conceição do Tocantins",
        "state": "TO",
        "crop": "Cana-de-açúcar",
        "hectares": 16.0,
        "production": 16.0,
        "year": 2023,
        "region": "Norte",
        "ibge_code": "1705607"
      },
      "geometry": {
        "type": "Point",
        "coordinates": [
          -47.451357749866474,
          -9.367521647571966
        ]
      }
    },
    {
      "type": "Feature",
      "properties": {
        "municipality": "Couto Magalhães",
        "state": "TO",
        "crop": "Cana-de-açúcar",
        "hectares": 8.0,
        "production": 8.0,
        "year": 2023,
        "region": "Norte",
        "ibge_code": "1706001"
      },
      "geometry": {
        "type": "Point",
        "coordinates": [
          -48.66022335355044,
          -10.955791145145502
        ]
      }
    },
    {
      "type": "Feature",
      "properties": {
        "municipality": "Dianópolis",
        "state": "TO",
        "crop": "Cana-de-açúcar",
        "hectares": 40.0,
        "production": 40.0,
        "year": 2023,
        "region": "Norte",
        "ibge_code": "1707009"
      },
      "geometry": {
        "type": "Point",
        "coordinates": [
          -48.53669555763056,
          -9.18391060313952
        ]
      }
    },
    {
      "type": "Feature",
      "properties": {
        "municipality": "Divinópolis do Tocantins",
        "state": "TO",
        "crop": "Cana-de-açúcar",
        "hectares": 30.0,
        "production": 30.0,
        "year": 2023,
        "region": "Norte",
        "ibge_code": "1707108"
      },
      "geometry": {
        "type": "Point",
        "coordinates": [
          -48.953451384265605,
          -11.008258957692828
        ]
      }
    },
    {
      "type": "Feature",
      "properties": {
        "municipality": "Dueré",
        "state": "TO",
        "crop": "Cana-de-açúcar",
        "hectares": 35.0,
        "production": 35.0,
        "year": 2023,
        "region": "Norte",
        "ibge_code": "1707306"
      },
      "geometry": {
        "type": "Point",
        "coordinates": [
          -48.122987096286046,
          -9.646623405398582
        ]
      }
    },
    {
      "type": "Feature",
      "properties": {
        "municipality": "Formoso do Araguaia",
        "state": "TO",
        "crop": "Cana-de-açúcar",
        "hectares": 30.0,
        "production": 30.0,
        "year": 2023,
        "region": "Norte",
        "ibge_code": "1708205"
      },
      "geometry": {
        "type": "Point",
        "coordinates": [
          -47.380374365022014,
          -10.189658816009631
        ]
      }
    },
    {
      "type": "Feature",
      "properties": {
        "municipality": "Gurupi",
        "state": "TO",
        "crop": "Cana-de-açúcar",
        "hectares": 40.0,
        "production": 40.0,
        "year": 2023,
        "region": "Norte",
        "ibge_code": "1709500"
      },
      "geometry": {
        "type": "Point",
        "coordinates": [
          -48.44282860193161,
          -10.179927181569804
        ]
      }
    },
    {
      "type": "Feature",
      "properties": {
        "municipality": "Ipueiras",
        "state": "TO",
        "crop": "Cana-de-açúcar",
        "hectares": 13.0,
        "production": 13.0,
        "year": 2023,
        "region": "Norte",
        "ibge_code": "1709807"
      },
      "geometry": {
        "type": "Point",
        "coordinates": [
          -47.55368223830621,
          -10.07628837618645
        ]
      }
    },
    {
      "type": "Feature",
      "properties": {
        "municipality": "Juarina",
        "state": "TO",
        "crop": "Cana-de-açúcar",
        "hectares": 9.0,
        "production": 9.0,
        "year": 2023,
        "region": "Norte",
        "ibge_code": "1711803"
      },
      "geometry": {
        "type": "Point",
        "coordinates": [
          -48.601154989274434,
          -10.330521822155589
        ]
      }
    },
    {
      "type": "Feature",
      "properties": {
        "municipality": "Lagoa do Tocantins",
        "state": "TO",
        "crop": "Cana-de-açúcar",
        "hectares": 1.0,
        "production": 1.0,
        "year": 2023,
        "region": "Norte",
        "ibge_code": "1711951"
      },
      "geometry": {
        "type": "Point",
        "coordinates": [
          -47.82339924652652,
          -10.045420818123748
        ]
      }
    },
    {
      "type": "Feature",
      "properties": {
        "municipality": "Lavandeira",
        "state": "TO",
        "crop": "Cana-de-açúcar",
        "hectares": 16.0,
        "production": 16.0,
        "year": 2023,
        "region": "Norte",
        "ibge_code": "1712157"
      },
      "geometry": {
        "type": "Point",
        "coordinates": [
          -48.16505701622342,
          -10.810118053621538
        ]
      }
    },
    {
      "type": "Feature",
      "properties": {
        "municipality": "Marianópolis do Tocantins",
        "state": "TO",
        "crop": "Cana-de-açúcar",
        "hectares": 10.0,
        "production": 10.0,
        "year": 2023,
        "region": "Norte",
        "ibge_code": "1712504"
      },
      "geometry": {
        "type": "Point",
        "coordinates": [
          -47.4025450258813,
          -9.2632314562215
        ]
      }
    },
    {
      "type": "Feature",
      "properties": {
        "municipality": "Mateiros",
        "state": "TO",
        "crop": "Cana-de-açúcar",
        "hectares": 1.0,
        "production": 1.0,
        "year": 2023,
        "region": "Norte",
        "ibge_code": "1712702"
      },
      "geometry": {
        "type": "Point",
        "coordinates": [
          -47.5179228935949,
          -9.941017046660095
        ]
      }
    },
    {
      "type": "Feature",
      "properties": {
        "municipality": "Monte do Carmo",
        "state": "TO",
        "crop": "Cana-de-açúcar",
        "hectares": 15.0,
        "production": 15.0,
        "year": 2023,
        "region": "Norte",
        "ibge_code": "1713601"
      },
      "geometry": {
        "type": "Point",
        "coordinates": [
          -48.933810263237014,
          -9.752459881488756
        ]
      }
    },
    {
      "type": "Feature",
      "properties": {
        "municipality": "Monte Santo do Tocantins",
        "state": "TO",
        "crop": "Cana-de-açúcar",
        "hectares": 25.0,
        "production": 25.0,
        "year": 2023,
        "region": "Norte",
        "ibge_code": "1713700"
      },
      "geometry": {
        "type": "Point",
        "coordinates": [
          -49.039455401020646,
          -9.796592082218995
        ]
      }
    },
    {
      "type": "Feature",
      "properties": {
        "municipality": "Natividade",
        "state": "TO",
        "crop": "Cana-de-açúcar",
        "hectares": 13.0,
        "production": 13.0,
        "year": 2023,
        "region": "Norte",
        "ibge_code": "1714203"
      },
      "geometry": {
        "type": "Point",
        "coordinates": [
          -47.90734740478145,
          -9.336063401456396
        ]
      }
    },
    {
      "type": "Feature",
      "properties": {
        "municipality": "Nova Rosalândia",
        "state": "TO",
        "crop": "Cana-de-açúcar",
        "hectares": 5.0,
        "production": 5.0,
        "year": 2023,
        "region": "Norte",
        "ibge_code": "1715002"
      },
      "geometry": {
        "type": "Point",
        "coordinates": [
          -49.06377858646141,
          -9.70020081975363
        ]
      }
    },
    {
      "type": "Feature",
      "properties": {
        "municipality": "Novo Acordo",
        "state": "TO",
        "crop": "Cana-de-açúcar",
        "hectares": 6.0,
        "production": 6.0,
        "year": 2023,
        "region": "Norte",
        "ibge_code": "1715101"
      },
      "geometry": {
        "type": "Point",
        "coordinates": [
          -48.608780283887846,
          -9.979908429127343
        ]
      }
    },
    {
      "type": "Feature",
      "properties": {
        "municipality": "Novo Alegre",
        "state": "TO",
        "crop": "Cana-de-açúcar",
        "hectares": 14.0,
        "production": 14.0,
        "year": 2023,
        "region": "Norte",
        "ibge_code": "1715150"
      },
      "geometry": {
        "type": "Point",
        "coordinates": [
          -48.46031346699854,
          -10.89375814787833
        ]
      }
    },
    {
      "type": "Feature",
      "properties": {
        "municipality": "Novo Jardim",
        "state": "TO",
        "crop": "Cana-de-açúcar",
        "hectares": 30.0,
        "production": 30.0,
        "year": 2023,
        "region": "Norte",
        "ibge_code": "1715259"
      },
      "geometry": {
        "type": "Point",
        "coordinates": [
          -49.047093776916604,
          -10.624381072346223
        ]
      }
    },
    {
      "type": "Feature",
      "properties": {
        "municipality": "Paraíso do Tocantins",
        "state": "TO",
        "crop": "Cana-de-açúcar",
        "hectares": 10.0,
        "production": 10.0,
        "year": 2023,
        "region": "Norte",
        "ibge_code": "1716109"
      },
      "geometry": {
        "type": "Point",
        "coordinates": [
          -48.759232614076296,
          -10.457836775664825
        ]
      }
    },
    {
      "type": "Feature",
      "properties": {
        "municipality": "Paranã",
        "state": "TO",
        "crop": "Cana-de-açúcar",
        "hectares": 25.0,
        "production": 25.0,
        "year": 2023,
        "region": "Norte",
        "ibge_code": "1716208"
      },
      "geometry": {
        "type": "Point",
        "coordinates": [
          -48.01679896546854,
          -11.143035235804952
        ]
      }
    },
    {
      "type": "Feature",
      "properties": {
        "municipality": "Pedro Afonso",
        "state": "TO",
        "crop": "Cana-de-açúcar",
        "hectares": 35000.0,
        "production": 35000.0,
        "year": 2023,
        "region": "Norte",
        "ibge_code": "1716505"
      },
      "geometry": {
        "type": "Point",
        "coordinates": [
          -47.42237577313689,
          -9.21115494044534
        ]
      }
    },
    {
      "type": "Feature",
      "properties": {
        "municipality": "Peixe",
        "state": "TO",
        "crop": "Cana-de-açúcar",
        "hectares": 25.0,
        "production": 25.0,
        "year": 2023,
        "region": "Norte",
        "ibge_code": "1716604"
      },
      "geometry": {
        "type": "Point",
        "coordinates": [
          -47.72105585722682,
          -9.282922940070236
        ]
      }
    },
    {
      "type": "Feature",
      "properties": {
        "municipality": "Pequizeiro",
        "state": "TO",
        "crop": "Cana-de-açúcar",
        "hectares": 5.0,
        "production": 5.0,
        "year": 2023,
        "region": "Norte",
        "ibge_code": "1716653"
      },
      "geometry": {
        "type": "Point",
        "coordinates": [
          -48.59074200554793,
          -9.343141229487776
        ]
      }
    },
    {
      "type": "Feature",
      "properties": {
        "municipality": "Colméia",
        "state": "TO",
        "crop": "Cana-de-açúcar",
        "hectares": 40.0,
        "production": 40.0,
        "year": 2023,
        "region": "Norte",
        "ibge_code": "1716703"
      },
      "geometry": {
        "type": "Point",
        "coordinates": [
          -48.999754986033075,
          -10.148983669056834
        ]
      }
    },
    {
      "type": "Feature",
      "properties": {
        "municipality": "Pindorama do Tocantins",
        "state": "TO",
        "crop": "Cana-de-açúcar",
        "hectares": 1.0,
        "production": 1.0,
        "year": 2023,
        "region": "Norte",
        "ibge_code": "1717008"
      },
      "geometry": {
        "type": "Point",
        "coordinates": [
          -49.04086476217821,
          -11.09449100891515
        ]
      }
    },
    {
      "type": "Feature",
      "properties": {
        "municipality": "Piraquê",
        "state": "TO",
        "crop": "Cana-de-açúcar",
        "hectares": 13.0,
        "production": 13.0,
        "year": 2023,
        "region": "Norte",
        "ibge_code": "1717206"
      },
      "geometry": {
        "type": "Point",
        "coordinates": [
          -48.88885268001897,
          -10.045310454260933
        ]
      }
    },
    {
      "type": "Feature",
      "properties": {
        "municipality": "Pium",
        "state": "TO",
        "crop": "Cana-de-açúcar",
        "hectares": 50.0,
        "production": 50.0,
        "year": 2023,
        "region": "Norte",
        "ibge_code": "1717503"
      },
      "geometry": {
        "type": "Point",
        "coordinates": [
          -48.3591334149383,
          -10.47480366021028
        ]
      }
    },
    {
      "type": "Feature",
      "properties": {
        "municipality": "Ponte Alta do Bom Jesus",
        "state": "TO",
        "crop": "Cana-de-açúcar",
        "hectares": 45.0,
        "production": 45.0,
        "year": 2023,
        "region": "Norte",
        "ibge_code": "1717800"
      },
      "geometry": {
        "type": "Point",
        "coordinates": [
          -48.160058810112545,
          -10.845708821837322
        ]
      }
    },
    {
      "type": "Feature",
      "properties": {
        "municipality": "Porto Alegre do Tocantins",
        "state": "TO",
        "crop": "Cana-de-açúcar",
        "hectares": 8.0,
        "production": 8.0,
        "year": 2023,
        "region": "Norte",
        "ibge_code": "1718006"
      },
      "geometry": {
        "type": "Point",
        "coordinates": [
          -49.23782489693842,
          -10.140658200986552
        ]
      }
    },
    {
      "type": "Feature",
      "properties": {
        "municipality": "Porto Nacional",
        "state": "TO",
        "crop": "Cana-de-açúcar",
        "hectares": 50.0,
        "production": 50.0,
        "year": 2023,
        "region": "Norte",
        "ibge_code": "1718204"
      },
      "geometry": {
        "type": "Point",
        "coordinates": [
          -47.396932870873115,
          -10.9946202914613
        ]
      }
    },
    {
      "type": "Feature",
      "properties": {
        "municipality": "Pugmil",
        "state": "TO",
        "crop": "Cana-de-açúcar",
        "hectares": 20.0,
        "production": 20.0,
        "year": 2023,
        "region": "Norte",
        "ibge_code": "1718451"
      },
      "geometry": {
        "type": "Point",
        "coordinates": [
          -49.047093776916604,
          -10.624381072346223
        ]
      }
    },
    {
      "type": "Feature",
      "properties": {
        "municipality": "Recursolândia",
        "state": "TO",
        "crop": "Cana-de-açúcar",
        "hectares": 5.0,
        "production": 5.0,
        "year": 2023,
        "region": "Norte",
        "ibge_code": "1718501"
      },
      "geometry": {
        "type": "Point",
        "coordinates": [
          -47.922254783546144,
          -9.931379579917087
        ]
      }
    },
    {
      "type": "Feature",
      "properties": {
        "municipality": "Rio da Conceição",
        "state": "TO",
        "crop": "Cana-de-açúcar",
        "hectares": 10.0,
        "production": 10.0,
        "year": 2023,
        "region": "Norte",
        "ibge_code": "1718659"
      },
      "geometry": {
        "type": "Point",
        "coordinates": [
          -47.46092617816014,
          -10.819425537533519
        ]
      }
    },
    {
      "type": "Feature",
      "properties": {
        "municipality": "Sandolândia",
        "state": "TO",
        "crop": "Cana-de-açúcar",
        "hectares": 15.0,
        "production": 15.0,
        "year": 2023,
        "region": "Norte",
        "ibge_code": "1718840"
      },
      "geometry": {
        "type": "Point",
        "coordinates": [
          -47.8024585745632,
          -10.168664598433935
        ]
      }
    },
    {
      "type": "Feature",
      "properties": {
        "municipality": "Santa Rosa do Tocantins",
        "state": "TO",
        "crop": "Cana-de-açúcar",
        "hectares": 3.0,
        "production": 3.0,
        "year": 2023,
        "region": "Norte",
        "ibge_code": "1718907"
      },
      "geometry": {
        "type": "Point",
        "coordinates": [
          -48.24056843632649,
          -10.109790489110813
        ]
      }
    },
    {
      "type": "Feature",
      "properties": {
        "municipality": "Santa Tereza do Tocantins",
        "state": "TO",
        "crop": "Cana-de-açúcar",
        "hectares": 3.0,
        "production": 3.0,
        "year": 2023,
        "region": "Norte",
        "ibge_code": "1719004"
      },
      "geometry": {
        "type": "Point",
        "coordinates": [
          -48.65596633216113,
          -9.503901036490362
        ]
      }
    },
    {
      "type": "Feature",
      "properties": {
        "municipality": "São Félix do Tocantins",
        "state": "TO",
        "crop": "Cana-de-açúcar",
        "hectares": 10.0,
        "production": 10.0,
        "year": 2023,
        "region": "Norte",
        "ibge_code": "1720150"
      },
      "geometry": {
        "type": "Point",
        "coordinates": [
          -49.02297845802536,
          -10.631400677520706
        ]
      }
    },
    {
      "type": "Feature",
      "properties": {
        "municipality": "São Valério",
        "state": "TO",
        "crop": "Cana-de-açúcar",
        "hectares": 27.0,
        "production": 27.0,
        "year": 2023,
        "region": "Norte",
        "ibge_code": "1720499"
      },
      "geometry": {
        "type": "Point",
        "coordinates": [
          -47.66693127393497,
          -10.91425954019866
        ]
      }
    },
    {
      "type": "Feature",
      "properties": {
        "municipality": "Silvanópolis",
        "state": "TO",
        "crop": "Cana-de-açúcar",
        "hectares": 5.0,
        "production": 5.0,
        "year": 2023,
        "region": "Norte",
        "ibge_code": "1720655"
      },
      "geometry": {
        "type": "Point",
        "coordinates": [
          -49.12488091848784,
          -10.747538114508584
        ]
      }
    },
    {
      "type": "Feature",
      "properties": {
        "municipality": "Taguatinga",
        "state": "TO",
        "crop": "Cana-de-açúcar",
        "hectares": 28.0,
        "production": 28.0,
        "year": 2023,
        "region": "Norte",
        "ibge_code": "1720903"
      },
      "geometry": {
        "type": "Point",
        "coordinates": [
          -48.25237047269042,
          -9.458741428066382
        ]
      }
    },
    {
      "type": "Feature",
      "properties": {
        "municipality": "Taipas do Tocantins",
        "state": "TO",
        "crop": "Cana-de-açúcar",
        "hectares": 30.0,
        "production": 30.0,
        "year": 2023,
        "region": "Norte",
        "ibge_code": "1720937"
      },
      "geometry": {
        "type": "Point",
        "coordinates": [
          -49.25503393059363,
          -10.202688186918811
        ]
      }
    },
    {
      "type": "Feature",
      "properties": {
        "municipality": "Palmas",
        "state": "TO",
        "crop": "Cana-de-açúcar",
        "hectares": 19.0,
        "production": 19.0,
        "year": 2023,
        "region": "Norte",
        "ibge_code": "1721000"
      },
      "geometry": {
        "type": "Point",
        "coordinates": [
          -47.360592477088275,
          -11.111985051915306
        ]
      }
    },
    {
      "type": "Feature",
      "properties": {
        "municipality": "Tocantinópolis",
        "state": "TO",
        "crop": "Cana-de-açúcar",
        "hectares": 7.0,
        "production": 7.0,
        "year": 2023,
        "region": "Norte",
        "ibge_code": "1721208"
      },
      "geometry": {
        "type": "Point",
        "coordinates": [
          -48.180170767753864,
          -10.359825400124551
        ]
      }
    },
    {
      "type": "Feature",
      "properties": {
        "municipality": "Tupirama",
        "state": "TO",
        "crop": "Cana-de-açúcar",
        "hectares": 581.0,
        "production": 581.0,
        "year": 2023,
        "region": "Norte",
        "ibge_code": "1721257"
      },
      "geometry": {
        "type": "Point",
        "coordinates": [
          -49.16446312361242,
          -10.788637046939758
        ]
      }
    },
    {
      "type": "Feature",
      "properties": {
        "municipality": "Afonso Cunha",
        "state": "MA",
        "crop": "Cana-de-açúcar",
        "hectares": 5.0,
        "production": 5.0,
        "year": 2023,
        "region": "Nordeste",
        "ibge_code": "2100105"
      },
      "geometry": {
        "type": "Point",
        "coordinates": [
          -45.175419184435526,
          -5.881774047219933
        ]
      }
    },
    {
      "type": "Feature",
      "properties": {
        "municipality": "Aldeias Altas",
        "state": "MA",
        "crop": "Cana-de-açúcar",
        "hectares": 7200.0,
        "production": 7200.0,
        "year": 2023,
        "region": "Nordeste",
        "ibge_code": "2100303"
      },
      "geometry": {
        "type": "Point",
        "coordinates": [
          -44.577155901251714,
          -5.181816390524874
        ]
      }
    },
    {
      "type": "Feature",
      "properties": {
        "municipality": "Amarante do Maranhão",
        "state": "MA",
        "crop": "Cana-de-açúcar",
        "hectares": 6.0,
        "production": 6.0,
        "year": 2023,
        "region": "Nordeste",
        "ibge_code": "2100600"
      },
      "geometry": {
        "type": "Point",
        "coordinates": [
          -46.038444911454214,
          -5.400148140915154
        ]
      }
    },
    {
      "type": "Feature",
      "properties": {
        "municipality": "Anapurus",
        "state": "MA",
        "crop": "Cana-de-açúcar",
        "hectares": 55.0,
        "production": 55.0,
        "year": 2023,
        "region": "Nordeste",
        "ibge_code": "2100808"
      },
      "geometry": {
        "type": "Point",
        "coordinates": [
          -45.580354652464266,
          -4.592738480446275
        ]
      }
    },
    {
      "type": "Feature",
      "properties": {
        "municipality": "Bacabeira",
        "state": "MA",
        "crop": "Cana-de-açúcar",
        "hectares": 5.0,
        "production": 5.0,
        "year": 2023,
        "region": "Nordeste",
        "ibge_code": "2101251"
      },
      "geometry": {
        "type": "Point",
        "coordinates": [
          -44.67892167262956,
          -4.0576654955428
        ]
      }
    },
    {
      "type": "Feature",
      "properties": {
        "municipality": "Balsas",
        "state": "MA",
        "crop": "Cana-de-açúcar",
        "hectares": 15.0,
        "production": 15.0,
        "year": 2023,
        "region": "Nordeste",
        "ibge_code": "2101400"
      },
      "geometry": {
        "type": "Point",
        "coordinates": [
          -44.90887433521904,
          -4.156667585492958
        ]
      }
    },
    {
      "type": "Feature",
      "properties": {
        "municipality": "Barão de Grajaú",
        "state": "MA",
        "crop": "Cana-de-açúcar",
        "hectares": 27.0,
        "production": 27.0,
        "year": 2023,
        "region": "Nordeste",
        "ibge_code": "2101509"
      },
      "geometry": {
        "type": "Point",
        "coordinates": [
          -45.69342846463622,
          -4.210317055708435
        ]
      }
    },
    {
      "type": "Feature",
      "properties": {
        "municipality": "Barra do Corda",
        "state": "MA",
        "crop": "Cana-de-açúcar",
        "hectares": 15.0,
        "production": 15.0,
        "year": 2023,
        "region": "Nordeste",
        "ibge_code": "2101608"
      },
      "geometry": {
        "type": "Point",
        "coordinates": [
          -45.294605348977086,
          -5.6714588947326625
        ]
      }
    },
    {
      "type": "Feature",
      "properties": {
        "municipality": "Belágua",
        "state": "MA",
        "crop": "Cana-de-açúcar",
        "hectares": 2.0,
        "production": 2.0,
        "year": 2023,
        "region": "Nordeste",
        "ibge_code": "2101731"
      },
      "geometry": {
        "type": "Point",
        "coordinates": [
          -44.69630533500761,
          -4.770633579821165
        ]
      }
    },
    {
      "type": "Feature",
      "properties": {
        "municipality": "Brejo",
        "state": "MA",
        "crop": "Cana-de-açúcar",
        "hectares": 40.0,
        "production": 40.0,
        "year": 2023,
        "region": "Nordeste",
        "ibge_code": "2102101"
      },
      "geometry": {
        "type": "Point",
        "coordinates": [
          -44.50434570129768,
          -5.698258798620354
        ]
      }
    },
    {
      "type": "Feature",
      "properties": {
        "municipality": "Buriti",
        "state": "MA",
        "crop": "Cana-de-açúcar",
        "hectares": 7.0,
        "production": 7.0,
        "year": 2023,
        "region": "Nordeste",
        "ibge_code": "2102200"
      },
      "geometry": {
        "type": "Point",
        "coordinates": [
          -46.24195859320785,
          -4.407043602998687
        ]
      }
    },
    {
      "type": "Feature",
      "properties": {
        "municipality": "Buriti Bravo",
        "state": "MA",
        "crop": "Cana-de-açúcar",
        "hectares": 42.0,
        "production": 42.0,
        "year": 2023,
        "region": "Nordeste",
        "ibge_code": "2102309"
      },
      "geometry": {
        "type": "Point",
        "coordinates": [
          -46.23174237432208,
          -4.171544541296376
        ]
      }
    },
    {
      "type": "Feature",
      "properties": {
        "municipality": "Campestre do Maranhão",
        "state": "MA",
        "crop": "Cana-de-açúcar",
        "hectares": 5836.0,
        "production": 5836.0,
        "year": 2023,
        "region": "Nordeste",
        "ibge_code": "2102556"
      },
      "geometry": {
        "type": "Point",
        "coordinates": [
          -45.502074563253714,
          -5.95277466156481
        ]
      }
    },
    {
      "type": "Feature",
      "properties": {
        "municipality": "Capinzal do Norte",
        "state": "MA",
        "crop": "Cana-de-açúcar",
        "hectares": 22.0,
        "production": 22.0,
        "year": 2023,
        "region": "Nordeste",
        "ibge_code": "2102754"
      },
      "geometry": {
        "type": "Point",
        "coordinates": [
          -45.2613825525104,
          -4.863522649407481
        ]
      }
    },
    {
      "type": "Feature",
      "properties": {
        "municipality": "Caxias",
        "state": "MA",
        "crop": "Cana-de-açúcar",
        "hectares": 3630.0,
        "production": 3630.0,
        "year": 2023,
        "region": "Nordeste",
        "ibge_code": "2103000"
      },
      "geometry": {
        "type": "Point",
        "coordinates": [
          -45.96811384552595,
          -5.484575625354871
        ]
      }
    },
    {
      "type": "Feature",
      "properties": {
        "municipality": "Codó",
        "state": "MA",
        "crop": "Cana-de-açúcar",
        "hectares": 1160.0,
        "production": 1160.0,
        "year": 2023,
        "region": "Nordeste",
        "ibge_code": "2103307"
      },
      "geometry": {
        "type": "Point",
        "coordinates": [
          -44.87881813390071,
          -5.0901661378139424
        ]
      }
    },
    {
      "type": "Feature",
      "properties": {
        "municipality": "Coelho Neto",
        "state": "MA",
        "crop": "Cana-de-açúcar",
        "hectares": 2682.0,
        "production": 2682.0,
        "year": 2023,
        "region": "Nordeste",
        "ibge_code": "2103406"
      },
      "geometry": {
        "type": "Point",
        "coordinates": [
          -44.441173147583946,
          -5.527704046303343
        ]
      }
    },
    {
      "type": "Feature",
      "properties": {
        "municipality": "Colinas",
        "state": "MA",
        "crop": "Cana-de-açúcar",
        "hectares": 5.0,
        "production": 5.0,
        "year": 2023,
        "region": "Nordeste",
        "ibge_code": "2103505"
      },
      "geometry": {
        "type": "Point",
        "coordinates": [
          -44.31194922987324,
          -5.726471777410733
        ]
      }
    },
    {
      "type": "Feature",
      "properties": {
        "municipality": "Coroatá",
        "state": "MA",
        "crop": "Cana-de-açúcar",
        "hectares": 5.0,
        "production": 5.0,
        "year": 2023,
        "region": "Nordeste",
        "ibge_code": "2103604"
      },
      "geometry": {
        "type": "Point",
        "coordinates": [
          -45.71187653150118,
          -4.091035001876694
        ]
      }
    },
    {
      "type": "Feature",
      "properties": {
        "municipality": "Dom Pedro",
        "state": "MA",
        "crop": "Cana-de-açúcar",
        "hectares": 6.0,
        "production": 6.0,
        "year": 2023,
        "region": "Nordeste",
        "ibge_code": "2103802"
      },
      "geometry": {
        "type": "Point",
        "coordinates": [
          -44.37718844401365,
          -4.11116949674811
        ]
      }
    },
    {
      "type": "Feature",
      "properties": {
        "municipality": "Duque Bacelar",
        "state": "MA",
        "crop": "Cana-de-açúcar",
        "hectares": 52.0,
        "production": 52.0,
        "year": 2023,
        "region": "Nordeste",
        "ibge_code": "2103901"
      },
      "geometry": {
        "type": "Point",
        "coordinates": [
          -44.49650558145818,
          -4.985341042280082
        ]
      }
    },
    {
      "type": "Feature",
      "properties": {
        "municipality": "Feira Nova do Maranhão",
        "state": "MA",
        "crop": "Cana-de-açúcar",
        "hectares": 19.0,
        "production": 19.0,
        "year": 2023,
        "region": "Nordeste",
        "ibge_code": "2104073"
      },
      "geometry": {
        "type": "Point",
        "coordinates": [
          -45.84718877221266,
          -3.964476991652253
        ]
      }
    },
    {
      "type": "Feature",
      "properties": {
        "municipality": "Formosa da Serra Negra",
        "state": "MA",
        "crop": "Cana-de-açúcar",
        "hectares": 5.0,
        "production": 5.0,
        "year": 2023,
        "region": "Nordeste",
        "ibge_code": "2104099"
      },
      "geometry": {
        "type": "Point",
        "coordinates": [
          -44.913263489902,
          -5.191490835108179
        ]
      }
    },
    {
      "type": "Feature",
      "properties": {
        "municipality": "Gonçalves Dias",
        "state": "MA",
        "crop": "Cana-de-açúcar",
        "hectares": 16.0,
        "production": 16.0,
        "year": 2023,
        "region": "Nordeste",
        "ibge_code": "2104404"
      },
      "geometry": {
        "type": "Point",
        "coordinates": [
          -44.441173147583946,
          -5.527704046303343
        ]
      }
    },
    {
      "type": "Feature",
      "properties": {
        "municipality": "Governador Archer",
        "state": "MA",
        "crop": "Cana-de-açúcar",
        "hectares": 4.0,
        "production": 4.0,
        "year": 2023,
        "region": "Nordeste",
        "ibge_code": "2104503"
      },
      "geometry": {
        "type": "Point",
        "coordinates": [
          -44.790826021478544,
          -4.715096610220596
        ]
      }
    },
    {
      "type": "Feature",
      "properties": {
        "municipality": "Grajaú",
        "state": "MA",
        "crop": "Cana-de-açúcar",
        "hectares": 10.0,
        "production": 10.0,
        "year": 2023,
        "region": "Nordeste",
        "ibge_code": "2104800"
      },
      "geometry": {
        "type": "Point",
        "coordinates": [
          -45.17373386194669,
          -4.924479860267583
        ]
      }
    },
    {
      "type": "Feature",
      "properties": {
        "municipality": "Guimarães",
        "state": "MA",
        "crop": "Cana-de-açúcar",
        "hectares": 40.0,
        "production": 40.0,
        "year": 2023,
        "region": "Nordeste",
        "ibge_code": "2104909"
      },
      "geometry": {
        "type": "Point",
        "coordinates": [
          -44.85140902800316,
          -5.890444312410933
        ]
      }
    },
    {
      "type": "Feature",
      "properties": {
        "municipality": "Itaipava do Grajaú",
        "state": "MA",
        "crop": "Cana-de-açúcar",
        "hectares": 35.0,
        "production": 35.0,
        "year": 2023,
        "region": "Nordeste",
        "ibge_code": "2105351"
      },
      "geometry": {
        "type": "Point",
        "coordinates": [
          -46.1642802230123,
          -4.12548792657553
        ]
      }
    },
    {
      "type": "Feature",
      "properties": {
        "municipality": "Jenipapo dos Vieiras",
        "state": "MA",
        "crop": "Cana-de-açúcar",
        "hectares": 4.0,
        "production": 4.0,
        "year": 2023,
        "region": "Nordeste",
        "ibge_code": "2105476"
      },
      "geometry": {
        "type": "Point",
        "coordinates": [
          -44.758491194119394,
          -4.272056296949904
        ]
      }
    },
    {
      "type": "Feature",
      "properties": {
        "municipality": "Lagoa do Mato",
        "state": "MA",
        "crop": "Cana-de-açúcar",
        "hectares": 7.0,
        "production": 7.0,
        "year": 2023,
        "region": "Nordeste",
        "ibge_code": "2105922"
      },
      "geometry": {
        "type": "Point",
        "coordinates": [
          -44.597924273672696,
          -4.234886249285097
        ]
      }
    },
    {
      "type": "Feature",
      "properties": {
        "municipality": "Lago dos Rodrigues",
        "state": "MA",
        "crop": "Cana-de-açúcar",
        "hectares": 5.0,
        "production": 5.0,
        "year": 2023,
        "region": "Nordeste",
        "ibge_code": "2105948"
      },
      "geometry": {
        "type": "Point",
        "coordinates": [
          -45.37418742976618,
          -5.574027330215233
        ]
      }
    },
    {
      "type": "Feature",
      "properties": {
        "municipality": "Loreto",
        "state": "MA",
        "crop": "Cana-de-açúcar",
        "hectares": 15.0,
        "production": 15.0,
        "year": 2023,
        "region": "Nordeste",
        "ibge_code": "2106102"
      },
      "geometry": {
        "type": "Point",
        "coordinates": [
          -44.94600094548463,
          -4.79402745918458
        ]
      }
    },
    {
      "type": "Feature",
      "properties": {
        "municipality": "Mata Roma",
        "state": "MA",
        "crop": "Cana-de-açúcar",
        "hectares": 25.0,
        "production": 25.0,
        "year": 2023,
        "region": "Nordeste",
        "ibge_code": "2106409"
      },
      "geometry": {
        "type": "Point",
        "coordinates": [
          -44.609716810031884,
          -3.969350067944508
        ]
      }
    },
    {
      "type": "Feature",
      "properties": {
        "municipality": "Matões",
        "state": "MA",
        "crop": "Cana-de-açúcar",
        "hectares": 5.0,
        "production": 5.0,
        "year": 2023,
        "region": "Nordeste",
        "ibge_code": "2106607"
      },
      "geometry": {
        "type": "Point",
        "coordinates": [
          -45.31095289806142,
          -4.838604747892221
        ]
      }
    },