{
  "type": "FeatureCollection",
  "name": "Castanha de caju_production",
  "features": [
    {
      "type": "Feature",
      "properties": {
        "municipality": "Almeirim",
        "state": "PA",
        "crop": "Castanha de caju",
        "hectares": 25.0,
        "production": 25.0,
        "year": 2023,
        "region": "Norte",
        "ibge_code": "1500503"
      },
      "geometry": {
        "type": "Point",
        "coordinates": [
          -52.06633462735893,
          -4.2875946606979305
        ]
      }
    },
    {
      "type": "Feature",
      "properties": {
        "municipality": "Aurora do Pará",
        "state": "PA",
        "crop": "Castanha de caju",
        "hectares": 40.0,
        "production": 40.0,
        "year": 2023,
        "region": "Norte",
        "ibge_code": "1500958"
      },
      "geometry": {
        "type": "Point",
        "coordinates": [
          -52.25348963934446,
          -3.0692849371208215
        ]
      }
    },
    {
      "type": "Feature",
      "properties": {
        "municipality": "Goianésia do Pará",
        "state": "PA",
        "crop": "Castanha de caju",
        "hectares": 50.0,
        "production": 50.0,
        "year": 2023,
        "region": "Norte",
        "ibge_code": "1503093"
      },
      "geometry": {
        "type": "Point",
        "coordinates": [
          -53.14312002838497,
          -2.73609406615929
        ]
      }
    },
    {
      "type": "Feature",
      "properties": {
        "municipality": "Ipixuna do Pará",
        "state": "PA",
        "crop": "Castanha de caju",
        "hectares": 280.0,
        "production": 280.0,
        "year": 2023,
        "region": "Norte",
        "ibge_code": "1503457"
      },
      "geometry": {
        "type": "Point",
        "coordinates": [
          -52.28517187883402,
          -4.552309538961778
        ]
      }
    },
    {
      "type": "Feature",
      "properties": {
        "municipality": "Mãe do Rio",
        "state": "PA",
        "crop": "Castanha de caju",
        "hectares": 40.0,
        "production": 40.0,
        "year": 2023,
        "region": "Norte",
        "ibge_code": "1504059"
      },
      "geometry": {
        "type": "Point",
        "coordinates": [
          -52.34358362081896,
          -2.8624345201482653
        ]
      }
    },
    {
      "type": "Feature",
      "properties": {
        "municipality": "Maracanã",
        "state": "PA",
        "crop": "Castanha de caju",
        "hectares": 30.0,
        "production": 30.0,
        "year": 2023,
        "region": "Norte",
        "ibge_code": "1504307"
      },
      "geometry": {
        "type": "Point",
        "coordinates": [
          -51.577034352288194,
          -4.290657924063412
        ]
      }
    },
    {
      "type": "Feature",
      "properties": {
        "municipality": "Moju",
        "state": "PA",
        "crop": "Castanha de caju",
        "hectares": 10.0,
        "production": 10.0,
        "year": 2023,
        "region": "Norte",
        "ibge_code": "1504703"
      },
      "geometry": {
        "type": "Point",
        "coordinates": [
          -52.387524573226976,
          -3.9963325059246735
        ]
      }
    },
    {
      "type": "Feature",
      "properties": {
        "municipality": "Paragominas",
        "state": "PA",
        "crop": "Castanha de caju",
        "hectares": 376.0,
        "production": 376.0,
        "year": 2023,
        "region": "Norte",
        "ibge_code": "1505502"
      },
      "geometry": {
        "type": "Point",
        "coordinates": [
          -52.47650420295389,
          -4.493659525833589
        ]
      }
    },
    {
      "type": "Feature",
      "properties": {
        "municipality": "Prainha",
        "state": "PA",
        "crop": "Castanha de caju",
        "hectares": 10.0,
        "production": 10.0,
        "year": 2023,
        "region": "Norte",
        "ibge_code": "1506005"
      },
      "geometry": {
        "type": "Point",
        "coordinates": [
          -52.48439087495176,
          -4.359864713765683
        ]
      }
    },
    {
      "type": "Feature",
      "properties": {
        "municipality": "Tailândia",
        "state": "PA",
        "crop": "Castanha de caju",
        "hectares": 100.0,
        "production": 100.0,
        "year": 2023,
        "region": "Norte",
        "ibge_code": "1507953"
      },
      "geometry": {
        "type": "Point",
        "coordinates": [
          -52.08640200397083,
          -2.9183917480072203
        ]
      }
    },
    {
      "type": "Feature",
      "properties": {
        "municipality": "Ulianópolis",
        "state": "PA",
        "crop": "Castanha de caju",
        "hectares": 95.0,
        "production": 95.0,
        "year": 2023,
        "region": "Norte",
        "ibge_code": "1508126"
      },
      "geometry": {
        "type": "Point",
        "coordinates": [
          -51.64721390084523,
          -4.604591659871788
        ]
      }
    },
    {
      "type": "Feature",
      "properties": {
        "municipality": "Esperantina",
        "state": "TO",
        "crop": "Castanha de caju",
        "hectares": 5.0,
        "production": 5.0,
        "year": 2023,
        "region": "Norte",
        "ibge_code": "1707405"
      },
      "geometry": {
        "type": "Point",
        "coordinates": [
          -49.255632588358765,
          -9.662042241292966
        ]
      }
    },
    {
      "type": "Feature",
      "properties": {
        "municipality": "Sampaio",
        "state": "TO",
        "crop": "Castanha de caju",
        "hectares": 2.0,
        "production": 2.0,
        "year": 2023,
        "region": "Norte",
        "ibge_code": "1718808"
      },
      "geometry": {
        "type": "Point",
        "coordinates": [
          -47.40098844401365,
          -9.325569496748109
        ]
      }
    },
    {
      "type": "Feature",
      "properties": {
        "municipality": "Açailândia",
        "state": "MA",
        "crop": "Castanha de caju",
        "hectares": 7.0,
        "production": 7.0,
        "year": 2023,
        "region": "Nordeste",
        "ibge_code": "2100055"
      },
      "geometry": {
        "type": "Point",
        "coordinates": [
          -45.48886088406008,
          -4.731406210845574
        ]
      }
    },
    {
      "type": "Feature",
      "properties": {
        "municipality": "Afonso Cunha",
        "state": "MA",
        "crop": "Castanha de caju",
        "hectares": 2.0,
        "production": 2.0,
        "year": 2023,
        "region": "Nordeste",
        "ibge_code": "2100105"
      },
      "geometry": {
        "type": "Point",
        "coordinates": [
          -45.175419184435526,
          -5.881774047219933
        ]
      }
    },
    {
      "type": "Feature",
      "properties": {
        "municipality": "Água Doce do Maranhão",
        "state": "MA",
        "crop": "Castanha de caju",
        "hectares": 130.0,
        "production": 130.0,
        "year": 2023,
        "region": "Nordeste",
        "ibge_code": "2100154"
      },
      "geometry": {
        "type": "Point",
        "coordinates": [
          -44.942224885550125,
          -4.9984067318533825
        ]
      }
    },
    {
      "type": "Feature",
      "properties": {
        "municipality": "Alcântara",
        "state": "MA",
        "crop": "Castanha de caju",
        "hectares": 3.0,
        "production": 3.0,
        "year": 2023,
        "region": "Nordeste",
        "ibge_code": "2100204"
      },
      "geometry": {
        "type": "Point",
        "coordinates": [
          -44.57507339753504,
          -4.9727216392554965
        ]
      }
    },
    {
      "type": "Feature",
      "properties": {
        "municipality": "Alto Alegre do Pindaré",
        "state": "MA",
        "crop": "Castanha de caju",
        "hectares": 26.0,
        "production": 26.0,
        "year": 2023,
        "region": "Nordeste",
        "ibge_code": "2100477"
      },
      "geometry": {
        "type": "Point",
        "coordinates": [
          -44.699891796067554,
          -5.1400144705540285
        ]
      }
    },
    {
      "type": "Feature",
      "properties": {
        "municipality": "Amapá do Maranhão",
        "state": "MA",
        "crop": "Castanha de caju",
        "hectares": 8.0,
        "production": 8.0,
        "year": 2023,
        "region": "Nordeste",
        "ibge_code": "2100550"
      },
      "geometry": {
        "type": "Point",
        "coordinates": [
          -45.57537748941397,
          -5.670227676333438
        ]
      }
    },
    {
      "type": "Feature",
      "properties": {
        "municipality": "Anapurus",
        "state": "MA",
        "crop": "Castanha de caju",
        "hectares": 25.0,
        "production": 25.0,
        "year": 2023,
        "region": "Nordeste",
        "ibge_code": "2100808"
      },
      "geometry": {
        "type": "Point",
        "coordinates": [
          -45.580354652464266,
          -4.592738480446275
        ]
      }
    },
    {
      "type": "Feature",
      "properties": {
        "municipality": "Araguanã",
        "state": "MA",
        "crop": "Castanha de caju",
        "hectares": 42.0,
        "production": 42.0,
        "year": 2023,
        "region": "Nordeste",
        "ibge_code": "2100873"
      },
      "geometry": {
        "type": "Point",
        "coordinates": [
          -46.109685527318014,
          -5.83791997292881
        ]
      }
    },
    {
      "type": "Feature",
      "properties": {
        "municipality": "Araioses",
        "state": "MA",
        "crop": "Castanha de caju",
        "hectares": 312.0,
        "production": 312.0,
        "year": 2023,
        "region": "Nordeste",
        "ibge_code": "2100907"
      },
      "geometry": {
        "type": "Point",
        "coordinates": [
          -44.35074678903593,
          -5.927249988255186
        ]
      }
    },
    {
      "type": "Feature",
      "properties": {
        "municipality": "Arame",
        "state": "MA",
        "crop": "Castanha de caju",
        "hectares": 20.0,
        "production": 20.0,
        "year": 2023,
        "region": "Nordeste",
        "ibge_code": "2100956"
      },
      "geometry": {
        "type": "Point",
        "coordinates": [
          -46.12138604431639,
          -4.339754228119113
        ]
      }
    },
    {
      "type": "Feature",
      "properties": {
        "municipality": "Axixá",
        "state": "MA",
        "crop": "Castanha de caju",
        "hectares": 4.0,
        "production": 4.0,
        "year": 2023,
        "region": "Nordeste",
        "ibge_code": "2101103"
      },
      "geometry": {
        "type": "Point",
        "coordinates": [
          -44.98483849782739,
          -4.4331368510732085
        ]
      }
    },
    {
      "type": "Feature",
      "properties": {
        "municipality": "Barão de Grajaú",
        "state": "MA",
        "crop": "Castanha de caju",
        "hectares": 130.0,
        "production": 130.0,
        "year": 2023,
        "region": "Nordeste",
        "ibge_code": "2101509"
      },
      "geometry": {
        "type": "Point",
        "coordinates": [
          -45.69342846463622,
          -4.210317055708435
        ]
      }
    },
    {
      "type": "Feature",
      "properties": {
        "municipality": "Barra do Corda",
        "state": "MA",
        "crop": "Castanha de caju",
        "hectares": 88.0,
        "production": 88.0,
        "year": 2023,
        "region": "Nordeste",
        "ibge_code": "2101608"
      },
      "geometry": {
        "type": "Point",
        "coordinates": [
          -45.294605348977086,
          -5.6714588947326625
        ]
      }
    },
    {
      "type": "Feature",
      "properties": {
        "municipality": "Barreirinhas",
        "state": "MA",
        "crop": "Castanha de caju",
        "hectares": 1500.0,
        "production": 1500.0,
        "year": 2023,
        "region": "Nordeste",
        "ibge_code": "2101707"
      },
      "geometry": {
        "type": "Point",
        "coordinates": [
          -44.62103218310254,
          -5.751841895805431
        ]
      }
    },
    {
      "type": "Feature",
      "properties": {
        "municipality": "Belágua",
        "state": "MA",
        "crop": "Castanha de caju",
        "hectares": 9.0,
        "production": 9.0,
        "year": 2023,
        "region": "Nordeste",
        "ibge_code": "2101731"
      },
      "geometry": {
        "type": "Point",
        "coordinates": [
          -44.69630533500761,
          -4.770633579821165
        ]
      }
    },
    {
      "type": "Feature",
      "properties": {
        "municipality": "Bela Vista do Maranhão",
        "state": "MA",
        "crop": "Castanha de caju",
        "hectares": 19.0,
        "production": 19.0,
        "year": 2023,
        "region": "Nordeste",
        "ibge_code": "2101772"
      },
      "geometry": {
        "type": "Point",
        "coordinates": [
          -45.08981223413501,
          -4.964985366638264
        ]
      }
    },
    {
      "type": "Feature",
      "properties": {
        "municipality": "Boa Vista do Gurupi",
        "state": "MA",
        "crop": "Castanha de caju",
        "hectares": 6.0,
        "production": 6.0,
        "year": 2023,
        "region": "Nordeste",
        "ibge_code": "2101970"
      },
      "geometry": {
        "type": "Point",
        "coordinates": [
          -45.175419184435526,
          -5.881774047219933
        ]
      }
    },
    {
      "type": "Feature",
      "properties": {
        "municipality": "Bom Jardim",
        "state": "MA",
        "crop": "Castanha de caju",
        "hectares": 55.0,
        "production": 55.0,
        "year": 2023,
        "region": "Nordeste",
        "ibge_code": "2102002"
      },
      "geometry": {
        "type": "Point",
        "coordinates": [
          -44.97447402771335,
          -5.232137664628209
        ]
      }
    },
    {
      "type": "Feature",
      "properties": {
        "municipality": "Bom Jesus das Selvas",
        "state": "MA",
        "crop": "Castanha de caju",
        "hectares": 27.0,
        "production": 27.0,
        "year": 2023,
        "region": "Nordeste",
        "ibge_code": "2102036"
      },
      "geometry": {
        "type": "Point",
        "coordinates": [
          -46.09709458556629,
          -4.826136422633442
        ]
      }
    },
    {
      "type": "Feature",
      "properties": {
        "municipality": "Brejo",
        "state": "MA",
        "crop": "Castanha de caju",
        "hectares": 20.0,
        "production": 20.0,
        "year": 2023,
        "region": "Nordeste",
        "ibge_code": "2102101"
      },
      "geometry": {
        "type": "Point",
        "coordinates": [
          -44.50434570129768,
          -5.698258798620354
        ]
      }
    },
    {
      "type": "Feature",
      "properties": {
        "municipality": "Buriti",
        "state": "MA",
        "crop": "Castanha de caju",
        "hectares": 10.0,
        "production": 10.0,
        "year": 2023,
        "region": "Nordeste",
        "ibge_code": "2102200"
      },
      "geometry": {
        "type": "Point",
        "coordinates": [
          -46.24195859320785,
          -4.407043602998687
        ]
      }
    },
    {
      "type": "Feature",
      "properties": {
        "municipality": "Buriti Bravo",
        "state": "MA",
        "crop": "Castanha de caju",
        "hectares": 54.0,
        "production": 54.0,
        "year": 2023,
        "region": "Nordeste",
        "ibge_code": "2102309"
      },
      "geometry": {
        "type": "Point",
        "coordinates": [
          -46.23174237432208,
          -4.171544541296376
        ]
      }
    },
    {
      "type": "Feature",
      "properties": {
        "municipality": "Buriticupu",
        "state": "MA",
        "crop": "Castanha de caju",
        "hectares": 270.0,
        "production": 270.0,
        "year": 2023,
        "region": "Nordeste",
        "ibge_code": "2102325"
      },
      "geometry": {
        "type": "Point",
        "coordinates": [
          -44.576272943556724,
          -5.175203231724526
        ]
      }
    },
    {
      "type": "Feature",
      "properties": {
        "municipality": "Buritirana",
        "state": "MA",
        "crop": "Castanha de caju",
        "hectares": 15.0,
        "production": 15.0,
        "year": 2023,
        "region": "Nordeste",
        "ibge_code": "2102358"
      },
      "geometry": {
        "type": "Point",
        "coordinates": [
          -44.61920543865896,
          -5.723464730770357
        ]
      }
    },
    {
      "type": "Feature",
      "properties": {
        "municipality": "Cândido Mendes",
        "state": "MA",
        "crop": "Castanha de caju",
        "hectares": 10.0,
        "production": 10.0,
        "year": 2023,
        "region": "Nordeste",
        "ibge_code": "2102606"
      },
      "geometry": {
        "type": "Point",
        "coordinates": [
          -45.47072496934533,
          -4.21341751361353
        ]
      }
    },
    {
      "type": "Feature",
      "properties": {
        "municipality": "Caxias",
        "state": "MA",
        "crop": "Castanha de caju",
        "hectares": 10.0,
        "production": 10.0,
        "year": 2023,
        "region": "Nordeste",
        "ibge_code": "2103000"
      },
      "geometry": {
        "type": "Point",
        "coordinates": [
          -45.96811384552595,
          -5.484575625354871
        ]
      }
    },
    {
      "type": "Feature",
      "properties": {
        "municipality": "Centro do Guilherme",
        "state": "MA",
        "crop": "Castanha de caju",
        "hectares": 9.0,
        "production": 9.0,
        "year": 2023,
        "region": "Nordeste",
        "ibge_code": "2103158"
      },
      "geometry": {
        "type": "Point",
        "coordinates": [
          -45.14092535607398,
          -5.679127570193668
        ]
      }
    },
    {
      "type": "Feature",
      "properties": {
        "municipality": "Centro Novo do Maranhão",
        "state": "MA",
        "crop": "Castanha de caju",
        "hectares": 11.0,
        "production": 11.0,
        "year": 2023,
        "region": "Nordeste",
        "ibge_code": "2103174"
      },
      "geometry": {
        "type": "Point",
        "coordinates": [
          -45.43651346699854,
          -5.679358147878329
        ]
      }
    },
    {
      "type": "Feature",
      "properties": {
        "municipality": "Chapadinha",
        "state": "MA",
        "crop": "Castanha de caju",
        "hectares": 33.0,
        "production": 33.0,
        "year": 2023,
        "region": "Nordeste",
        "ibge_code": "2103208"
      },
      "geometry": {
        "type": "Point",
        "coordinates": [
          -45.0107634693573,
          -4.887453947721889
        ]
      }
    },
    {
      "type": "Feature",
      "properties": {
        "municipality": "Codó",
        "state": "MA",
        "crop": "Castanha de caju",
        "hectares": 10.0,
        "production": 10.0,
        "year": 2023,
        "region": "Nordeste",
        "ibge_code": "2103307"
      },
      "geometry": {
        "type": "Point",
        "coordinates": [
          -44.87881813390071,
          -5.0901661378139424
        ]
      }
    },
    {
      "type": "Feature",
      "properties": {
        "municipality": "Coelho Neto",
        "state": "MA",
        "crop": "Castanha de caju",
        "hectares": 2.0,
        "production": 2.0,
        "year": 2023,
        "region": "Nordeste",
        "ibge_code": "2103406"
      },
      "geometry": {
        "type": "Point",
        "coordinates": [
          -44.441173147583946,
          -5.527704046303343
        ]
      }
    },
    {
      "type": "Feature",
      "properties": {
        "municipality": "Colinas",
        "state": "MA",
        "crop": "Castanha de caju",
        "hectares": 120.0,
        "production": 120.0,
        "year": 2023,
        "region": "Nordeste",
        "ibge_code": "2103505"
      },
      "geometry": {
        "type": "Point",
        "coordinates": [
          -44.31194922987324,
          -5.726471777410733
        ]
      }
    },
    {
      "type": "Feature",
      "properties": {
        "municipality": "Coroatá",
        "state": "MA",
        "crop": "Castanha de caju",
        "hectares": 3.0,
        "production": 3.0,
        "year": 2023,
        "region": "Nordeste",
        "ibge_code": "2103604"
      },
      "geometry": {
        "type": "Point",
        "coordinates": [
          -45.71187653150118,
          -4.091035001876694
        ]
      }
    },
    {
      "type": "Feature",
      "properties": {
        "municipality": "Duque Bacelar",
        "state": "MA",
        "crop": "Castanha de caju",
        "hectares": 2.0,
        "production": 2.0,
        "year": 2023,
        "region": "Nordeste",
        "ibge_code": "2103901"
      },
      "geometry": {
        "type": "Point",
        "coordinates": [
          -44.49650558145818,
          -4.985341042280082
        ]
      }
    },
    {
      "type": "Feature",
      "properties": {
        "municipality": "Fernando Falcão",
        "state": "MA",
        "crop": "Castanha de caju",
        "hectares": 10.0,
        "production": 10.0,
        "year": 2023,
        "region": "Nordeste",
        "ibge_code": "2104081"
      },
      "geometry": {
        "type": "Point",
        "coordinates": [
          -44.75471848569781,
          -4.5205034778217925
        ]
      }
    },
    {
      "type": "Feature",
      "properties": {
        "municipality": "Formosa da Serra Negra",
        "state": "MA",
        "crop": "Castanha de caju",
        "hectares": 4.0,
        "production": 4.0,
        "year": 2023,
        "region": "Nordeste",
        "ibge_code": "2104099"
      },
      "geometry": {
        "type": "Point",
        "coordinates": [
          -44.913263489902,
          -5.191490835108179
        ]
      }
    },
    {
      "type": "Feature",
      "properties": {
        "municipality": "Fortuna",
        "state": "MA",
        "crop": "Castanha de caju",
        "hectares": 12.0,
        "production": 12.0,
        "year": 2023,
        "region": "Nordeste",
        "ibge_code": "2104206"
      },
      "geometry": {
        "type": "Point",
        "coordinates": [
          -44.460223637594424,
          -5.198541331896601
        ]
      }
    },
    {
      "type": "Feature",
      "properties": {
        "municipality": "Godofredo Viana",
        "state": "MA",
        "crop": "Castanha de caju",
        "hectares": 9.0,
        "production": 9.0,
        "year": 2023,
        "region": "Nordeste",
        "ibge_code": "2104305"
      },
      "geometry": {
        "type": "Point",
        "coordinates": [
          -45.808387720007794,
          -4.465887839398519
        ]
      }
    },
    {
      "type": "Feature",
      "properties": {
        "municipality": "Governador Eugênio Barros",
        "state": "MA",
        "crop": "Castanha de caju",
        "hectares": 6.0,
        "production": 6.0,
        "year": 2023,
        "region": "Nordeste",
        "ibge_code": "2104602"
      },
      "geometry": {
        "type": "Point",
        "coordinates": [
          -45.277327431162945,
          -4.02521965206867
        ]
      }
    },
    {
      "type": "Feature",
      "properties": {
        "municipality": "Governador Luiz Rocha",
        "state": "MA",
        "crop": "Castanha de caju",
        "hectares": 5.0,
        "production": 5.0,
        "year": 2023,
        "region": "Nordeste",
        "ibge_code": "2104628"
      },
      "geometry": {
        "type": "Point",
        "coordinates": [
          -45.79341634492078,
          -5.40906417980492
        ]
      }
    },
    {
      "type": "Feature",
      "properties": {
        "municipality": "Governador Newton Bello",
        "state": "MA",
        "crop": "Castanha de caju",
        "hectares": 17.0,
        "production": 17.0,
        "year": 2023,
        "region": "Nordeste",
        "ibge_code": "2104651"
      },
      "geometry": {
        "type": "Point",
        "coordinates": [
          -44.441791591958626,
          -4.551399315203693
        ]
      }
    },
    {
      "type": "Feature",
      "properties": {
        "municipality": "Governador Nunes Freire",
        "state": "MA",
        "crop": "Castanha de caju",
        "hectares": 30.0,
        "production": 30.0,
        "year": 2023,
        "region": "Nordeste",
        "ibge_code": "2104677"
      },
      "geometry": {
        "type": "Point",
        "coordinates": [
          -44.53067262595486,
          -4.040978139610089
        ]
      }
    },
    {
      "type": "Feature",
      "properties": {
        "municipality": "Grajaú",
        "state": "MA",
        "crop": "Castanha de caju",
        "hectares": 58.0,
        "production": 58.0,
        "year": 2023,
        "region": "Nordeste",
        "ibge_code": "2104800"
      },
      "geometry": {
        "type": "Point",
        "coordinates": [
          -45.17373386194669,
          -4.924479860267583
        ]
      }
    },
    {
      "type": "Feature",
      "properties": {
        "municipality": "Humberto de Campos",
        "state": "MA",
        "crop": "Castanha de caju",
        "hectares": 107.0,
        "production": 107.0,
        "year": 2023,
        "region": "Nordeste",
        "ibge_code": "2105005"
      },
      "geometry": {
        "type": "Point",
        "coordinates": [
          -45.06079442170814,
          -5.798718670752231
        ]
      }
    },
    {
      "type": "Feature",
      "properties": {
        "municipality": "Igarapé do Meio",
        "state": "MA",
        "crop": "Castanha de caju",
        "hectares": 9.0,
        "production": 9.0,
        "year": 2023,
        "region": "Nordeste",
        "ibge_code": "2105153"
      },
      "geometry": {
        "type": "Point",
        "coordinates": [
          -44.78625389943721,
          -4.994034075699991
        ]
      }
    },
    {
      "type": "Feature",
      "properties": {
        "municipality": "Imperatriz",
        "state": "MA",
        "crop": "Castanha de caju",
        "hectares": 4.0,
        "production": 4.0,
        "year": 2023,
        "region": "Nordeste",
        "ibge_code": "2105302"
      },
      "geometry": {
        "type": "Point",
        "coordinates": [
          -45.38795810873852,
          -4.817094300099886
        ]
      }
    },
    {
      "type": "Feature",
      "properties": {
        "municipality": "Itaipava do Grajaú",
        "state": "MA",
        "crop": "Castanha de caju",
        "hectares": 10.0,
        "production": 10.0,
        "year": 2023,
        "region": "Nordeste",
        "ibge_code": "2105351"
      },
      "geometry": {
        "type": "Point",
        "coordinates": [
          -46.1642802230123,
          -4.12548792657553
        ]
      }
    },
    {
      "type": "Feature",
      "properties": {
        "municipality": "Jatobá",
        "state": "MA",
        "crop": "Castanha de caju",
        "hectares": 5.0,
        "production": 5.0,
        "year": 2023,
        "region": "Nordeste",
        "ibge_code": "2105450"
      },
      "geometry": {
        "type": "Point",
        "coordinates": [
          -44.77795724995553,
          -4.910026983168274
        ]
      }
    },
    {
      "type": "Feature",
      "properties": {
        "municipality": "Jenipapo dos Vieiras",
        "state": "MA",
        "crop": "Castanha de caju",
        "hectares": 12.0,
        "production": 12.0,
        "year": 2023,
        "region": "Nordeste",
        "ibge_code": "2105476"
      },
      "geometry": {
        "type": "Point",
        "coordinates": [
          -44.758491194119394,
          -4.272056296949904
        ]
      }
    },
    {
      "type": "Feature",
      "properties": {
        "municipality": "Junco do Maranhão",
        "state": "MA",
        "crop": "Castanha de caju",
        "hectares": 13.0,
        "production": 13.0,
        "year": 2023,
        "region": "Nordeste",
        "ibge_code": "2105658"
      },
      "geometry": {
        "type": "Point",
        "coordinates": [
          -45.952288242480535,
          -5.574209498510584
        ]
      }
    },
    {
      "type": "Feature",
      "properties": {
        "municipality": "Lagoa do Mato",
        "state": "MA",
        "crop": "Castanha de caju",
        "hectares": 2.0,
        "production": 2.0,
        "year": 2023,
        "region": "Nordeste",
        "ibge_code": "2105922"
      },
      "geometry": {
        "type": "Point",
        "coordinates": [
          -44.597924273672696,
          -4.234886249285097
        ]
      }
    },
    {
      "type": "Feature",
      "properties": {
        "municipality": "Luís Domingues",
        "state": "MA",
        "crop": "Castanha de caju",
        "hectares": 8.0,
        "production": 8.0,
        "year": 2023,
        "region": "Nordeste",
        "ibge_code": "2106201"
      },
      "geometry": {
        "type": "Point",
        "coordinates": [
          -46.04503158394409,
          -4.723865622633966
        ]
      }
    },
    {
      "type": "Feature",
      "properties": {
        "municipality": "Magalhães de Almeida",
        "state": "MA",
        "crop": "Castanha de caju",
        "hectares": 102.0,
        "production": 102.0,
        "year": 2023,
        "region": "Nordeste",
        "ibge_code": "2106300"
      },
      "geometry": {
        "type": "Point",
        "coordinates": [
          -44.53310535909489,
          -5.2881800952144715
        ]
      }
    },
    {
      "type": "Feature",
      "properties": {
        "municipality": "Maracaçumé",
        "state": "MA",
        "crop": "Castanha de caju",
        "hectares": 12.0,
        "production": 12.0,
        "year": 2023,
        "region": "Nordeste",
        "ibge_code": "2106326"
      },
      "geometry": {
        "type": "Point",
        "coordinates": [
          -45.74147058144019,
          -4.9787873062298456
        ]
      }
    },
    {
      "type": "Feature",
      "properties": {
        "municipality": "Maranhãozinho",
        "state": "MA",
        "crop": "Castanha de caju",
        "hectares": 20.0,
        "production": 20.0,
        "year": 2023,
        "region": "Nordeste",
        "ibge_code": "2106375"
      },
      "geometry": {
        "type": "Point",
        "coordinates": [
          -45.52777613720992,
          -5.034885284369957
        ]
      }
    },
    {
      "type": "Feature",
      "properties": {
        "municipality": "Mata Roma",
        "state": "MA",
        "crop": "Castanha de caju",
        "hectares": 24.0,
        "production": 24.0,
        "year": 2023,
        "region": "Nordeste",
        "ibge_code": "2106409"
      },
      "geometry": {
        "type": "Point",
        "coordinates": [
          -44.609716810031884,
          -3.969350067944508
        ]
      }
    },
    {
      "type": "Feature",
      "properties": {
        "municipality": "Matões",
        "state": "MA",
        "crop": "Castanha de caju",
        "hectares": 205.0,
        "production": 205.0,
        "year": 2023,
        "region": "Nordeste",
        "ibge_code": "2106607"
      },
      "geometry": {
        "type": "Point",
        "coordinates": [
          -45.31095289806142,
          -4.838604747892221
        ]
      }
    },
    {
      "type": "Feature",
      "properties": {
        "municipality": "Milagres do Maranhão",
        "state": "MA",
        "crop": "Castanha de caju",
        "hectares": 20.0,
        "production": 20.0,
        "year": 2023,
        "region": "Nordeste",
        "ibge_code": "2106672"
      },
      "geometry": {
        "type": "Point",
        "coordinates": [
          -44.448072881370024,
          -5.526381099977559
        ]
      }
    },
    {
      "type": "Feature",
      "properties": {
        "municipality": "Mirador",
        "state": "MA",
        "crop": "Castanha de caju",
        "hectares": 19.0,
        "production": 19.0,
        "year": 2023,
        "region": "Nordeste",
        "ibge_code": "2106706"
      },
      "geometry": {
        "type": "Point",
        "coordinates": [
          -45.92711832192089,
          -5.184369323644621
        ]
      }
    },
    {
      "type": "Feature",
      "properties": {
        "municipality": "Monção",
        "state": "MA",
        "crop": "Castanha de caju",
        "hectares": 26.0,
        "production": 26.0,
        "year": 2023,
        "region": "Nordeste",
        "ibge_code": "2106904"
      },
      "geometry": {
        "type": "Point",
        "coordinates": [
          -44.97776445045625,
          -5.8936040059605705
        ]
      }
    },
    {
      "type": "Feature",
      "properties": {
        "municipality": "Morros",
        "state": "MA",
        "crop": "Castanha de caju",
        "hectares": 10.0,
        "production": 10.0,
        "year": 2023,
        "region": "Nordeste",
        "ibge_code": "2107100"
      },
      "geometry": {
        "type": "Point",
        "coordinates": [
          -45.71536298357027,
          -4.629857117918913
        ]
      }
    },
    {
      "type": "Feature",
      "properties": {
        "municipality": "Nova Olinda do Maranhão",
        "state": "MA",
        "crop": "Castanha de caju",
        "hectares": 16.0,
        "production": 16.0,
        "year": 2023,
        "region": "Nordeste",
        "ibge_code": "2107357"
      },
      "geometry": {
        "type": "Point",
        "coordinates": [
          -46.13241917257433,
          -5.4549139193871365
        ]
      }
    },
    {
      "type": "Feature",
      "properties": {
        "municipality": "Olho d'Água das Cunhãs",
        "state": "MA",
        "crop": "Castanha de caju",
        "hectares": 6.0,
        "production": 6.0,
        "year": 2023,
        "region": "Nordeste",
        "ibge_code": "2107407"
      },
      "geometry": {
        "type": "Point",
        "coordinates": [
          -45.580354652464266,
          -4.592738480446275
        ]
      }
    },
    {
      "type": "Feature",
      "properties": {
        "municipality": "Parnarama",
        "state": "MA",
        "crop": "Castanha de caju",
        "hectares": 48.0,
        "production": 48.0,
        "year": 2023,
        "region": "Nordeste",
        "ibge_code": "2107803"
      },
      "geometry": {
        "type": "Point",
        "coordinates": [
          -45.81296162737905,
          -5.1988586200084566
        ]
      }
    },
    {
      "type": "Feature",
      "properties": {
        "municipality": "Passagem Franca",
        "state": "MA",
        "crop": "Castanha de caju",
        "hectares": 100.0,
        "production": 100.0,
        "year": 2023,
        "region": "Nordeste",
        "ibge_code": "2107902"
      },
      "geometry": {
        "type": "Point",
        "coordinates": [
          -44.77088987747264,
          -5.811725471154421
        ]
      }
    },
    {
      "type": "Feature",
      "properties": {
        "municipality": "Paulino Neves",
        "state": "MA",
        "crop": "Castanha de caju",
        "hectares": 243.0,
        "production": 243.0,
        "year": 2023,
        "region": "Nordeste",
        "ibge_code": "2108058"
      },
      "geometry": {
        "type": "Point",
        "coordinates": [
          -44.309655118590214,
          -5.1683741928379066
        ]
      }
    },
    {
      "type": "Feature",
      "properties": {
        "municipality": "Pedro do Rosário",
        "state": "MA",
        "crop": "Castanha de caju",
        "hectares": 12.0,
        "production": 12.0,
        "year": 2023,
        "region": "Nordeste",
        "ibge_code": "2108256"
      },
      "geometry": {
        "type": "Point",
        "coordinates": [
          -44.71285606333581,
          -5.510824111146
        ]
      }
    },
    {
      "type": "Feature",
      "properties": {
        "municipality": "Peritoró",
        "state": "MA",
        "crop": "Castanha de caju",
        "hectares": 2.0,
        "production": 2.0,
        "year": 2023,
        "region": "Nordeste",
        "ibge_code": "2108454"
      },
      "geometry": {
        "type": "Point",
        "coordinates": [
          -45.15488817200219,
          -4.029061623950112
        ]
      }
    },
    {
      "type": "Feature",
      "properties": {
        "municipality": "Pindaré-Mirim",
        "state": "MA",
        "crop": "Castanha de caju",
        "hectares": 17.0,
        "production": 17.0,
        "year": 2023,
        "region": "Nordeste",
        "ibge_code": "2108504"
      },
      "geometry": {
        "type": "Point",
        "coordinates": [
          -45.46987725992147,
          -5.533453169011138
        ]
      }
    },
    {
      "type": "Feature",
      "properties": {
        "municipality": "Presidente Médici",
        "state": "MA",
        "crop": "Castanha de caju",
        "hectares": 7.0,
        "production": 7.0,
        "year": 2023,
        "region": "Nordeste",
        "ibge_code": "2109239"
      },
      "geometry": {
        "type": "Point",
        "coordinates": [
          -45.49833054076063,
          -4.092376074592054
        ]
      }
    },
    {
      "type": "Feature",
      "properties": {
        "municipality": "Primeira Cruz",
        "state": "MA",
        "crop": "Castanha de caju",
        "hectares": 125.0,
        "production": 125.0,
        "year": 2023,
        "region": "Nordeste",
        "ibge_code": "2109403"
      },
      "geometry": {
        "type": "Point",
        "coordinates": [
          -44.88421472370738,
          -3.9668118716167355
        ]
      }
    },
    {
      "type": "Feature",
      "properties": {
        "municipality": "Ribamar Fiquene",
        "state": "MA",
        "crop": "Castanha de caju",
        "hectares": 3.0,
        "production": 3.0,
        "year": 2023,
        "region": "Nordeste",
        "ibge_code": "2109551"
      },
      "geometry": {
        "type": "Point",
        "coordinates": [
          -46.23183258835876,
          -4.447642241292965
        ]
      }
    },
    {
      "type": "Feature",
      "properties": {
        "municipality": "Santa Inês",
        "state": "MA",
        "crop": "Castanha de caju",
        "hectares": 15.0,
        "production": 15.0,
        "year": 2023,
        "region": "Nordeste",
        "ibge_code": "2109908"
      },
      "geometry": {
        "type": "Point",
        "coordinates": [
          -45.456565586101064,
          -5.546190060770028
        ]
      }
    },
    {
      "type": "Feature",
      "properties": {
        "municipality": "Santa Luzia",
        "state": "MA",
        "crop": "Castanha de caju",
        "hectares": 80.0,
        "production": 80.0,
        "year": 2023,
        "region": "Nordeste",
        "ibge_code": "2110005"
      },
      "geometry": {
        "type": "Point",
        "coordinates": [
          -45.3236959606196,
          -5.676404835266625
        ]
      }
    },
    {
      "type": "Feature",
      "properties": {
        "municipality": "Santa Luzia do Paruá",
        "state": "MA",
        "crop": "Castanha de caju",
        "hectares": 52.0,
        "production": 52.0,
        "year": 2023,
        "region": "Nordeste",
        "ibge_code": "2110039"
      },
      "geometry": {
        "type": "Point",
        "coordinates": [
          -45.0537402279546,
          -5.937979508243347
        ]
      }
    },
    {
      "type": "Feature",
      "properties": {
        "municipality": "Santa Quitéria do Maranhão",
        "state": "MA",
        "crop": "Castanha de caju",
        "hectares": 62.0,
        "production": 62.0,
        "year": 2023,
        "region": "Nordeste",
        "ibge_code": "2110104"
      },
      "geometry": {
        "type": "Point",
        "coordinates": [
          -45.655315756771486,
          -5.86414512341487
        ]
      }
    },
    {
      "type": "Feature",
      "properties": {
        "municipality": "Santana do Maranhão",
        "state": "MA",
        "crop": "Castanha de caju",
        "hectares": 48.0,
        "production": 48.0,
        "year": 2023,
        "region": "Nordeste",
        "ibge_code": "2110237"
      },
      "geometry": {
        "type": "Point",
        "coordinates": [
          -44.74325007184239,
          -4.424881283534438
        ]
      }
    },
    {
      "type": "Feature",
      "properties": {
        "municipality": "Santo Amaro do Maranhão",
        "state": "MA",
        "crop": "Castanha de caju",
        "hectares": 2820.0,
        "production": 2820.0,
        "year": 2023,
        "region": "Nordeste",
        "ibge_code": "2110278"
      },
      "geometry": {
        "type": "Point",
        "coordinates": [
          -44.97776445045625,
          -5.8936040059605705
        ]
      }
    },
    {
      "type": "Feature",
      "properties": {
        "municipality": "São Benedito do Rio Preto",
        "state": "MA",
        "crop": "Castanha de caju",
        "hectares": 8.0,
        "production": 8.0,
        "year": 2023,
        "region": "Nordeste",
        "ibge_code": "2110401"
      },
      "geometry": {
        "type": "Point",
        "coordinates": [
          -45.56160876636503,
          -5.43423890566625
        ]
      }
    },
    {
      "type": "Feature",
      "properties": {
        "municipality": "São Bernardo",
        "state": "MA",
        "crop": "Castanha de caju",
        "hectares": 110.0,
        "production": 110.0,
        "year": 2023,
        "region": "Nordeste",
        "ibge_code": "2110609"
      },
      "geometry": {
        "type": "Point",
        "coordinates": [
          -45.042415279528704,
          -4.334059143563837
        ]
      }
    },
    {
      "type": "Feature",
      "properties": {
        "municipality": "São Domingos do Maranhão",
        "state": "MA",
        "crop": "Castanha de caju",
        "hectares": 72.0,
        "production": 72.0,
        "year": 2023,
        "region": "Nordeste",
        "ibge_code": "2110708"
      },
      "geometry": {
        "type": "Point",
        "coordinates": [
          -45.15074789366699,
          -4.397783407765125
        ]
      }
    },
    {
      "type": "Feature",
      "properties": {
        "municipality": "São Francisco do Maranhão",
        "state": "MA",
        "crop": "Castanha de caju",
        "hectares": 19.0,
        "production": 19.0,
        "year": 2023,
        "region": "Nordeste",
        "ibge_code": "2110906"
      },
      "geometry": {
        "type": "Point",
        "coordinates": [
          -46.16674176267823,
          -5.288243235272738
        ]
      }
    },
    {
      "type": "Feature",
      "properties": {
        "municipality": "São João Batista",
        "state": "MA",
        "crop": "Castanha de caju",
        "hectares": 2.0,
        "production": 2.0,
        "year": 2023,
        "region": "Nordeste",
        "ibge_code": "2111003"
      },
      "geometry": {
        "type": "Point",
        "coordinates": [
          -44.97139760296311,
          -5.454459381870173
        ]
      }
    },
    {
      "type": "Feature",
      "properties": {
        "municipality": "São João do Carú",
        "state": "MA",
        "crop": "Castanha de caju",
        "hectares": 16.0,
        "production": 16.0,
        "year": 2023,
        "region": "Nordeste",
        "ibge_code": "2111029"
      },
      "geometry": {
        "type": "Point",
        "coordinates": [
          -45.39334893861087,
          -4.123532598867843
        ]
      }
    },
    {
      "type": "Feature",
      "properties": {
        "municipality": "São João do Soter",
        "state": "MA",
        "crop": "Castanha de caju",
        "hectares": 2.0,
        "production": 2.0,
        "year": 2023,
        "region": "Nordeste",
        "ibge_code": "2111078"
      },
      "geometry": {
        "type": "Point",
        "coordinates": [
          -44.34980992833123,
          -5.507488281237902
        ]
      }
    },
    {
      "type": "Feature",
      "properties": {
        "municipality": "São João dos Patos",
        "state": "MA",
        "crop": "Castanha de caju",
        "hectares": 16.0,
        "production": 16.0,
        "year": 2023,
        "region": "Nordeste",
        "ibge_code": "2111102"
      },
      "geometry": {
        "type": "Point",
        "coordinates": [
          -46.03069098498523,
          -5.743969246211104
        ]
      }
    },
    {
      "type": "Feature",
      "properties": {
        "municipality": "São Raimundo das Mangabeiras",
        "state": "MA",
        "crop": "Castanha de caju",
        "hectares": 100.0,
        "production": 100.0,
        "year": 2023,
        "region": "Nordeste",
        "ibge_code": "2111607"
      },
      "geometry": {
        "type": "Point",
        "coordinates": [
          -44.90287622560592,
          -4.629679049667093
        ]
      }
    },
    {
      "type": "Feature",
      "properties": {
        "municipality": "Senador Alexandre Costa",
        "state": "MA",
        "crop": "Castanha de caju",
        "hectares": 10.0,
        "production": 10.0,
        "year": 2023,
        "region": "Nordeste",
        "ibge_code": "2111748"
      },
      "geometry": {
        "type": "Point",
        "coordinates": [
          -44.71983164932882,
          -4.025585310536607
        ]
      }
    },
    {
      "type": "Feature",
      "properties": {
        "municipality": "Sítio Novo",
        "state": "MA",
        "crop": "Castanha de caju",
        "hectares": 13.0,
        "production": 13.0,
        "year": 2023,
        "region": "Nordeste",
        "ibge_code": "2111805"
      },
      "geometry": {
        "type": "Point",
        "coordinates": [
          -44.596202831892164,
          -5.5571818041462615
        ]
      }
    },
    {
      "type": "Feature",
      "properties": {
        "municipality": "Timbiras",
        "state": "MA",
        "crop": "Castanha de caju",
        "hectares": 2.0,
        "production": 2.0,
        "year": 2023,
        "region": "Nordeste",
        "ibge_code": "2112100"
      },
      "geometry": {
        "type": "Point",
        "coordinates": [
          -45.19151495314338,
          -4.497306864935718
        ]
      }
    },
    {
      "type": "Feature",
      "properties": {
        "municipality": "Timon",
        "state": "MA",
        "crop": "Castanha de caju",
        "hectares": 700.0,
        "production": 700.0,
        "year": 2023,
        "region": "Nordeste",
        "ibge_code": "2112209"
      },
      "geometry": {
        "type": "Point",
        "coordinates": [
          -44.282052818705395,
          -5.094136751160409
        ]
      }
    },
    {
      "type": "Feature",
      "properties": {
        "municipality": "Tufilândia",
        "state": "MA",
        "crop": "Castanha de caju",
        "hectares": 8.0,
        "production": 8.0,
        "year": 2023,
        "region": "Nordeste",
        "ibge_code": "2112274"
      },
      "geometry": {
        "type": "Point",
        "coordinates": [
          -44.630491915360544,
          -4.3742198324766735
        ]
      }
    },
    {
      "type": "Feature",
      "properties": {
        "municipality": "Tuntum",
        "state": "MA",
        "crop": "Castanha de caju",
        "hectares": 70.0,
        "production": 70.0,
        "year": 2023,
        "region": "Nordeste",
        "ibge_code": "2112308"
      },
      "geometry": {
        "type": "Point",
        "coordinates": [
          -45.4991625206871,
          -4.79928484760864
        ]
      }
    },
    {
      "type": "Feature",
      "properties": {
        "municipality": "Tutóia",
        "state": "MA",
        "crop": "Castanha de caju",
        "hectares": 115.0,
        "production": 115.0,
        "year": 2023,
        "region": "Nordeste",
        "ibge_code": "2112506"
      },
      "geometry": {
        "type": "Point",
        "coordinates": [
          -45.952288242480535,
          -5.574209498510584
        ]
      }
    },
    {
      "type": "Feature",
      "properties": {
        "municipality": "Urbano Santos",
        "state": "MA",
        "crop": "Castanha de caju",
        "hectares": 35.0,
        "production": 35.0,
        "year": 2023,
        "region": "Nordeste",
        "ibge_code": "2112605"
      },
      "geometry": {
        "type": "Point",
        "coordinates": [
          -44.94712307843592,
          -4.877251723874898
        ]
      }
    },
    {
      "type": "Feature",
      "properties": {
        "municipality": "Vitória do Mearim",
        "state": "MA",
        "crop": "Castanha de caju",
        "hectares": 2.0,
        "production": 2.0,
        "year": 2023,
        "region": "Nordeste",
        "ibge_code": "2112902"
      },
      "geometry": {
        "type": "Point",
        "coordinates": [
          -44.89714447329871,
          -4.707059231713251
        ]
      }
    },
    {
      "type": "Feature",
      "properties": {
        "municipality": "Zé Doca",
        "state": "MA",
        "crop": "Castanha de caju",
        "hectares": 79.0,
        "production": 79.0,
        "year": 2023,
        "region": "Nordeste",
        "ibge_code": "2114007"
      },
      "geometry": {
        "type": "Point",
        "coordinates": [
          -45.22857047269042,
          -4.244341428066382
        ]
      }
    },
    {
      "type": "Feature",
      "properties": {
        "municipality": "Agricolândia",
        "state": "PI",
        "crop": "Castanha de caju",
        "hectares": 70.0,
        "production": 70.0,
        "year": 2023,
        "region": "Nordeste",
        "ibge_code": "2200103"
      },
      "geometry": {
        "type": "Point",
        "coordinates": [
          -42.93247725992147,
          -9.12945316901114
        ]
      }
    },
    {
      "type": "Feature",
      "properties": {
        "municipality": "Água Branca",
        "state": "PI",
        "crop": "Castanha de caju",
        "hectares": 26.0,
        "production": 26.0,
        "year": 2023,
        "region": "Nordeste",
        "ibge_code": "2200202"
      },
      "geometry": {
        "type": "Point",
        "coordinates": [
          -41.772255118590216,
          -8.764374192837908
        ]
      }
    },
    {
      "type": "Feature",
      "properties": {
        "municipality": "Alagoinha do Piauí",
        "state": "PI",
        "crop": "Castanha de caju",
        "hectares": 1030.0,
        "production": 1030.0,
        "year": 2023,
        "region": "Nordeste",
        "ibge_code": "2200251"
      },
      "geometry": {
        "type": "Point",
        "coordinates": [
          -42.35297448062042,
          -9.167269164586477
        ]
      }
    },
    {
      "type": "Feature",
      "properties": {
        "municipality": "Alegrete do Piauí",
        "state": "PI",
        "crop": "Castanha de caju",
        "hectares": 5.0,
        "production": 5.0,
        "year": 2023,
        "region": "Nordeste",
        "ibge_code": "2200277"
      },
      "geometry": {
        "type": "Point",
        "coordinates": [
          -43.280360510845064,
          -7.6835472544657275
        ]
      }
    },
    {
      "type": "Feature",
      "properties": {
        "municipality": "Alto Longá",
        "state": "PI",
        "crop": "Castanha de caju",
        "hectares": 345.0,
        "production": 345.0,
        "year": 2023,
        "region": "Nordeste",
        "ibge_code": "2200301"
      },
      "geometry": {
        "type": "Point",
        "coordinates": [
          -42.132010274950474,
          -7.777015060166845
        ]
      }
    },
    {
      "type": "Feature",
      "properties": {
        "municipality": "Altos",
        "state": "PI",
        "crop": "Castanha de caju",
        "hectares": 43.0,
        "production": 43.0,
        "year": 2023,
        "region": "Nordeste",
        "ibge_code": "2200400"
      },
      "geometry": {
        "type": "Point",
        "coordinates": [
          -42.42508639423967,
          -8.937729327591473
        ]
      }
    },
    {
      "type": "Feature",
      "properties": {
        "municipality": "Alvorada do Gurguéia",
        "state": "PI",
        "crop": "Castanha de caju",
        "hectares": 10.0,
        "production": 10.0,
        "year": 2023,
        "region": "Nordeste",
        "ibge_code": "2200459"
      },
      "geometry": {
        "type": "Point",
        "coordinates": [
          -42.50079936714663,
          -9.137538041258287
        ]
      }
    },
    {
      "type": "Feature",
      "properties": {
        "municipality": "Amarante",
        "state": "PI",
        "crop": "Castanha de caju",
        "hectares": 530.0,
        "production": 530.0,
        "year": 2023,
        "region": "Nordeste",
        "ibge_code": "2200509"
      },
      "geometry": {
        "type": "Point",
        "coordinates": [
          -42.479795868249035,
          -7.963002959472668
        ]
      }
    },
    {
      "type": "Feature",
      "properties": {
        "municipality": "Angical do Piauí",
        "state": "PI",
        "crop": "Castanha de caju",
        "hectares": 60.0,
        "production": 60.0,
        "year": 2023,
        "region": "Nordeste",
        "ibge_code": "2200608"
      },
      "geometry": {
        "type": "Point",
        "coordinates": [
          -42.66202801415941,
          -9.352885623671284
        ]
      }
    },
    {
      "type": "Feature",
      "properties": {
        "municipality": "Anísio de Abreu",
        "state": "PI",
        "crop": "Castanha de caju",
        "hectares": 10.0,
        "production": 10.0,
        "year": 2023,
        "region": "Nordeste",
        "ibge_code": "2200707"
      },
      "geometry": {
        "type": "Point",
        "coordinates": [
          -43.6804117528275,
          -8.349997221228936
        ]
      }
    },
    {
      "type": "Feature",
      "properties": {
        "municipality": "Antônio Almeida",
        "state": "PI",
        "crop": "Castanha de caju",
        "hectares": 62.0,
        "production": 62.0,
        "year": 2023,
        "region": "Nordeste",
        "ibge_code": "2200806"
      },
      "geometry": {
        "type": "Point",
        "coordinates": [
          -43.32820344716464,
          -8.471703025491799
        ]
      }
    },
    {
      "type": "Feature",
      "properties": {
        "municipality": "Aroazes",
        "state": "PI",
        "crop": "Castanha de caju",
        "hectares": 40.0,
        "production": 40.0,
        "year": 2023,
        "region": "Nordeste",
        "ibge_code": "2200905"
      },
      "geometry": {
        "type": "Point",
        "coordinates": [
          -41.934784878622935,
          -8.135532533875015
        ]
      }
    },
    {
      "type": "Feature",
      "properties": {
        "municipality": "Aroeiras do Itaim",
        "state": "PI",
        "crop": "Castanha de caju",
        "hectares": 13.0,
        "production": 13.0,
        "year": 2023,
        "region": "Nordeste",
        "ibge_code": "2200954"
      },
      "geometry": {
        "type": "Point",
        "coordinates": [
          -43.52562043102987,
          -7.799508288990961
        ]
      }
    },
    {
      "type": "Feature",
      "properties": {
        "municipality": "Arraial",
        "state": "PI",
        "crop": "Castanha de caju",
        "hectares": 63.0,
        "production": 63.0,
        "year": 2023,
        "region": "Nordeste",
        "ibge_code": "2201002"
      },
      "geometry": {
        "type": "Point",
        "coordinates": [
          -43.15626852827323,
          -8.422651942796033
        ]
      }
    },
    {
      "type": "Feature",
      "properties": {
        "municipality": "Assunção do Piauí",
        "state": "PI",
        "crop": "Castanha de caju",
        "hectares": 30.0,
        "production": 30.0,
        "year": 2023,
        "region": "Nordeste",
        "ibge_code": "2201051"
      },
      "geometry": {
        "type": "Point",
        "coordinates": [
          -42.761211618029506,
          -8.568351387699275
        ]
      }
    },
    {
      "type": "Feature",
      "properties": {
        "municipality": "Baixa Grande do Ribeiro",
        "state": "PI",
        "crop": "Castanha de caju",
        "hectares": 19.0,
        "production": 19.0,
        "year": 2023,
        "region": "Nordeste",
        "ibge_code": "2201150"
      },
      "geometry": {
        "type": "Point",
        "coordinates": [
          -42.23544282036719,
          -8.963764491230693
        ]
      }
    },
    {
      "type": "Feature",
      "properties": {
        "municipality": "Barra D'Alcântara",
        "state": "PI",
        "crop": "Castanha de caju",
        "hectares": 17.0,
        "production": 17.0,
        "year": 2023,
        "region": "Nordeste",
        "ibge_code": "2201176"
      },
      "geometry": {
        "type": "Point",
        "coordinates": [
          -42.99800304098882,
          -9.267930789332246
        ]
      }
    },
    {
      "type": "Feature",
      "properties": {
        "municipality": "Barras",
        "state": "PI",
        "crop": "Castanha de caju",
        "hectares": 512.0,
        "production": 512.0,
        "year": 2023,
        "region": "Nordeste",
        "ibge_code": "2201200"
      },
      "geometry": {
        "type": "Point",
        "coordinates": [
          -43.126824331185254,
          -9.539604325335464
        ]
      }
    },
    {
      "type": "Feature",
      "properties": {
        "municipality": "Barreiras do Piauí",
        "state": "PI",
        "crop": "Castanha de caju",
        "hectares": 10.0,
        "production": 10.0,
        "year": 2023,
        "region": "Nordeste",
        "ibge_code": "2201309"
      },
      "geometry": {
        "type": "Point",
        "coordinates": [
          -43.710524968189965,
          -8.939110682514091
        ]
      }
    },
    {
      "type": "Feature",
      "properties": {
        "municipality": "Barro Duro",
        "state": "PI",
        "crop": "Castanha de caju",
        "hectares": 250.0,
        "production": 250.0,
        "year": 2023,
        "region": "Nordeste",
        "ibge_code": "2201408"
      },
      "geometry": {
        "type": "Point",
        "coordinates": [
          -42.496941029568916,
          -8.909393308358469
        ]
      }
    },
    {
      "type": "Feature",
      "properties": {
        "municipality": "Batalha",
        "state": "PI",
        "crop": "Castanha de caju",
        "hectares": 741.0,
        "production": 741.0,
        "year": 2023,
        "region": "Nordeste",
        "ibge_code": "2201507"
      },
      "geometry": {
        "type": "Point",
        "coordinates": [
          -42.20033536676947,
          -7.812568039344036
        ]
      }
    },
    {
      "type": "Feature",
      "properties": {
        "municipality": "Belém do Piauí",
        "state": "PI",
        "crop": "Castanha de caju",
        "hectares": 170.0,
        "production": 170.0,
        "year": 2023,
        "region": "Nordeste",
        "ibge_code": "2201572"
      },
      "geometry": {
        "type": "Point",
        "coordinates": [
          -42.23702065996216,
          -9.544247427385695
        ]
      }
    },
    {
      "type": "Feature",
      "properties": {
        "municipality": "Beneditinos",
        "state": "PI",
        "crop": "Castanha de caju",
        "hectares": 150.0,
        "production": 150.0,
        "year": 2023,
        "region": "Nordeste",
        "ibge_code": "2201606"
      },
      "geometry": {
        "type": "Point",
        "coordinates": [
          -42.48919421713804,
          -9.46774841024332
        ]
      }
    },
    {
      "type": "Feature",
      "properties": {
        "municipality": "Boa Hora",
        "state": "PI",
        "crop": "Castanha de caju",
        "hectares": 100.0,
        "production": 100.0,
        "year": 2023,
        "region": "Nordeste",
        "ibge_code": "2201770"
      },
      "geometry": {
        "type": "Point",
        "coordinates": [
          -42.60251978370509,
          -9.171560625377607
        ]
      }
    },
    {
      "type": "Feature",
      "properties": {
        "municipality": "Bocaina",
        "state": "PI",
        "crop": "Castanha de caju",
        "hectares": 50.0,
        "production": 50.0,
        "year": 2023,
        "region": "Nordeste",
        "ibge_code": "2201804"
      },
      "geometry": {
        "type": "Point",
        "coordinates": [
          -43.091090264673966,
          -8.54077377581997
        ]
      }
    },
    {
      "type": "Feature",
      "properties": {
        "municipality": "Bom Jesus",
        "state": "PI",
        "crop": "Castanha de caju",
        "hectares": 35.0,
        "production": 35.0,
        "year": 2023,
        "region": "Nordeste",
        "ibge_code": "2201903"
      },
      "geometry": {
        "type": "Point",
        "coordinates": [
          -42.29720238938425,
          -8.524023181044475
        ]
      }
    },
    {
      "type": "Feature",
      "properties": {
        "municipality": "Bom Princípio do Piauí",
        "state": "PI",
        "crop": "Castanha de caju",
        "hectares": 1479.0,
        "production": 1479.0,
        "year": 2023,
        "region": "Nordeste",
        "ibge_code": "2201919"
      },
      "geometry": {
        "type": "Point",
        "coordinates": [
          -43.03797748941397,
          -9.26622767633344
        ]
      }
    },
    {
      "type": "Feature",
      "properties": {
        "municipality": "Boqueirão do Piauí",
        "state": "PI",
        "crop": "Castanha de caju",
        "hectares": 163.0,
        "production": 163.0,
        "year": 2023,
        "region": "Nordeste",
        "ibge_code": "2201945"
      },
      "geometry": {
        "type": "Point",
        "coordinates": [
          -42.79409037848742,
          -9.149147891689514
        ]
      }
    },
    {
      "type": "Feature",
      "properties": {
        "municipality": "Brasileira",
        "state": "PI",
        "crop": "Castanha de caju",
        "hectares": 125.0,
        "production": 125.0,
        "year": 2023,
        "region": "Nordeste",
        "ibge_code": "2201960"
      },
      "geometry": {
        "type": "Point",
        "coordinates": [
          -42.46074984819735,
          -7.91501446978332
        ]
      }
    },
    {
      "type": "Feature",
      "properties": {
        "municipality": "Brejo do Piauí",
        "state": "PI",
        "crop": "Castanha de caju",
        "hectares": 4.0,
        "production": 4.0,
        "year": 2023,
        "region": "Nordeste",
        "ibge_code": "2201988"
      },
      "geometry": {
        "type": "Point",
        "coordinates": [
          -43.39572566668076,
          -8.217920512554752
        ]
      }
    },
    {
      "type": "Feature",
      "properties": {
        "municipality": "Buriti dos Lopes",
        "state": "PI",
        "crop": "Castanha de caju",
        "hectares": 86.0,
        "production": 86.0,
        "year": 2023,
        "region": "Nordeste",
        "ibge_code": "2202000"
      },
      "geometry": {
        "type": "Point",
        "coordinates": [
          -42.7943421686027,
          -7.877271978402936
        ]
      }
    },
    {
      "type": "Feature",
      "properties": {
        "municipality": "Buriti dos Montes",
        "state": "PI",
        "crop": "Castanha de caju",
        "hectares": 9.0,
        "production": 9.0,
        "year": 2023,
        "region": "Nordeste",
        "ibge_code": "2202026"
      },
      "geometry": {
        "type": "Point",
        "coordinates": [
          -42.35023462735893,
          -9.132494660697931
        ]
      }
    },
    {
      "type": "Feature",
      "properties": {
        "municipality": "Cabeceiras do Piauí",
        "state": "PI",
        "crop": "Castanha de caju",
        "hectares": 178.0,
        "production": 178.0,
        "year": 2023,
        "region": "Nordeste",
        "ibge_code": "2202059"
      },
      "geometry": {
        "type": "Point",
        "coordinates": [
          -43.3606883117854,
          -8.18779240843538
        ]
      }
    },
    {
      "type": "Feature",
      "properties": {
        "municipality": "Cajazeiras do Piauí",
        "state": "PI",
        "crop": "Castanha de caju",
        "hectares": 3.0,
        "production": 3.0,
        "year": 2023,
        "region": "Nordeste",
        "ibge_code": "2202075"
      },
      "geometry": {
        "type": "Point",
        "coordinates": [
          -42.563159286678705,
          -8.411547473717595
        ]
      }
    },
    {
      "type": "Feature",
      "properties": {
        "municipality": "Cajueiro da Praia",
        "state": "PI",
        "crop": "Castanha de caju",
        "hectares": 171.0,
        "production": 171.0,
        "year": 2023,
        "region": "Nordeste",
        "ibge_code": "2202083"
      },
      "geometry": {
        "type": "Point",
        "coordinates": [
          -41.99327262595486,
          -7.63697813961009
        ]
      }
    },
    {
      "type": "Feature",
      "properties": {
        "municipality": "Campo Grande do Piauí",
        "state": "PI",
        "crop": "Castanha de caju",
        "hectares": 1200.0,
        "production": 1200.0,
        "year": 2023,
        "region": "Nordeste",
        "ibge_code": "2202133"
      },
      "geometry": {
        "type": "Point",
        "coordinates": [
          -41.799392477088276,
          -9.493585051915307
        ]
      }
    },
    {
      "type": "Feature",
      "properties": {
        "municipality": "Campo Largo do Piauí",
        "state": "PI",
        "crop": "Castanha de caju",
        "hectares": 12.0,
        "production": 12.0,
        "year": 2023,
        "region": "Nordeste",
        "ibge_code": "2202174"
      },
      "geometry": {
        "type": "Point",
        "coordinates": [
          -42.3766197283299,
          -8.391723121233646
        ]
      }
    },
    {
      "type": "Feature",
      "properties": {
        "municipality": "Campo Maior",
        "state": "PI",
        "crop": "Castanha de caju",
        "hectares": 201.0,
        "production": 201.0,
        "year": 2023,
        "region": "Nordeste",
        "ibge_code": "2202208"
      },
      "geometry": {
        "type": "Point",
        "coordinates": [
          -41.84765521297558,
          -7.8371666457368345
        ]
      }
    },
    {
      "type": "Feature",
      "properties": {
        "municipality": "Canavieira",
        "state": "PI",
        "crop": "Castanha de caju",
        "hectares": 154.0,
        "production": 154.0,
        "year": 2023,
        "region": "Nordeste",
        "ibge_code": "2202251"
      },
      "geometry": {
        "type": "Point",
        "coordinates": [
          -42.961540684169506,
          -8.455662853029885
        ]
      }
    },
    {
      "type": "Feature",
      "properties": {
        "municipality": "Canto do Buriti",
        "state": "PI",
        "crop": "Castanha de caju",
        "hectares": 330.0,
        "production": 330.0,
        "year": 2023,
        "region": "Nordeste",
        "ibge_code": "2202307"
      },
      "geometry": {
        "type": "Point",
        "coordinates": [
          -43.16867115204025,
          -8.776700120042307
        ]
      }
    },
    {
      "type": "Feature",
      "properties": {
        "municipality": "Capitão de Campos",
        "state": "PI",
        "crop": "Castanha de caju",
        "hectares": 365.0,
        "production": 365.0,
        "year": 2023,
        "region": "Nordeste",
        "ibge_code": "2202406"
      },
      "geometry": {
        "type": "Point",
        "coordinates": [
          -43.30929680335442,
          -9.521305043332061
        ]
      }
    },
    {
      "type": "Feature",
      "properties": {
        "municipality": "Caracol",
        "state": "PI",
        "crop": "Castanha de caju",
        "hectares": 19.0,
        "production": 19.0,
        "year": 2023,
        "region": "Nordeste",
        "ibge_code": "2202505"
      },
      "geometry": {
        "type": "Point",
        "coordinates": [
          -42.758069612333514,
          -9.21203361730955
        ]
      }
    },
    {
      "type": "Feature",
      "properties": {
        "municipality": "Caraúbas do Piauí",
        "state": "PI",
        "crop": "Castanha de caju",
        "hectares": 43.0,
        "production": 43.0,
        "year": 2023,
        "region": "Nordeste",
        "ibge_code": "2202539"
      },
      "geometry": {
        "type": "Point",
        "coordinates": [
          -42.68563974580232,
          -7.600912101065117
        ]
      }
    },
    {
      "type": "Feature",
      "properties": {
        "municipality": "Castelo do Piauí",
        "state": "PI",
        "crop": "Castanha de caju",
        "hectares": 140.0,
        "production": 140.0,
        "year": 2023,
        "region": "Nordeste",
        "ibge_code": "2202604"
      },
      "geometry": {
        "type": "Point",
        "coordinates": [
          -43.06175744996065,
          -8.426710808322884
        ]
      }
    },
    {
      "type": "Feature",
      "properties": {
        "municipality": "Caxingó",
        "state": "PI",
        "crop": "Castanha de caju",
        "hectares": 8.0,
        "production": 8.0,
        "year": 2023,
        "region": "Nordeste",
        "ibge_code": "2202653"
      },
      "geometry": {
        "type": "Point",
        "coordinates": [
          -42.67980642620482,
          -9.059229848391633
        ]
      }
    },
    {
      "type": "Feature",
      "properties": {
        "municipality": "Cocal",
        "state": "PI",
        "crop": "Castanha de caju",
        "hectares": 4422.0,
        "production": 4422.0,
        "year": 2023,
        "region": "Nordeste",
        "ibge_code": "2202703"
      },
      "geometry": {
        "type": "Point",
        "coordinates": [
          -42.942709369227366,
          -7.666715609257445
        ]
      }
    },
    {
      "type": "Feature",
      "properties": {
        "municipality": "Cocal de Telha",
        "state": "PI",
        "crop": "Castanha de caju",
        "hectares": 120.0,
        "production": 120.0,
        "year": 2023,
        "region": "Nordeste",
        "ibge_code": "2202711"
      },
      "geometry": {
        "type": "Point",
        "coordinates": [
          -41.78993946599682,
          -8.598116038594808
        ]
      }
    },
    {
      "type": "Feature",
      "properties": {
        "municipality": "Cocal dos Alves",
        "state": "PI",
        "crop": "Castanha de caju",
        "hectares": 3441.0,
        "production": 3441.0,
        "year": 2023,
        "region": "Nordeste",
        "ibge_code": "2202729"
      },
      "geometry": {
        "type": "Point",
        "coordinates": [
          -41.746018924527014,
          -8.18839538719384
        ]
      }
    },
    {
      "type": "Feature",
      "properties": {
        "municipality": "Coivaras",
        "state": "PI",
        "crop": "Castanha de caju",
        "hectares": 835.0,
        "production": 835.0,
        "year": 2023,
        "region": "Nordeste",
        "ibge_code": "2202737"
      },
      "geometry": {
        "type": "Point",
        "coordinates": [
          -43.62934176267823,
          -8.88424323527274
        ]
      }
    },
    {
      "type": "Feature",
      "properties": {
        "municipality": "Colônia do Gurguéia",
        "state": "PI",
        "crop": "Castanha de caju",
        "hectares": 45.0,
        "production": 45.0,
        "year": 2023,
        "region": "Nordeste",
        "ibge_code": "2202752"
      },
      "geometry": {
        "type": "Point",
        "coordinates": [
          -42.796358748136264,
          -9.144419134592077
        ]
      }
    },
    {
      "type": "Feature",
      "properties": {
        "municipality": "Colônia do Piauí",
        "state": "PI",
        "crop": "Castanha de caju",
        "hectares": 70.0,
        "production": 70.0,
        "year": 2023,
        "region": "Nordeste",
        "ibge_code": "2202778"
      },
      "geometry": {
        "type": "Point",
        "coordinates": [
          -42.10238471569124,
          -7.990289349926717
        ]
      }
    },
    {
      "type": "Feature",
      "properties": {
        "municipality": "Cristino Castro",
        "state": "PI",
        "crop": "Castanha de caju",
        "hectares": 19.0,
        "production": 19.0,
        "year": 2023,
        "region": "Nordeste",
        "ibge_code": "2203107"
      },
      "geometry": {
        "type": "Point",
        "coordinates": [
          -42.34681472370738,
          -7.562811871616736
        ]
      }
    },
    {
      "type": "Feature",
      "properties": {
        "municipality": "Currais",
        "state": "PI",
        "crop": "Castanha de caju",
        "hectares": 15.0,
        "production": 15.0,
        "year": 2023,
        "region": "Nordeste",
        "ibge_code": "2203230"
      },
      "geometry": {
        "type": "Point",
        "coordinates": [
          -42.16148478546876,
          -8.196687132431652
        ]
      }
    },
    {
      "type": "Feature",
      "properties": {
        "municipality": "Curralinhos",
        "state": "PI",
        "crop": "Castanha de caju",
        "hectares": 105.0,
        "production": 105.0,
        "year": 2023,
        "region": "Nordeste",
        "ibge_code": "2203255"
      },
      "geometry": {
        "type": "Point",
        "coordinates": [
          -43.190356626860556,
          -8.51734411621296
        ]
      }
    },
    {
      "type": "Feature",
      "properties": {
        "municipality": "Demerval Lobão",
        "state": "PI",
        "crop": "Castanha de caju",
        "hectares": 35.0,
        "production": 35.0,
        "year": 2023,
        "region": "Nordeste",
        "ibge_code": "2203305"
      },
      "geometry": {
        "type": "Point",
        "coordinates": [
          -43.58332309288423,
          -9.09474197006219
        ]
      }
    },
    {
      "type": "Feature",
      "properties": {
        "municipality": "Dom Expedito Lopes",
        "state": "PI",
        "crop": "Castanha de caju",
        "hectares": 823.0,
        "production": 823.0,
        "year": 2023,
        "region": "Nordeste",
        "ibge_code": "2203404"
      },
      "geometry": {
        "type": "Point",
        "coordinates": [
          -43.392251384265606,
          -9.38985895769283
        ]
      }
    },
    {
      "type": "Feature",
      "properties": {
        "municipality": "Domingos Mourão",
        "state": "PI",
        "crop": "Castanha de caju",
        "hectares": 150.0,
        "production": 150.0,
        "year": 2023,
        "region": "Nordeste",
        "ibge_code": "2203420"
      },
      "geometry": {
        "type": "Point",
        "coordinates": [
          -42.13438966806201,
          -7.6948187763109335
        ]
      }
    },
    {
      "type": "Feature",
      "properties": {
        "municipality": "Elesbão Veloso",
        "state": "PI",
        "crop": "Castanha de caju",
        "hectares": 44.0,
        "production": 44.0,
        "year": 2023,
        "region": "Nordeste",
        "ibge_code": "2203503"
      },
      "geometry": {
        "type": "Point",
        "coordinates": [
          -42.344551354725894,
          -9.47979632132524
        ]
      }
    },
    {
      "type": "Feature",
      "properties": {
        "municipality": "Eliseu Martins",
        "state": "PI",
        "crop": "Castanha de caju",
        "hectares": 17.0,
        "production": 17.0,
        "year": 2023,
        "region": "Nordeste",
        "ibge_code": "2203602"
      },
      "geometry": {
        "type": "Point",
        "coordinates": [
          -41.746018924527014,
          -8.18839538719384
        ]
      }
    },
    {
      "type": "Feature",
      "properties": {
        "municipality": "Esperantina",
        "state": "PI",
        "crop": "Castanha de caju",
        "hectares": 377.0,
        "production": 377.0,
        "year": 2023,
        "region": "Nordeste",
        "ibge_code": "2203701"
      },
      "geometry": {
        "type": "Point",
        "coordinates": [
          -43.694432588358765,
          -8.043642241292966
        ]
      }
    },
    {
      "type": "Feature",
      "properties": {
        "municipality": "Flores do Piauí",
        "state": "PI",
        "crop": "Castanha de caju",
        "hectares": 57.0,
        "production": 57.0,
        "year": 2023,
        "region": "Nordeste",
        "ibge_code": "2203800"
      },
      "geometry": {
        "type": "Point",
        "coordinates": [
          -43.48278162897861,
          -8.285957968606542
        ]
      }
    },
    {
      "type": "Feature",
      "properties": {
        "municipality": "Floresta do Piauí",
        "state": "PI",
        "crop": "Castanha de caju",
        "hectares": 6.0,
        "production": 6.0,
        "year": 2023,
        "region": "Nordeste",
        "ibge_code": "2203859"
      },
      "geometry": {
        "type": "Point",
        "coordinates": [
          -42.23348987747264,
          -9.407725471154421
        ]
      }
    },
    {
      "type": "Feature",
      "properties": {
        "municipality": "Floriano",
        "state": "PI",
        "crop": "Castanha de caju",
        "hectares": 966.0,
        "production": 966.0,
        "year": 2023,
        "region": "Nordeste",
        "ibge_code": "2203909"
      },
      "geometry": {
        "type": "Point",
        "coordinates": [
          -42.72800915443188,
          -7.8978467221166895
        ]
      }
    },
    {
      "type": "Feature",
      "properties": {
        "municipality": "Francinópolis",
        "state": "PI",
        "crop": "Castanha de caju",
        "hectares": 30.0,
        "production": 30.0,
        "year": 2023,
        "region": "Nordeste",
        "ibge_code": "2204006"
      },
      "geometry": {
        "type": "Point",
        "coordinates": [
          -42.21604211293186,
          -9.181801287266744
        ]
      }
    },
    {
      "type": "Feature",
      "properties": {
        "municipality": "Francisco Ayres",
        "state": "PI",
        "crop": "Castanha de caju",
        "hectares": 25.0,
        "production": 25.0,
        "year": 2023,
        "region": "Nordeste",
        "ibge_code": "2204105"
      },
      "geometry": {
        "type": "Point",
        "coordinates": [
          -43.38206668962762,
          -8.049526834403313
        ]
      }
    },
    {
      "type": "Feature",
      "properties": {
        "municipality": "Francisco Santos",
        "state": "PI",
        "crop": "Castanha de caju",
        "hectares": 2080.0,
        "production": 2080.0,
        "year": 2023,
        "region": "Nordeste",
        "ibge_code": "2204204"
      },
      "geometry": {
        "type": "Point",
        "coordinates": [
          -42.029716739630814,
          -8.265863194181293
        ]
      }
    },
    {
      "type": "Feature",
      "properties": {
        "municipality": "Geminiano",
        "state": "PI",
        "crop": "Castanha de caju",
        "hectares": 900.0,
        "production": 900.0,
        "year": 2023,
        "region": "Nordeste",
        "ibge_code": "2204352"
      },
      "geometry": {
        "type": "Point",
        "coordinates": [
          -42.16148478546876,
          -8.196687132431652
        ]
      }
    },
    {
      "type": "Feature",
      "properties": {
        "municipality": "Gilbués",
        "state": "PI",
        "crop": "Castanha de caju",
        "hectares": 20.0,
        "production": 20.0,
        "year": 2023,
        "region": "Nordeste",
        "ibge_code": "2204402"
      },
      "geometry": {
        "type": "Point",
        "coordinates": [
          -42.074679445101616,
          -8.844103586474557
        ]
      }
    },
    {
      "type": "Feature",
      "properties": {
        "municipality": "Guadalupe",
        "state": "PI",
        "crop": "Castanha de caju",
        "hectares": 5.0,
        "production": 5.0,
        "year": 2023,
        "region": "Nordeste",
        "ibge_code": "2204501"
      },
      "geometry": {
        "type": "Point",
        "coordinates": [
          -42.132010274950474,
          -7.777015060166845
        ]
      }
    },
    {
      "type": "Feature",
      "properties": {
        "municipality": "Guaribas",
        "state": "PI",
        "crop": "Castanha de caju",
        "hectares": 10.0,
        "production": 10.0,
        "year": 2023,
        "region": "Nordeste",
        "ibge_code": "2204550"
      },
      "geometry": {
        "type": "Point",
        "coordinates": [
          -42.703646367493086,
          -7.70275044890245
        ]
      }
    },
    {
      "type": "Feature",
      "properties": {
        "municipality": "Hugo Napoleão",
        "state": "PI",
        "crop": "Castanha de caju",
        "hectares": 138.0,
        "production": 138.0,
        "year": 2023,
        "region": "Nordeste",
        "ibge_code": "2204600"
      },
      "geometry": {
        "type": "Point",
        "coordinates": [
          -42.85594893861087,
          -7.719532598867844
        ]
      }
    },
    {
      "type": "Feature",
      "properties": {
        "municipality": "Ilha Grande",
        "state": "PI",
        "crop": "Castanha de caju",
        "hectares": 10.0,
        "production": 10.0,
        "year": 2023,
        "region": "Nordeste",
        "ibge_code": "2204659"
      },
      "geometry": {
        "type": "Point",
        "coordinates": [
          -42.319868480594145,
          -9.511436448570741
        ]
      }
    },
    {
      "type": "Feature",
      "properties": {
        "municipality": "Inhuma",
        "state": "PI",
        "crop": "Castanha de caju",
        "hectares": 1530.0,
        "production": 1530.0,
        "year": 2023,
        "region": "Nordeste",
        "ibge_code": "2204709"
      },
      "geometry": {
        "type": "Point",
        "coordinates": [
          -42.85848660209929,
          -9.518926092190629
        ]
      }
    },
    {
      "type": "Feature",
      "properties": {
        "municipality": "Ipiranga do Piauí",
        "state": "PI",
        "crop": "Castanha de caju",
        "hectares": 505.0,
        "production": 505.0,
        "year": 2023,
        "region": "Nordeste",
        "ibge_code": "2204808"
      },
      "geometry": {
        "type": "Point",
        "coordinates": [
          -43.435301652151,
          -8.909234470333676
        ]
      }
    },
    {
      "type": "Feature",
      "properties": {
        "municipality": "Isaías Coelho",
        "state": "PI",
        "crop": "Castanha de caju",
        "hectares": 18.0,
        "production": 18.0,
        "year": 2023,
        "region": "Nordeste",
        "ibge_code": "2204907"
      },
      "geometry": {
        "type": "Point",
        "coordinates": [
          -43.232044617100456,
          -9.51719892107114
        ]
      }
    },
    {
      "type": "Feature",
      "properties": {
        "municipality": "Itainópolis",
        "state": "PI",
        "crop": "Castanha de caju",
        "hectares": 74.0,
        "production": 74.0,
        "year": 2023,
        "region": "Nordeste",
        "ibge_code": "2205003"
      },
      "geometry": {
        "type": "Point",
        "coordinates": [
          -41.8765566398846,
          -7.601529916679742
        ]
      }
    },
    {
      "type": "Feature",
      "properties": {
        "municipality": "Itaueira",
        "state": "PI",
        "crop": "Castanha de caju",
        "hectares": 142.0,
        "production": 142.0,
        "year": 2023,
        "region": "Nordeste",
        "ibge_code": "2205102"
      },
      "geometry": {
        "type": "Point",
        "coordinates": [
          -43.46071657457131,
          -8.745668715326172
        ]
      }
    },
    {
      "type": "Feature",
      "properties": {
        "municipality": "Jaicós",
        "state": "PI",
        "crop": "Castanha de caju",
        "hectares": 1635.0,
        "production": 1635.0,
        "year": 2023,
        "region": "Nordeste",
        "ibge_code": "2205201"
      },
      "geometry": {
        "type": "Point",
        "coordinates": [
          -43.45949792527761,
          -8.903475313401522
        ]
      }
    },
    {
      "type": "Feature",
      "properties": {
        "municipality": "Jardim do Mulato",
        "state": "PI",
        "crop": "Castanha de caju",
        "hectares": 100.0,
        "production": 100.0,
        "year": 2023,
        "region": "Nordeste",
        "ibge_code": "2205250"
      },
      "geometry": {
        "type": "Point",
        "coordinates": [
          -43.545325383046396,
          -8.188418095175853
        ]
      }
    },
    {
      "type": "Feature",
      "properties": {
        "municipality": "Jatobá do Piauí",
        "state": "PI",
        "crop": "Castanha de caju",
        "hectares": 80.0,
        "production": 80.0,
        "year": 2023,
        "region": "Nordeste",
        "ibge_code": "2205276"
      },
      "geometry": {
        "type": "Point",
        "coordinates": [
          -42.5163402279546,
          -9.533979508243348
        ]
      }
    },
    {
      "type": "Feature",
      "properties": {
        "municipality": "Joaquim Pires",
        "state": "PI",
        "crop": "Castanha de caju",
        "hectares": 150.0,
        "production": 150.0,
        "year": 2023,
        "region": "Nordeste",
        "ibge_code": "2205409"
      },
      "geometry": {
        "type": "Point",
        "coordinates": [
          -43.58566568390463,
          -7.57016464875771
        ]
      }
    },
    {
      "type": "Feature",
      "properties": {
        "municipality": "Joca Marques",
        "state": "PI",
        "crop": "Castanha de caju",
        "hectares": 35.0,
        "production": 35.0,
        "year": 2023,
        "region": "Nordeste",
        "ibge_code": "2205458"
      },
      "geometry": {
        "type": "Point",
        "coordinates": [
          -42.674867009053045,
          -9.41434521608288
        ]
      }
    },
    {
      "type": "Feature",
      "properties": {
        "municipality": "José de Freitas",
        "state": "PI",
        "crop": "Castanha de caju",
        "hectares": 170.0,
        "production": 170.0,
        "year": 2023,
        "region": "Nordeste",
        "ibge_code": "2205508"
      },
      "geometry": {
        "type": "Point",
        "coordinates": [
          -42.23702065996216,
          -9.544247427385695
        ]
      }
    },
    {
      "type": "Feature",
      "properties": {
        "municipality": "Juazeiro do Piauí",
        "state": "PI",
        "crop": "Castanha de caju",
        "hectares": 34.0,
        "production": 34.0,
        "year": 2023,
        "region": "Nordeste",
        "ibge_code": "2205516"
      },
      "geometry": {
        "type": "Point",
        "coordinates": [
          -43.52315649206964,
          -9.236537244232002
        ]
      }
    },
    {
      "type": "Feature",
      "properties": {
        "municipality": "Lagoinha do Piauí",
        "state": "PI",
        "crop": "Castanha de caju",
        "hectares": 30.0,
        "production": 30.0,
        "year": 2023,
        "region": "Nordeste",
        "ibge_code": "2205540"
      },
      "geometry": {
        "type": "Point",
        "coordinates": [
          -42.96093054076063,
          -7.688376074592055
        ]
      }
    },
    {
      "type": "Feature",
      "properties": {
        "municipality": "Lagoa Alegre",
        "state": "PI",
        "crop": "Castanha de caju",
        "hectares": 35.0,
        "production": 35.0,
        "year": 2023,
        "region": "Nordeste",
        "ibge_code": "2205557"
      },
      "geometry": {
        "type": "Point",
        "coordinates": [
          -41.899726178160144,
          -9.20102553753352
        ]
      }
    },
    {
      "type": "Feature",
      "properties": {
        "municipality": "Lagoa de São Francisco",
        "state": "PI",
        "crop": "Castanha de caju",
        "hectares": 91.0,
        "production": 91.0,
        "year": 2023,
        "region": "Nordeste",
        "ibge_code": "2205573"
      },
      "geometry": {
        "type": "Point",
        "coordinates": [
          -42.78371172753846,
          -8.945322207086855
        ]
      }
    },
    {
      "type": "Feature",
      "properties": {
        "municipality": "Lagoa do Piauí",
        "state": "PI",
        "crop": "Castanha de caju",
        "hectares": 68.0,
        "production": 68.0,
        "year": 2023,
        "region": "Nordeste",
        "ibge_code": "2205581"
      },
      "geometry": {
        "type": "Point",
        "coordinates": [
          -42.39192523538045,
          -8.767860236629579
        ]
      }
    },
    {
      "type": "Feature",
      "properties": {
        "municipality": "Lagoa do Sítio",
        "state": "PI",
        "crop": "Castanha de caju",
        "hectares": 472.0,
        "production": 472.0,
        "year": 2023,
        "region": "Nordeste",
        "ibge_code": "2205599"
      },
      "geometry": {
        "type": "Point",
        "coordinates": [
          -42.16717728782578,
          -8.20264834639946
        ]
      }
    },
    {
      "type": "Feature",
      "properties": {
        "municipality": "Landri Sales",
        "state": "PI",
        "crop": "Castanha de caju",
        "hectares": 112.0,
        "production": 112.0,
        "year": 2023,
        "region": "Nordeste",
        "ibge_code": "2205607"
      },
      "geometry": {
        "type": "Point",
        "coordinates": [
          -42.23601776233477,
          -9.329469623933202
        ]
      }
    },
    {
      "type": "Feature",
      "properties": {
        "municipality": "Luís Correia",
        "state": "PI",
        "crop": "Castanha de caju",
        "hectares": 1759.0,
        "production": 1759.0,
        "year": 2023,
        "region": "Nordeste",
        "ibge_code": "2205706"
      },
      "geometry": {
        "type": "Point",
        "coordinates": [
          -42.78998436368998,
          -7.754176879303212
        ]
      }
    },
    {
      "type": "Feature",
      "properties": {
        "municipality": "Luzilândia",
        "state": "PI",
        "crop": "Castanha de caju",
        "hectares": 65.0,
        "production": 65.0,
        "year": 2023,
        "region": "Nordeste",
        "ibge_code": "2205805"
      },
      "geometry": {
        "type": "Point",
        "coordinates": [
          -42.65949635590255,
          -9.494482624021517
        ]
      }
    },
    {
      "type": "Feature",
      "properties": {
        "municipality": "Madeiro",
        "state": "PI",
        "crop": "Castanha de caju",
        "hectares": 30.0,
        "production": 30.0,
        "year": 2023,
        "region": "Nordeste",
        "ibge_code": "2205854"
      },
      "geometry": {
        "type": "Point",
        "coordinates": [
          -43.48278162897861,
          -8.285957968606542
        ]
      }
    },
    {
      "type": "Feature",
      "properties": {
        "municipality": "Manoel Emídio",
        "state": "PI",
        "crop": "Castanha de caju",
        "hectares": 280.0,
        "production": 280.0,
        "year": 2023,
        "region": "Nordeste",
        "ibge_code": "2205904"
      },
      "geometry": {
        "type": "Point",
        "coordinates": [
          -42.130026733377186,
          -9.201340443505181
        ]
      }
    },
    {
      "type": "Feature",
      "properties": {
        "municipality": "Marcos Parente",
        "state": "PI",
        "crop": "Castanha de caju",
        "hectares": 20.0,
        "production": 20.0,
        "year": 2023,
        "region": "Nordeste",
        "ibge_code": "2206001"
      },
      "geometry": {
        "type": "Point",
        "coordinates": [
          -43.02598506851128,
          -8.589761953155056
        ]
      }
    },
    {
      "type": "Feature",
      "properties": {
        "municipality": "Massapê do Piauí",
        "state": "PI",
        "crop": "Castanha de caju",
        "hectares": 134.0,
        "production": 134.0,
        "year": 2023,
        "region": "Nordeste",
        "ibge_code": "2206050"
      },
      "geometry": {
        "type": "Point",
        "coordinates": [
          -42.90781818187801,
          -8.872300694892463
        ]
      }
    },
    {
      "type": "Feature",
      "properties": {
        "municipality": "Matias Olímpio",
        "state": "PI",
        "crop": "Castanha de caju",
        "hectares": 25.0,
        "production": 25.0,
        "year": 2023,
        "region": "Nordeste",
        "ibge_code": "2206100"
      },
      "geometry": {
        "type": "Point",
        "coordinates": [
          -42.96912119003692,
          -8.237206739129856
        ]
      }
    },
    {
      "type": "Feature",
      "properties": {
        "municipality": "Miguel Alves",
        "state": "PI",
        "crop": "Castanha de caju",
        "hectares": 75.0,
        "production": 75.0,
        "year": 2023,
        "region": "Nordeste",
        "ibge_code": "2206209"
      },
      "geometry": {
        "type": "Point",
        "coordinates": [
          -43.46204396082554,
          -7.729614054890218
        ]
      }
    },
    {
      "type": "Feature",
      "properties": {
        "municipality": "Milton Brandão",
        "state": "PI",
        "crop": "Castanha de caju",
        "hectares": 605.0,
        "production": 605.0,
        "year": 2023,
        "region": "Nordeste",
        "ibge_code": "2206357"
      },
      "geometry": {
        "type": "Point",
        "coordinates": [
          -41.75560093897226,
          -9.147117549877311
        ]
      }
    },
    {
      "type": "Feature",
      "properties": {
        "municipality": "Monsenhor Gil",
        "state": "PI",
        "crop": "Castanha de caju",
        "hectares": 31.0,
        "production": 31.0,
        "year": 2023,
        "region": "Nordeste",
        "ibge_code": "2206407"
      },
      "geometry": {
        "type": "Point",
        "coordinates": [
          -42.143465749194654,
          -9.210553795840394
        ]
      }
    },
    {
      "type": "Feature",
      "properties": {
        "municipality": "Monsenhor Hipólito",
        "state": "PI",
        "crop": "Castanha de caju",
        "hectares": 2600.0,
        "production": 2600.0,
        "year": 2023,
        "region": "Nordeste",
        "ibge_code": "2206506"
      },
      "geometry": {
        "type": "Point",
        "coordinates": [
          -43.33149473530818,
          -8.062317467553434
        ]
      }
    },
    {
      "type": "Feature",
      "properties": {
        "municipality": "Morro do Chapéu do Piauí",
        "state": "PI",
        "crop": "Castanha de caju",
        "hectares": 54.0,
        "production": 54.0,
        "year": 2023,
        "region": "Nordeste",
        "ibge_code": "2206670"
      },
      "geometry": {
        "type": "Point",
        "coordinates": [
          -43.58398604431639,
          -7.935754228119114
        ]
      }
    },
    {
      "type": "Feature",
      "properties": {
        "municipality": "Murici dos Portelas",
        "state": "PI",
        "crop": "Castanha de caju",
        "hectares": 297.0,
        "production": 297.0,
        "year": 2023,
        "region": "Nordeste",
        "ibge_code": "2206696"
      },
      "geometry": {
        "type": "Point",
        "coordinates": [
          -42.65318681105112,
          -9.01391777348011
        ]
      }
    },
    {
      "type": "Feature",
      "properties": {
        "municipality": "Nazária",
        "state": "PI",
        "crop": "Castanha de caju",
        "hectares": 95.0,
        "production": 95.0,
        "year": 2023,
        "region": "Nordeste",
        "ibge_code": "2206720"
      },
      "geometry": {
        "type": "Point",
        "coordinates": [
          -43.37736210270937,
          -7.704274282985972
        ]
      }
    },
    {
      "type": "Feature",
      "properties": {
        "municipality": "Nossa Senhora de Nazaré",
        "state": "PI",
        "crop": "Castanha de caju",
        "hectares": 89.0,
        "production": 89.0,
        "year": 2023,
        "region": "Nordeste",
        "ibge_code": "2206753"
      },
      "geometry": {
        "type": "Point",
        "coordinates": [
          -43.71369061241572,
          -7.626415716895755
        ]
      }
    },
    {
      "type": "Feature",
      "properties": {
        "municipality": "Nossa Senhora dos Remédios",
        "state": "PI",
        "crop": "Castanha de caju",
        "hectares": 12.0,
        "production": 12.0,
        "year": 2023,
        "region": "Nordeste",
        "ibge_code": "2206803"
      },
      "geometry": {
        "type": "Point",
        "coordinates": [
          -43.51940429218059,
          -8.956175255403782
        ]
      }
    },
    {
      "type": "Feature",
      "properties": {
        "municipality": "Novo Oriente do Piauí",
        "state": "PI",
        "crop": "Castanha de caju",
        "hectares": 225.0,
        "production": 225.0,
        "year": 2023,
        "region": "Nordeste",
        "ibge_code": "2206902"
      },
      "geometry": {
        "type": "Point",
        "coordinates": [
          -43.403323898280775,
          -8.829133726733831
        ]
      }
    },
    {
      "type": "Feature",
      "properties": {
        "municipality": "Novo Santo Antônio",
        "state": "PI",
        "crop": "Castanha de caju",
        "hectares": 3.0,
        "production": 3.0,
        "year": 2023,
        "region": "Nordeste",
        "ibge_code": "2206951"
      },
      "geometry": {
        "type": "Point",
        "coordinates": [
          -42.63801918443553,
          -9.477774047219935
        ]
      }
    },
    {
      "type": "Feature",
      "properties": {
        "municipality": "Oeiras",
        "state": "PI",
        "crop": "Castanha de caju",
        "hectares": 240.0,
        "production": 240.0,
        "year": 2023,
        "region": "Nordeste",
        "ibge_code": "2207009"
      },
      "geometry": {
        "type": "Point",
        "coordinates": [
          -42.216734150217135,
          -9.277002918920374
        ]
      }
    },
    {
      "type": "Feature",
      "properties": {
        "municipality": "Olho D'Água do Piauí",
        "state": "PI",
        "crop": "Castanha de caju",
        "hectares": 56.0,
        "production": 56.0,
        "year": 2023,
        "region": "Nordeste",
        "ibge_code": "2207108"
      },
      "geometry": {
        "type": "Point",
        "coordinates": [
          -42.53738963934446,
          -7.914184937120822
        ]
      }
    },