{
  "type": "FeatureCollection",
  "name": "Coco-da-baía*_production",
  "features": [
    {
      "type": "Feature",
      "properties": {
        "municipality": "Alta Floresta D'Oeste",
        "state": "RO",
        "crop": "Coco-da-baía*",
        "hectares": 2.0,
        "production": 2.0,
        "year": 2023,
        "region": "Norte",
        "ibge_code": "1100015"
      },
      "geometry": {
        "type": "Point",
        "coordinates": [
          -63.47108362081896,
          -10.656134520148264
        ]
      }
    },
    {
      "type": "Feature",
      "properties": {
        "municipality": "Ariquemes",
        "state": "RO",
        "crop": "Coco-da-baía*",
        "hectares": 6.0,
        "production": 6.0,
        "year": 2023,
        "region": "Norte",
        "ibge_code": "1100023"
      },
      "geometry": {
        "type": "Point",
        "coordinates": [
          -64.07564461710045,
          -12.465998921071138
        ]
      }
    },
    {
      "type": "Feature",
      "properties": {
        "municipality": "Cabixi",
        "state": "RO",
        "crop": "Coco-da-baía*",
        "hectares": 1.0,
        "production": 1.0,
        "year": 2023,
        "region": "Norte",
        "ibge_code": "1100031"
      },
      "geometry": {
        "type": "Point",
        "coordinates": [
          -63.09702602147854,
          -11.259896610220595
        ]
      }
    },
    {
      "type": "Feature",
      "properties": {
        "municipality": "Cacoal",
        "state": "RO",
        "crop": "Coco-da-baía*",
        "hectares": 7.0,
        "production": 7.0,
        "year": 2023,
        "region": "Norte",
        "ibge_code": "1100049"
      },
      "geometry": {
        "type": "Point",
        "coordinates": [
          -62.79958886846444,
          -12.106099838063882
        ]
      }
    },
    {
      "type": "Feature",
      "properties": {
        "municipality": "Cerejeiras",
        "state": "RO",
        "crop": "Coco-da-baía*",
        "hectares": 2.0,
        "production": 2.0,
        "year": 2023,
        "region": "Norte",
        "ibge_code": "1100056"
      },
      "geometry": {
        "type": "Point",
        "coordinates": [
          -64.47696670463657,
          -11.617781211289145
        ]
      }
    },
    {
      "type": "Feature",
      "properties": {
        "municipality": "Colorado do Oeste",
        "state": "RO",
        "crop": "Coco-da-baía*",
        "hectares": 3.0,
        "production": 3.0,
        "year": 2023,
        "region": "Norte",
        "ibge_code": "1100064"
      },
      "geometry": {
        "type": "Point",
        "coordinates": [
          -64.20053708514064,
          -12.378133038890928
        ]
      }
    },
    {
      "type": "Feature",
      "properties": {
        "municipality": "Corumbiara",
        "state": "RO",
        "crop": "Coco-da-baía*",
        "hectares": 1.0,
        "production": 1.0,
        "year": 2023,
        "region": "Norte",
        "ibge_code": "1100072"
      },
      "geometry": {
        "type": "Point",
        "coordinates": [
          -63.15845788701966,
          -11.206901103516405
        ]
      }
    },
    {
      "type": "Feature",
      "properties": {
        "municipality": "Espigão D'Oeste",
        "state": "RO",
        "crop": "Coco-da-baía*",
        "hectares": 2.0,
        "production": 2.0,
        "year": 2023,
        "region": "Norte",
        "ibge_code": "1100098"
      },
      "geometry": {
        "type": "Point",
        "coordinates": [
          -62.91591681003188,
          -10.514150067944508
        ]
      }
    },
    {
      "type": "Feature",
      "properties": {
        "municipality": "Guajará-Mirim",
        "state": "RO",
        "crop": "Coco-da-baía*",
        "hectares": 3.0,
        "production": 3.0,
        "year": 2023,
        "region": "Norte",
        "ibge_code": "1100106"
      },
      "geometry": {
        "type": "Point",
        "coordinates": [
          -63.76515579784139,
          -11.680842345491442
        ]
      }
    },
    {
      "type": "Feature",
      "properties": {
        "municipality": "Ji-Paraná",
        "state": "RO",
        "crop": "Coco-da-baía*",
        "hectares": 4.0,
        "production": 4.0,
        "year": 2023,
        "region": "Norte",
        "ibge_code": "1100122"
      },
      "geometry": {
        "type": "Point",
        "coordinates": [
          -63.54652753575108,
          -11.014580747632994
        ]
      }
    },
    {
      "type": "Feature",
      "properties": {
        "municipality": "Machadinho D'Oeste",
        "state": "RO",
        "crop": "Coco-da-baía*",
        "hectares": 1.0,
        "production": 1.0,
        "year": 2023,
        "region": "Norte",
        "ibge_code": "1100130"
      },
      "geometry": {
        "type": "Point",
        "coordinates": [
          -63.35799059545948,
          -11.196820362076354
        ]
      }
    },
    {
      "type": "Feature",
      "properties": {
        "municipality": "Nova Brasilândia D'Oeste",
        "state": "RO",
        "crop": "Coco-da-baía*",
        "hectares": 2.0,
        "production": 2.0,
        "year": 2023,
        "region": "Norte",
        "ibge_code": "1100148"
      },
      "geometry": {
        "type": "Point",
        "coordinates": [
          -63.36481135333994,
          -11.38568795223679
        ]
      }
    },
    {
      "type": "Feature",
      "properties": {
        "municipality": "Ouro Preto do Oeste",
        "state": "RO",
        "crop": "Coco-da-baía*",
        "hectares": 3.0,
        "production": 3.0,
        "year": 2023,
        "region": "Norte",
        "ibge_code": "1100155"
      },
      "geometry": {
        "type": "Point",
        "coordinates": [
          -64.41508377555539,
          -12.257183906040966
        ]
      }
    },
    {
      "type": "Feature",
      "properties": {
        "municipality": "Pimenta Bueno",
        "state": "RO",
        "crop": "Coco-da-baía*",
        "hectares": 2.0,
        "production": 2.0,
        "year": 2023,
        "region": "Norte",
        "ibge_code": "1100189"
      },
      "geometry": {
        "type": "Point",
        "coordinates": [
          -64.31705216245875,
          -12.472782318589406
        ]
      }
    },
    {
      "type": "Feature",
      "properties": {
        "municipality": "Porto Velho",
        "state": "RO",
        "crop": "Coco-da-baía*",
        "hectares": 85.0,
        "production": 85.0,
        "year": 2023,
        "region": "Norte",
        "ibge_code": "1100205"
      },
      "geometry": {
        "type": "Point",
        "coordinates": [
          -63.63358436368998,
          -10.70297687930321
        ]
      }
    },
    {
      "type": "Feature",
      "properties": {
        "municipality": "Rolim de Moura",
        "state": "RO",
        "crop": "Coco-da-baía*",
        "hectares": 7.0,
        "production": 7.0,
        "year": 2023,
        "region": "Norte",
        "ibge_code": "1100288"
      },
      "geometry": {
        "type": "Point",
        "coordinates": [
          -64.27038086711889,
          -10.87933364579586
        ]
      }
    },
    {
      "type": "Feature",
      "properties": {
        "municipality": "Santa Luzia D'Oeste",
        "state": "RO",
        "crop": "Coco-da-baía*",
        "hectares": 1.0,
        "production": 1.0,
        "year": 2023,
        "region": "Norte",
        "ibge_code": "1100296"
      },
      "geometry": {
        "type": "Point",
        "coordinates": [
          -62.58344991353287,
          -10.696014596018466
        ]
      }
    },
    {
      "type": "Feature",
      "properties": {
        "municipality": "Nova Mamoré",
        "state": "RO",
        "crop": "Coco-da-baía*",
        "hectares": 1.0,
        "production": 1.0,
        "year": 2023,
        "region": "Norte",
        "ibge_code": "1100338"
      },
      "geometry": {
        "type": "Point",
        "coordinates": [
          -62.836082238306204,
          -11.40668837618645
        ]
      }
    },
    {
      "type": "Feature",
      "properties": {
        "municipality": "Alto Alegre dos Parecis",
        "state": "RO",
        "crop": "Coco-da-baía*",
        "hectares": 1.0,
        "production": 1.0,
        "year": 2023,
        "region": "Norte",
        "ibge_code": "1100379"
      },
      "geometry": {
        "type": "Point",
        "coordinates": [
          -63.599844517858365,
          -10.990922536568295
        ]
      }
    },
    {
      "type": "Feature",
      "properties": {
        "municipality": "Alto Paraíso",
        "state": "RO",
        "crop": "Coco-da-baía*",
        "hectares": 2.0,
        "production": 2.0,
        "year": 2023,
        "region": "Norte",
        "ibge_code": "1100403"
      },
      "geometry": {
        "type": "Point",
        "coordinates": [
          -64.3043165745713,
          -11.69446871532617
        ]
      }
    },
    {
      "type": "Feature",
      "properties": {
        "municipality": "Cacaulândia",
        "state": "RO",
        "crop": "Coco-da-baía*",
        "hectares": 5.0,
        "production": 5.0,
        "year": 2023,
        "region": "Norte",
        "ibge_code": "1100601"
      },
      "geometry": {
        "type": "Point",
        "coordinates": [
          -62.643838963814304,
          -10.665928757355275
        ]
      }
    },
    {
      "type": "Feature",
      "properties": {
        "municipality": "Candeias do Jamari",
        "state": "RO",
        "crop": "Coco-da-baía*",
        "hectares": 10.0,
        "production": 10.0,
        "year": 2023,
        "region": "Norte",
        "ibge_code": "1100809"
      },
      "geometry": {
        "type": "Point",
        "coordinates": [
          -62.784453531868145,
          -11.272358836389603
        ]
      }
    },
    {
      "type": "Feature",
      "properties": {
        "municipality": "Chupinguaia",
        "state": "RO",
        "crop": "Coco-da-baía*",
        "hectares": 2.0,
        "production": 2.0,
        "year": 2023,
        "region": "Norte",
        "ibge_code": "1100924"
      },
      "geometry": {
        "type": "Point",
        "coordinates": [
          -62.759677440502905,
          -12.190954971005938
        ]
      }
    },
    {
      "type": "Feature",
      "properties": {
        "municipality": "Governador Jorge Teixeira",
        "state": "RO",
        "crop": "Coco-da-baía*",
        "hectares": 2.0,
        "production": 2.0,
        "year": 2023,
        "region": "Norte",
        "ibge_code": "1101005"
      },
      "geometry": {
        "type": "Point",
        "coordinates": [
          -63.20907622560592,
          -11.174479049667092
        ]
      }
    },
    {
      "type": "Feature",
      "properties": {
        "municipality": "Itapuã do Oeste",
        "state": "RO",
        "crop": "Coco-da-baía*",
        "hectares": 12.0,
        "production": 12.0,
        "year": 2023,
        "region": "Norte",
        "ibge_code": "1101104"
      },
      "geometry": {
        "type": "Point",
        "coordinates": [
          -63.776151391294626,
          -10.514610080263935
        ]
      }
    },
    {
      "type": "Feature",
      "properties": {
        "municipality": "Mirante da Serra",
        "state": "RO",
        "crop": "Coco-da-baía*",
        "hectares": 1.0,
        "production": 1.0,
        "year": 2023,
        "region": "Norte",
        "ibge_code": "1101302"
      },
      "geometry": {
        "type": "Point",
        "coordinates": [
          -63.48499549300005,
          -11.961857622275188
        ]
      }
    },
    {
      "type": "Feature",
      "properties": {
        "municipality": "Monte Negro",
        "state": "RO",
        "crop": "Coco-da-baía*",
        "hectares": 6.0,
        "production": 6.0,
        "year": 2023,
        "region": "Norte",
        "ibge_code": "1101401"
      },
      "geometry": {
        "type": "Point",
        "coordinates": [
          -63.62561435364165,
          -12.316551245877804
        ]
      }
    },
    {
      "type": "Feature",
      "properties": {
        "municipality": "Pimenteiras do Oeste",
        "state": "RO",
        "crop": "Coco-da-baía*",
        "hectares": 2.0,
        "production": 2.0,
        "year": 2023,
        "region": "Norte",
        "ibge_code": "1101468"
      },
      "geometry": {
        "type": "Point",
        "coordinates": [
          -64.16915200203783,
          -11.344185670132086
        ]
      }
    },
    {
      "type": "Feature",
      "properties": {
        "municipality": "Seringueiras",
        "state": "RO",
        "crop": "Coco-da-baía*",
        "hectares": 2.0,
        "production": 2.0,
        "year": 2023,
        "region": "Norte",
        "ibge_code": "1101500"
      },
      "geometry": {
        "type": "Point",
        "coordinates": [
          -62.949331273934966,
          -12.244659540198658
        ]
      }
    },
    {
      "type": "Feature",
      "properties": {
        "municipality": "Vale do Paraíso",
        "state": "RO",
        "crop": "Coco-da-baía*",
        "hectares": 4.0,
        "production": 4.0,
        "year": 2023,
        "region": "Norte",
        "ibge_code": "1101807"
      },
      "geometry": {
        "type": "Point",
        "coordinates": [
          -64.3959981009997,
          -10.511338329591068
        ]
      }
    },
    {
      "type": "Feature",
      "properties": {
        "municipality": "Acrelândia",
        "state": "AC",
        "crop": "Coco-da-baía*",
        "hectares": 5.0,
        "production": 5.0,
        "year": 2023,
        "region": "Norte",
        "ibge_code": "1200013"
      },
      "geometry": {
        "type": "Point",
        "coordinates": [
          -70.59514436812134,
          -8.117808694532357
        ]
      }
    },
    {
      "type": "Feature",
      "properties": {
        "municipality": "Assis Brasil",
        "state": "AC",
        "crop": "Coco-da-baía*",
        "hectares": 3.0,
        "production": 3.0,
        "year": 2023,
        "region": "Norte",
        "ibge_code": "1200054"
      },
      "geometry": {
        "type": "Point",
        "coordinates": [
          -69.82344697390286,
          -10.02142877421514
        ]
      }
    },
    {
      "type": "Feature",
      "properties": {
        "municipality": "Brasiléia",
        "state": "AC",
        "crop": "Coco-da-baía*",
        "hectares": 4.0,
        "production": 4.0,
        "year": 2023,
        "region": "Norte",
        "ibge_code": "1200104"
      },
      "geometry": {
        "type": "Point",
        "coordinates": [
          -70.209389668062,
          -8.161718776310932
        ]
      }
    },
    {
      "type": "Feature",
      "properties": {
        "municipality": "Bujari",
        "state": "AC",
        "crop": "Coco-da-baía*",
        "hectares": 9.0,
        "production": 9.0,
        "year": 2023,
        "region": "Norte",
        "ibge_code": "1200138"
      },
      "geometry": {
        "type": "Point",
        "coordinates": [
          -70.18073127393497,
          -9.762759540198658
        ]
      }
    },
    {
      "type": "Feature",
      "properties": {
        "municipality": "Capixaba",
        "state": "AC",
        "crop": "Coco-da-baía*",
        "hectares": 3.0,
        "production": 3.0,
        "year": 2023,
        "region": "Norte",
        "ibge_code": "1200179"
      },
      "geometry": {
        "type": "Point",
        "coordinates": [
          -70.47982488555012,
          -9.061306731853383
        ]
      }
    },
    {
      "type": "Feature",
      "properties": {
        "municipality": "Cruzeiro do Sul",
        "state": "AC",
        "crop": "Coco-da-baía*",
        "hectares": 25.0,
        "production": 25.0,
        "year": 2023,
        "region": "Norte",
        "ibge_code": "1200203"
      },
      "geometry": {
        "type": "Point",
        "coordinates": [
          -70.0298775641068,
          -9.104297642283615
        ]
      }
    },
    {
      "type": "Feature",
      "properties": {
        "municipality": "Epitaciolândia",
        "state": "AC",
        "crop": "Coco-da-baía*",
        "hectares": 7.0,
        "production": 7.0,
        "year": 2023,
        "region": "Norte",
        "ibge_code": "1200252"
      },
      "geometry": {
        "type": "Point",
        "coordinates": [
          -70.0674822383062,
          -8.92478837618645
        ]
      }
    },
    {
      "type": "Feature",
      "properties": {
        "municipality": "Feijó",
        "state": "AC",
        "crop": "Coco-da-baía*",
        "hectares": 7.0,
        "production": 7.0,
        "year": 2023,
        "region": "Norte",
        "ibge_code": "1200302"
      },
      "geometry": {
        "type": "Point",
        "coordinates": [
          -70.00511042723109,
          -8.60073080746991
        ]
      }
    },
    {
      "type": "Feature",
      "properties": {
        "municipality": "Mâncio Lima",
        "state": "AC",
        "crop": "Coco-da-baía*",
        "hectares": 17.0,
        "production": 17.0,
        "year": 2023,
        "region": "Norte",
        "ibge_code": "1200336"
      },
      "geometry": {
        "type": "Point",
        "coordinates": [
          -69.85428861893537,
          -9.741325872091588
        ]
      }
    },
    {
      "type": "Feature",
      "properties": {
        "municipality": "Manoel Urbano",
        "state": "AC",
        "crop": "Coco-da-baía*",
        "hectares": 3.0,
        "production": 3.0,
        "year": 2023,
        "region": "Norte",
        "ibge_code": "1200344"
      },
      "geometry": {
        "type": "Point",
        "coordinates": [
          -70.9566286019316,
          -9.028427181569803
        ]
      }
    },
    {
      "type": "Feature",
      "properties": {
        "municipality": "Marechal Thaumaturgo",
        "state": "AC",
        "crop": "Coco-da-baía*",
        "hectares": 2.0,
        "production": 2.0,
        "year": 2023,
        "region": "Norte",
        "ibge_code": "1200351"
      },
      "geometry": {
        "type": "Point",
        "coordinates": [
          -70.47386957647166,
          -9.011846666100318
        ]
      }
    },
    {
      "type": "Feature",
      "properties": {
        "municipality": "Plácido de Castro",
        "state": "AC",
        "crop": "Coco-da-baía*",
        "hectares": 6.0,
        "production": 6.0,
        "year": 2023,
        "region": "Norte",
        "ibge_code": "1200385"
      },
      "geometry": {
        "type": "Point",
        "coordinates": [
          -70.44148401407092,
          -9.505783016569053
        ]
      }
    },
    {
      "type": "Feature",
      "properties": {
        "municipality": "Porto Walter",
        "state": "AC",
        "crop": "Coco-da-baía*",
        "hectares": 2.0,
        "production": 2.0,
        "year": 2023,
        "region": "Norte",
        "ibge_code": "1200393"
      },
      "geometry": {
        "type": "Point",
        "coordinates": [
          -70.89884329255284,
          -9.848863656828206
        ]
      }
    },
    {
      "type": "Feature",
      "properties": {
        "municipality": "Rio Branco",
        "state": "AC",
        "crop": "Coco-da-baía*",
        "hectares": 14.0,
        "production": 14.0,
        "year": 2023,
        "region": "Norte",
        "ibge_code": "1200401"
      },
      "geometry": {
        "type": "Point",
        "coordinates": [
          -69.961295582124,
          -9.428658517488996
        ]
      }
    },
    {
      "type": "Feature",
      "properties": {
        "municipality": "Rodrigues Alves",
        "state": "AC",
        "crop": "Coco-da-baía*",
        "hectares": 20.0,
        "production": 20.0,
        "year": 2023,
        "region": "Norte",
        "ibge_code": "1200427"
      },
      "geometry": {
        "type": "Point",
        "coordinates": [
          -70.61238963934446,
          -8.381084937120821
        ]
      }
    },
    {
      "type": "Feature",
      "properties": {
        "municipality": "Santa Rosa do Purus",
        "state": "AC",
        "crop": "Coco-da-baía*",
        "hectares": 2.0,
        "production": 2.0,
        "year": 2023,
        "region": "Norte",
        "ibge_code": "1200435"
      },
      "geometry": {
        "type": "Point",
        "coordinates": [
          -71.60137584075909,
          -8.861916188365523
        ]
      }
    },
    {
      "type": "Feature",
      "properties": {
        "municipality": "Senador Guiomard",
        "state": "AC",
        "crop": "Coco-da-baía*",
        "hectares": 30.0,
        "production": 30.0,
        "year": 2023,
        "region": "Norte",
        "ibge_code": "1200450"
      },
      "geometry": {
        "type": "Point",
        "coordinates": [
          -70.43474447329871,
          -8.769959231713251
        ]
      }
    },
    {
      "type": "Feature",
      "properties": {
        "municipality": "Sena Madureira",
        "state": "AC",
        "crop": "Coco-da-baía*",
        "hectares": 15.0,
        "production": 15.0,
        "year": 2023,
        "region": "Norte",
        "ibge_code": "1200500"
      },
      "geometry": {
        "type": "Point",
        "coordinates": [
          -71.60889164058379,
          -9.389671870349403
        ]
      }
    },
    {
      "type": "Feature",
      "properties": {
        "municipality": "Tarauacá",
        "state": "AC",
        "crop": "Coco-da-baía*",
        "hectares": 4.0,
        "production": 4.0,
        "year": 2023,
        "region": "Norte",
        "ibge_code": "1200609"
      },
      "geometry": {
        "type": "Point",
        "coordinates": [
          -70.98312296206888,
          -9.402428125806555
        ]
      }
    },
    {
      "type": "Feature",
      "properties": {
        "municipality": "Xapuri",
        "state": "AC",
        "crop": "Coco-da-baía*",
        "hectares": 2.0,
        "production": 2.0,
        "year": 2023,
        "region": "Norte",
        "ibge_code": "1200708"
      },
      "geometry": {
        "type": "Point",
        "coordinates": [
          -70.82535088926788,
          -8.544098482681997
        ]
      }
    },
    {
      "type": "Feature",
      "properties": {
        "municipality": "Porto Acre",
        "state": "AC",
        "crop": "Coco-da-baía*",
        "hectares": 14.0,
        "production": 14.0,
        "year": 2023,
        "region": "Norte",
        "ibge_code": "1200807"
      },
      "geometry": {
        "type": "Point",
        "coordinates": [
          -70.2144387294905,
          -8.114400206944513
        ]
      }
    },
    {
      "type": "Feature",
      "properties": {
        "municipality": "Amaturá",
        "state": "AM",
        "crop": "Coco-da-baía*",
        "hectares": 2.0,
        "production": 2.0,
        "year": 2023,
        "region": "Norte",
        "ibge_code": "1300060"
      },
      "geometry": {
        "type": "Point",
        "coordinates": [
          -62.02924205138022,
          -5.401733922788264
        ]
      }
    },
    {
      "type": "Feature",
      "properties": {
        "municipality": "Apuí",
        "state": "AM",
        "crop": "Coco-da-baía*",
        "hectares": 6.0,
        "production": 6.0,
        "year": 2023,
        "region": "Norte",
        "ibge_code": "1300144"
      },
      "geometry": {
        "type": "Point",
        "coordinates": [
          -61.335645397067836,
          -5.5718255041336375
        ]
      }
    },
    {
      "type": "Feature",
      "properties": {
        "municipality": "Benjamin Constant",
        "state": "AM",
        "crop": "Coco-da-baía*",
        "hectares": 6.0,
        "production": 6.0,
        "year": 2023,
        "region": "Norte",
        "ibge_code": "1300607"
      },
      "geometry": {
        "type": "Point",
        "coordinates": [
          -61.715515284539926,
          -5.64257954518688
        ]
      }
    },
    {
      "type": "Feature",
      "properties": {
        "municipality": "Caapiranga",
        "state": "AM",
        "crop": "Coco-da-baía*",
        "hectares": 2.0,
        "production": 2.0,
        "year": 2023,
        "region": "Norte",
        "ibge_code": "1300839"
      },
      "geometry": {
        "type": "Point",
        "coordinates": [
          -62.45830583390284,
          -5.893920405783088
        ]
      }
    },
    {
      "type": "Feature",
      "properties": {
        "municipality": "Careiro",
        "state": "AM",
        "crop": "Coco-da-baía*",
        "hectares": 1.0,
        "production": 1.0,
        "year": 2023,
        "region": "Norte",
        "ibge_code": "1301100"
      },
      "geometry": {
        "type": "Point",
        "coordinates": [
          -62.88917761849975,
          -4.665031187166753
        ]
      }
    },
    {
      "type": "Feature",
      "properties": {
        "municipality": "Coari",
        "state": "AM",
        "crop": "Coco-da-baía*",
        "hectares": 5.0,
        "production": 5.0,
        "year": 2023,
        "region": "Norte",
        "ibge_code": "1301209"
      },
      "geometry": {
        "type": "Point",
        "coordinates": [
          -61.10958304687498,
          -5.937360154160725
        ]
      }
    },
    {
      "type": "Feature",
      "properties": {
        "municipality": "Eirunepé",
        "state": "AM",
        "crop": "Coco-da-baía*",
        "hectares": 10.0,
        "production": 10.0,
        "year": 2023,
        "region": "Norte",
        "ibge_code": "1301407"
      },
      "geometry": {
        "type": "Point",
        "coordinates": [
          -61.88222457322698,
          -5.2452325059246725
        ]
      }
    },
    {
      "type": "Feature",
      "properties": {
        "municipality": "Envira",
        "state": "AM",
        "crop": "Coco-da-baía*",
        "hectares": 10.0,
        "production": 10.0,
        "year": 2023,
        "region": "Norte",
        "ibge_code": "1301506"
      },
      "geometry": {
        "type": "Point",
        "coordinates": [
          -61.913727535751086,
          -4.469780747632994
        ]
      }
    },
    {
      "type": "Feature",
      "properties": {
        "municipality": "Iranduba",
        "state": "AM",
        "crop": "Coco-da-baía*",
        "hectares": 42.0,
        "production": 42.0,
        "year": 2023,
        "region": "Norte",
        "ibge_code": "1301852"
      },
      "geometry": {
        "type": "Point",
        "coordinates": [
          -62.214520732381644,
          -5.288514282600855
        ]
      }
    },
    {
      "type": "Feature",
      "properties": {
        "municipality": "Itacoatiara",
        "state": "AM",
        "crop": "Coco-da-baía*",
        "hectares": 66.0,
        "production": 66.0,
        "year": 2023,
        "region": "Norte",
        "ibge_code": "1301902"
      },
      "geometry": {
        "type": "Point",
        "coordinates": [
          -62.84025948338317,
          -4.5577557238158155
        ]
      }
    },
    {
      "type": "Feature",
      "properties": {
        "municipality": "Itapiranga",
        "state": "AM",
        "crop": "Coco-da-baía*",
        "hectares": 4.0,
        "production": 4.0,
        "year": 2023,
        "region": "Norte",
        "ibge_code": "1302009"
      },
      "geometry": {
        "type": "Point",
        "coordinates": [
          -61.577284014070926,
          -5.442883016569052
        ]
      }
    },
    {
      "type": "Feature",
      "properties": {
        "municipality": "Japurá",
        "state": "AM",
        "crop": "Coco-da-baía*",
        "hectares": 2.0,
        "production": 2.0,
        "year": 2023,
        "region": "Norte",
        "ibge_code": "1302108"
      },
      "geometry": {
        "type": "Point",
        "coordinates": [
          -61.69835755413887,
          -5.449844999578779
        ]
      }
    },
    {
      "type": "Feature",
      "properties": {
        "municipality": "Manaquiri",
        "state": "AM",
        "crop": "Coco-da-baía*",
        "hectares": 4.0,
        "production": 4.0,
        "year": 2023,
        "region": "Norte",
        "ibge_code": "1302553"
      },
      "geometry": {
        "type": "Point",
        "coordinates": [
          -61.157381682101665,
          -4.313285516071824
        ]
      }
    },
    {
      "type": "Feature",
      "properties": {
        "municipality": "Manaus",
        "state": "AM",
        "crop": "Coco-da-baía*",
        "hectares": 208.0,
        "production": 208.0,
        "year": 2023,
        "region": "Norte",
        "ibge_code": "1302603"
      },
      "geometry": {
        "type": "Point",
        "coordinates": [
          -61.316766095329115,
          -5.633565333549862
        ]
      }
    },
    {
      "type": "Feature",
      "properties": {
        "municipality": "Maués",
        "state": "AM",
        "crop": "Coco-da-baía*",
        "hectares": 5.0,
        "production": 5.0,
        "year": 2023,
        "region": "Norte",
        "ibge_code": "1302900"
      },
      "geometry": {
        "type": "Point",
        "coordinates": [
          -61.59904061686728,
          -5.672420387530199
        ]
      }
    },
    {
      "type": "Feature",
      "properties": {
        "municipality": "Nhamundá",
        "state": "AM",
        "crop": "Coco-da-baía*",
        "hectares": 1.0,
        "production": 1.0,
        "year": 2023,
        "region": "Norte",
        "ibge_code": "1303007"
      },
      "geometry": {
        "type": "Point",
        "coordinates": [
          -62.66706281984721,
          -4.044481240365454
        ]
      }
    },
    {
      "type": "Feature",
      "properties": {
        "municipality": "Novo Airão",
        "state": "AM",
        "crop": "Coco-da-baía*",
        "hectares": 14.0,
        "production": 14.0,
        "year": 2023,
        "region": "Norte",
        "ibge_code": "1303205"
      },
      "geometry": {
        "type": "Point",
        "coordinates": [
          -61.12059771216959,
          -4.51050139250369
        ]
      }
    },
    {
      "type": "Feature",
      "properties": {
        "municipality": "Novo Aripuanã",
        "state": "AM",
        "crop": "Coco-da-baía*",
        "hectares": 4.0,
        "production": 4.0,
        "year": 2023,
        "region": "Norte",
        "ibge_code": "1303304"
      },
      "geometry": {
        "type": "Point",
        "coordinates": [
          -61.14294350318315,
          -4.930293713857386
        ]
      }
    },
    {
      "type": "Feature",
      "properties": {
        "municipality": "Parintins",
        "state": "AM",
        "crop": "Coco-da-baía*",
        "hectares": 2.0,
        "production": 2.0,
        "year": 2023,
        "region": "Norte",
        "ibge_code": "1303403"
      },
      "geometry": {
        "type": "Point",
        "coordinates": [
          -62.144124969345334,
          -4.21341751361353
        ]
      }
    },
    {
      "type": "Feature",
      "properties": {
        "municipality": "Presidente Figueiredo",
        "state": "AM",
        "crop": "Coco-da-baía*",
        "hectares": 115.0,
        "production": 115.0,
        "year": 2023,
        "region": "Norte",
        "ibge_code": "1303536"
      },
      "geometry": {
        "type": "Point",
        "coordinates": [
          -61.64787402771335,
          -5.232137664628209
        ]
      }
    },
    {
      "type": "Feature",
      "properties": {
        "municipality": "Rio Preto da Eva",
        "state": "AM",
        "crop": "Coco-da-baía*",
        "hectares": 134.0,
        "production": 134.0,
        "year": 2023,
        "region": "Norte",
        "ibge_code": "1303569"
      },
      "geometry": {
        "type": "Point",
        "coordinates": [
          -61.24790941269896,
          -4.331096704084077
        ]
      }
    },
    {
      "type": "Feature",
      "properties": {
        "municipality": "São Gabriel da Cachoeira",
        "state": "AM",
        "crop": "Coco-da-baía*",
        "hectares": 12.0,
        "production": 12.0,
        "year": 2023,
        "region": "Norte",
        "ibge_code": "1303809"
      },
      "geometry": {
        "type": "Point",
        "coordinates": [
          -61.415520486526475,
          -4.511140273890207
        ]
      }
    },
    {
      "type": "Feature",
      "properties": {
        "municipality": "São Sebastião do Uatumã",
        "state": "AM",
        "crop": "Coco-da-baía*",
        "hectares": 3.0,
        "production": 3.0,
        "year": 2023,
        "region": "Norte",
        "ibge_code": "1303957"
      },
      "geometry": {
        "type": "Point",
        "coordinates": [
          -61.51498240889321,
          -4.780719239254255
        ]
      }
    },
    {
      "type": "Feature",
      "properties": {
        "municipality": "Tabatinga",
        "state": "AM",
        "crop": "Coco-da-baía*",
        "hectares": 3.0,
        "production": 3.0,
        "year": 2023,
        "region": "Norte",
        "ibge_code": "1304062"
      },
      "geometry": {
        "type": "Point",
        "coordinates": [
          -61.89060642620482,
          -5.463229848391632
        ]
      }
    },
    {
      "type": "Feature",
      "properties": {
        "municipality": "Tapauá",
        "state": "AM",
        "crop": "Coco-da-baía*",
        "hectares": 6.0,
        "production": 6.0,
        "year": 2023,
        "region": "Norte",
        "ibge_code": "1304104"
      },
      "geometry": {
        "type": "Point",
        "coordinates": [
          -61.26375099117262,
          -4.323738493599267
        ]
      }
    },
    {
      "type": "Feature",
      "properties": {
        "municipality": "Tefé",
        "state": "AM",
        "crop": "Coco-da-baía*",
        "hectares": 34.0,
        "production": 34.0,
        "year": 2023,
        "region": "Norte",
        "ibge_code": "1304203"
      },
      "geometry": {
        "type": "Point",
        "coordinates": [
          -62.23004000241561,
          -4.00319261760644
        ]
      }
    },
    {
      "type": "Feature",
      "properties": {
        "municipality": "Boa Vista",
        "state": "RR",
        "crop": "Coco-da-baía*",
        "hectares": 10.0,
        "production": 10.0,
        "year": 2023,
        "region": "Norte",
        "ibge_code": "1400100"
      },
      "geometry": {
        "type": "Point",
        "coordinates": [
          -62.384720478672236,
          2.150675757125021
        ]
      }
    },
    {
      "type": "Feature",
      "properties": {
        "municipality": "Caroebe",
        "state": "RR",
        "crop": "Coco-da-baía*",
        "hectares": 5.0,
        "production": 5.0,
        "year": 2023,
        "region": "Norte",
        "ibge_code": "1400233"
      },
      "geometry": {
        "type": "Point",
        "coordinates": [
          -62.72621484291481,
          2.795896390900272
        ]
      }
    },
    {
      "type": "Feature",
      "properties": {
        "municipality": "Normandia",
        "state": "RR",
        "crop": "Coco-da-baía*",
        "hectares": 10.0,
        "production": 10.0,
        "year": 2023,
        "region": "Norte",
        "ibge_code": "1400407"
      },
      "geometry": {
        "type": "Point",
        "coordinates": [
          -62.73023569319842,
          2.7683312956773003
        ]
      }
    },
    {
      "type": "Feature",
      "properties": {
        "municipality": "Rorainópolis",
        "state": "RR",
        "crop": "Coco-da-baía*",
        "hectares": 12.0,
        "production": 12.0,
        "year": 2023,
        "region": "Norte",
        "ibge_code": "1400472"
      },
      "geometry": {
        "type": "Point",
        "coordinates": [
          -61.1344557879898,
          2.9792301969685298
        ]
      }
    },
    {
      "type": "Feature",
      "properties": {
        "municipality": "São João da Baliza",
        "state": "RR",
        "crop": "Coco-da-baía*",
        "hectares": 20.0,
        "production": 20.0,
        "year": 2023,
        "region": "Norte",
        "ibge_code": "1400506"
      },
      "geometry": {
        "type": "Point",
        "coordinates": [
          -62.976621765346934,
          1.9665425235172518
        ]
      }
    },
    {
      "type": "Feature",
      "properties": {
        "municipality": "São Luiz",
        "state": "RR",
        "crop": "Coco-da-baía*",
        "hectares": 30.0,
        "production": 30.0,
        "year": 2023,
        "region": "Norte",
        "ibge_code": "1400605"
      },
      "geometry": {
        "type": "Point",
        "coordinates": [
          -62.567180217620866,
          3.73367714129792
        ]
      }
    },
    {
      "type": "Feature",
      "properties": {
        "municipality": "Abaetetuba",
        "state": "PA",
        "crop": "Coco-da-baía*",
        "hectares": 385.0,
        "production": 385.0,
        "year": 2023,
        "region": "Norte",
        "ibge_code": "1500107"
      },
      "geometry": {
        "type": "Point",
        "coordinates": [
          -52.80190089133465,
          -4.577795482481193
        ]
      }
    },
    {
      "type": "Feature",
      "properties": {
        "municipality": "Acará",
        "state": "PA",
        "crop": "Coco-da-baía*",
        "hectares": 2100.0,
        "production": 2100.0,
        "year": 2023,
        "region": "Norte",
        "ibge_code": "1500206"
      },
      "geometry": {
        "type": "Point",
        "coordinates": [
          -51.79790543865896,
          -4.474564730770357
        ]
      }
    },
    {
      "type": "Feature",
      "properties": {
        "municipality": "Alenquer",
        "state": "PA",
        "crop": "Coco-da-baía*",
        "hectares": 49.0,
        "production": 49.0,
        "year": 2023,
        "region": "Norte",
        "ibge_code": "1500404"
      },
      "geometry": {
        "type": "Point",
        "coordinates": [
          -52.39063875190689,
          -3.679611225503399
        ]
      }
    },
    {
      "type": "Feature",
      "properties": {
        "municipality": "Almeirim",
        "state": "PA",
        "crop": "Coco-da-baía*",
        "hectares": 16.0,
        "production": 16.0,
        "year": 2023,
        "region": "Norte",
        "ibge_code": "1500503"
      },
      "geometry": {
        "type": "Point",
        "coordinates": [
          -52.06633462735893,
          -4.2875946606979305
        ]
      }
    },
    {
      "type": "Feature",
      "properties": {
        "municipality": "Altamira",
        "state": "PA",
        "crop": "Coco-da-baía*",
        "hectares": 12.0,
        "production": 12.0,
        "year": 2023,
        "region": "Norte",
        "ibge_code": "1500602"
      },
      "geometry": {
        "type": "Point",
        "coordinates": [
          -52.35017657269312,
          -3.3428432995326123
        ]
      }
    },
    {
      "type": "Feature",
      "properties": {
        "municipality": "Anapu",
        "state": "PA",
        "crop": "Coco-da-baía*",
        "hectares": 77.0,
        "production": 77.0,
        "year": 2023,
        "region": "Norte",
        "ibge_code": "1500859"
      },
      "geometry": {
        "type": "Point",
        "coordinates": [
          -52.71982073238164,
          -4.039614282600856
        ]
      }
    },
    {
      "type": "Feature",
      "properties": {
        "municipality": "Augusto Corrêa",
        "state": "PA",
        "crop": "Coco-da-baía*",
        "hectares": 90.0,
        "production": 90.0,
        "year": 2023,
        "region": "Norte",
        "ibge_code": "1500909"
      },
      "geometry": {
        "type": "Point",
        "coordinates": [
          -51.65695353186815,
          -3.4786588363896054
        ]
      }
    },
    {
      "type": "Feature",
      "properties": {
        "municipality": "Aveiro",
        "state": "PA",
        "crop": "Coco-da-baía*",
        "hectares": 20.0,
        "production": 20.0,
        "year": 2023,
        "region": "Norte",
        "ibge_code": "1501006"
      },
      "geometry": {
        "type": "Point",
        "coordinates": [
          -52.464400505399674,
          -2.887313281280502
        ]
      }
    },
    {
      "type": "Feature",
      "properties": {
        "municipality": "Baião",
        "state": "PA",
        "crop": "Coco-da-baía*",
        "hectares": 40.0,
        "production": 40.0,
        "year": 2023,
        "region": "Norte",
        "ibge_code": "1501204"
      },
      "geometry": {
        "type": "Point",
        "coordinates": [
          -52.1894634693573,
          -3.6385539477218893
        ]
      }
    },
    {
      "type": "Feature",
      "properties": {
        "municipality": "Barcarena",
        "state": "PA",
        "crop": "Coco-da-baía*",
        "hectares": 305.0,
        "production": 305.0,
        "year": 2023,
        "region": "Norte",
        "ibge_code": "1501303"
      },
      "geometry": {
        "type": "Point",
        "coordinates": [
          -51.97537821166217,
          -3.4217981004219293
        ]
      }
    },
    {
      "type": "Feature",
      "properties": {
        "municipality": "Belterra",
        "state": "PA",
        "crop": "Coco-da-baía*",
        "hectares": 2.0,
        "production": 2.0,
        "year": 2023,
        "region": "Norte",
        "ibge_code": "1501451"
      },
      "geometry": {
        "type": "Point",
        "coordinates": [
          -53.05998112408905,
          -3.526863837823437
        ]
      }
    },
    {
      "type": "Feature",
      "properties": {
        "municipality": "Bom Jesus do Tocantins",
        "state": "PA",
        "crop": "Coco-da-baía*",
        "hectares": 6.0,
        "production": 6.0,
        "year": 2023,
        "region": "Norte",
        "ibge_code": "1501576"
      },
      "geometry": {
        "type": "Point",
        "coordinates": [
          -51.63019099079526,
          -3.977939276799733
        ]
      }
    },
    {
      "type": "Feature",
      "properties": {
        "municipality": "Bonito",
        "state": "PA",
        "crop": "Coco-da-baía*",
        "hectares": 25.0,
        "production": 25.0,
        "year": 2023,
        "region": "Norte",
        "ibge_code": "1501600"
      },
      "geometry": {
        "type": "Point",
        "coordinates": [
          -52.0927197283299,
          -3.546823121233645
        ]
      }
    },
    {
      "type": "Feature",
      "properties": {
        "municipality": "Bragança",
        "state": "PA",
        "crop": "Coco-da-baía*",
        "hectares": 75.0,
        "production": 75.0,
        "year": 2023,
        "region": "Norte",
        "ibge_code": "1501709"
      },
      "geometry": {
        "type": "Point",
        "coordinates": [
          -52.11042641734357,
          -3.687690980957351
        ]
      }
    },
    {
      "type": "Feature",
      "properties": {
        "municipality": "Brasil Novo",
        "state": "PA",
        "crop": "Coco-da-baía*",
        "hectares": 5.0,
        "production": 5.0,
        "year": 2023,
        "region": "Norte",
        "ibge_code": "1501725"
      },
      "geometry": {
        "type": "Point",
        "coordinates": [
          -53.26105411318223,
          -3.0830437091043796
        ]
      }
    },
    {
      "type": "Feature",
      "properties": {
        "municipality": "Bujaru",
        "state": "PA",
        "crop": "Coco-da-baía*",
        "hectares": 430.0,
        "production": 430.0,
        "year": 2023,
        "region": "Norte",
        "ibge_code": "1501907"
      },
      "geometry": {
        "type": "Point",
        "coordinates": [
          -53.228302277839525,
          -4.687443505204049
        ]
      }
    },
    {
      "type": "Feature",
      "properties": {
        "municipality": "Cachoeira do Piriá",
        "state": "PA",
        "crop": "Coco-da-baía*",
        "hectares": 43.0,
        "production": 43.0,
        "year": 2023,
        "region": "Norte",
        "ibge_code": "1501956"
      },
      "geometry": {
        "type": "Point",
        "coordinates": [
          -51.91643536676947,
          -2.967668039344036
        ]
      }
    },
    {
      "type": "Feature",
      "properties": {
        "municipality": "Cametá",
        "state": "PA",
        "crop": "Coco-da-baía*",
        "hectares": 30.0,
        "production": 30.0,
        "year": 2023,
        "region": "Norte",
        "ibge_code": "1502103"
      },
      "geometry": {
        "type": "Point",
        "coordinates": [
          -52.543245990971954,
          -4.42066148979174
        ]
      }
    },
    {
      "type": "Feature",
      "properties": {
        "municipality": "Capanema",
        "state": "PA",
        "crop": "Coco-da-baía*",
        "hectares": 180.0,
        "production": 180.0,
        "year": 2023,
        "region": "Norte",
        "ibge_code": "1502202"
      },
      "geometry": {
        "type": "Point",
        "coordinates": [
          -52.97980372418071,
          -2.8319318192983087
        ]
      }
    },
    {
      "type": "Feature",
      "properties": {
        "municipality": "Capitão Poço",
        "state": "PA",
        "crop": "Coco-da-baía*",
        "hectares": 800.0,
        "production": 800.0,
        "year": 2023,
        "region": "Norte",
        "ibge_code": "1502301"
      },
      "geometry": {
        "type": "Point",
        "coordinates": [
          -53.17559792527761,
          -4.058575313401521
        ]
      }
    },
    {
      "type": "Feature",
      "properties": {
        "municipality": "Castanhal",
        "state": "PA",
        "crop": "Coco-da-baía*",
        "hectares": 150.0,
        "production": 150.0,
        "year": 2023,
        "region": "Norte",
        "ibge_code": "1502400"
      },
      "geometry": {
        "type": "Point",
        "coordinates": [
          -51.59915240796179,
          -4.611658031666888
        ]
      }
    },
    {
      "type": "Feature",
      "properties": {
        "municipality": "Colares",
        "state": "PA",
        "crop": "Coco-da-baía*",
        "hectares": 10.0,
        "production": 10.0,
        "year": 2023,
        "region": "Norte",
        "ibge_code": "1502608"
      },
      "geometry": {
        "type": "Point",
        "coordinates": [
          -51.58706271829129,
          -3.936887409779054
        ]
      }
    },
    {
      "type": "Feature",
      "properties": {
        "municipality": "Concórdia do Pará",
        "state": "PA",
        "crop": "Coco-da-baía*",
        "hectares": 150.0,
        "production": 150.0,
        "year": 2023,
        "region": "Norte",
        "ibge_code": "1502756"
      },
      "geometry": {
        "type": "Point",
        "coordinates": [
          -52.01330238938425,
          -3.6791231810444742
        ]
      }
    },
    {
      "type": "Feature",
      "properties": {
        "municipality": "Cumaru do Norte",
        "state": "PA",
        "crop": "Coco-da-baía*",
        "hectares": 48.0,
        "production": 48.0,
        "year": 2023,
        "region": "Norte",
        "ibge_code": "1502764"
      },
      "geometry": {
        "type": "Point",
        "coordinates": [
          -52.1772400442915,
          -3.6053920594176097
        ]
      }
    },
    {
      "type": "Feature",
      "properties": {
        "municipality": "Curionópolis",
        "state": "PA",
        "crop": "Coco-da-baía*",
        "hectares": 40.0,
        "production": 40.0,
        "year": 2023,
        "region": "Norte",
        "ibge_code": "1502772"
      },
      "geometry": {
        "type": "Point",
        "coordinates": [
          -52.76143635332389,
          -3.615761892376602
        ]
      }
    },
    {
      "type": "Feature",
      "properties": {
        "municipality": "Curuçá",
        "state": "PA",
        "crop": "Coco-da-baía*",
        "hectares": 60.0,
        "production": 60.0,
        "year": 2023,
        "region": "Norte",
        "ibge_code": "1502905"
      },
      "geometry": {
        "type": "Point",
        "coordinates": [
          -52.877190046261624,
          -4.348427837313711
        ]
      }
    },
    {
      "type": "Feature",
      "properties": {
        "municipality": "Eldorado do Carajás",
        "state": "PA",
        "crop": "Coco-da-baía*",
        "hectares": 3.0,
        "production": 3.0,
        "year": 2023,
        "region": "Norte",
        "ibge_code": "1502954"
      },
      "geometry": {
        "type": "Point",
        "coordinates": [
          -52.545348963223596,
          -3.325383971547633
        ]
      }
    },
    {
      "type": "Feature",
      "properties": {
        "municipality": "Faro",
        "state": "PA",
        "crop": "Coco-da-baía*",
        "hectares": 3.0,
        "production": 3.0,
        "year": 2023,
        "region": "Norte",
        "ibge_code": "1503002"
      },
      "geometry": {
        "type": "Point",
        "coordinates": [
          -52.18863400884244,
          -3.5713431537262537
        ]
      }
    },
    {
      "type": "Feature",
      "properties": {
        "municipality": "Garrafão do Norte",
        "state": "PA",
        "crop": "Coco-da-baía*",
        "hectares": 12.0,
        "production": 12.0,
        "year": 2023,
        "region": "Norte",
        "ibge_code": "1503077"
      },
      "geometry": {
        "type": "Point",
        "coordinates": [
          -51.87595585722682,
          -2.819622940070236
        ]
      }
    },
    {
      "type": "Feature",
      "properties": {
        "municipality": "Igarapé-Açu",
        "state": "PA",
        "crop": "Coco-da-baía*",
        "hectares": 120.0,
        "production": 120.0,
        "year": 2023,
        "region": "Norte",
        "ibge_code": "1503200"
      },
      "geometry": {
        "type": "Point",
        "coordinates": [
          -52.5324917613051,
          -3.7542416376115364
        ]
      }
    },
    {
      "type": "Feature",
      "properties": {
        "municipality": "Igarapé-Miri",
        "state": "PA",
        "crop": "Coco-da-baía*",
        "hectares": 90.0,
        "production": 90.0,
        "year": 2023,
        "region": "Norte",
        "ibge_code": "1503309"
      },
      "geometry": {
        "type": "Point",
        "coordinates": [
          -51.79763603440307,
          -3.192712029103798
        ]
      }
    },
    {
      "type": "Feature",
      "properties": {
        "municipality": "Inhangapi",
        "state": "PA",
        "crop": "Coco-da-baía*",
        "hectares": 200.0,
        "production": 200.0,
        "year": 2023,
        "region": "Norte",
        "ibge_code": "1503408"
      },
      "geometry": {
        "type": "Point",
        "coordinates": [
          -51.9853682465155,
          -3.395124982227255
        ]
      }
    },
    {
      "type": "Feature",
      "properties": {
        "municipality": "Ipixuna do Pará",
        "state": "PA",
        "crop": "Coco-da-baía*",
        "hectares": 10.0,
        "production": 10.0,
        "year": 2023,
        "region": "Norte",
        "ibge_code": "1503457"
      },
      "geometry": {
        "type": "Point",
        "coordinates": [
          -52.28517187883402,
          -4.552309538961778
        ]
      }
    },
    {
      "type": "Feature",
      "properties": {
        "municipality": "Itaituba",
        "state": "PA",
        "crop": "Coco-da-baía*",
        "hectares": 22.0,
        "production": 22.0,
        "year": 2023,
        "region": "Norte",
        "ibge_code": "1503606"
      },
      "geometry": {
        "type": "Point",
        "coordinates": [
          -51.84811027495047,
          -2.9321150601668453
        ]
      }
    },
    {
      "type": "Feature",
      "properties": {
        "municipality": "Itupiranga",
        "state": "PA",
        "crop": "Coco-da-baía*",
        "hectares": 150.0,
        "production": 150.0,
        "year": 2023,
        "region": "Norte",
        "ibge_code": "1503705"
      },
      "geometry": {
        "type": "Point",
        "coordinates": [
          -51.85956574919465,
          -4.365653795840394
        ]
      }
    },
    {
      "type": "Feature",
      "properties": {
        "municipality": "Jacareacanga",
        "state": "PA",
        "crop": "Coco-da-baía*",
        "hectares": 12.0,
        "production": 12.0,
        "year": 2023,
        "region": "Norte",
        "ibge_code": "1503754"
      },
      "geometry": {
        "type": "Point",
        "coordinates": [
          -52.82216829308481,
          -3.8844048599615
        ]
      }
    },
    {
      "type": "Feature",
      "properties": {
        "municipality": "Limoeiro do Ajuru",
        "state": "PA",
        "crop": "Coco-da-baía*",
        "hectares": 8.0,
        "production": 8.0,
        "year": 2023,
        "region": "Norte",
        "ibge_code": "1504000"
      },
      "geometry": {
        "type": "Point",
        "coordinates": [
          -53.1428808671189,
          -3.085633645795862
        ]
      }
    },
    {
      "type": "Feature",
      "properties": {
        "municipality": "Magalhães Barata",
        "state": "PA",
        "crop": "Coco-da-baía*",
        "hectares": 50.0,
        "production": 50.0,
        "year": 2023,
        "region": "Norte",
        "ibge_code": "1504109"
      },
      "geometry": {
        "type": "Point",
        "coordinates": [
          -52.19589586824903,
          -3.118102959472668
        ]
      }
    },
    {
      "type": "Feature",
      "properties": {
        "municipality": "Marabá",
        "state": "PA",
        "crop": "Coco-da-baía*",
        "hectares": 250.0,
        "production": 250.0,
        "year": 2023,
        "region": "Norte",
        "ibge_code": "1504208"
      },
      "geometry": {
        "type": "Point",
        "coordinates": [
          -51.64645369203947,
          -3.7997607020460635
        ]
      }
    },
    {
      "type": "Feature",
      "properties": {
        "municipality": "Maracanã",
        "state": "PA",
        "crop": "Coco-da-baía*",
        "hectares": 50.0,
        "production": 50.0,
        "year": 2023,
        "region": "Norte",
        "ibge_code": "1504307"
      },
      "geometry": {
        "type": "Point",
        "coordinates": [
          -51.577034352288194,
          -4.290657924063412
        ]
      }
    },
    {
      "type": "Feature",
      "properties": {
        "municipality": "Marapanim",
        "state": "PA",
        "crop": "Coco-da-baía*",
        "hectares": 30.0,
        "production": 30.0,
        "year": 2023,
        "region": "Norte",
        "ibge_code": "1504406"
      },
      "geometry": {
        "type": "Point",
        "coordinates": [
          -51.48835511859021,
          -3.919474192837907
        ]
      }
    },
    {
      "type": "Feature",
      "properties": {
        "municipality": "Medicilândia",
        "state": "PA",
        "crop": "Coco-da-baía*",
        "hectares": 20.0,
        "production": 20.0,
        "year": 2023,
        "region": "Norte",
        "ibge_code": "1504455"
      },
      "geometry": {
        "type": "Point",
        "coordinates": [
          -53.24584206117708,
          -3.3954749754700404
        ]
      }
    },
    {
      "type": "Feature",
      "properties": {
        "municipality": "Mocajuba",
        "state": "PA",
        "crop": "Coco-da-baía*",
        "hectares": 75.0,
        "production": 75.0,
        "year": 2023,
        "region": "Norte",
        "ibge_code": "1504604"
      },
      "geometry": {
        "type": "Point",
        "coordinates": [
          -52.15646445045625,
          -4.6447040059605715
        ]
      }
    },
    {
      "type": "Feature",
      "properties": {
        "municipality": "Moju",
        "state": "PA",
        "crop": "Coco-da-baía*",
        "hectares": 7700.0,
        "production": 7700.0,
        "year": 2023,
        "region": "Norte",
        "ibge_code": "1504703"
      },
      "geometry": {
        "type": "Point",
        "coordinates": [
          -52.387524573226976,
          -3.9963325059246735
        ]
      }
    },
    {
      "type": "Feature",
      "properties": {
        "municipality": "Mojuí dos Campos",
        "state": "PA",
        "crop": "Coco-da-baía*",
        "hectares": 15.0,
        "production": 15.0,
        "year": 2023,
        "region": "Norte",
        "ibge_code": "1504752"
      },
      "geometry": {
        "type": "Point",
        "coordinates": [
          -51.83976401325876,
          -4.308630562748136
        ]
      }
    },
    {
      "type": "Feature",
      "properties": {
        "municipality": "Monte Alegre",
        "state": "PA",
        "crop": "Coco-da-baía*",
        "hectares": 50.0,
        "production": 50.0,
        "year": 2023,
        "region": "Norte",
        "ibge_code": "1504802"
      },
      "geometry": {
        "type": "Point",
        "coordinates": [
          -53.0767883117854,
          -3.3428924084353797
        ]
      }
    },
    {
      "type": "Feature",
      "properties": {
        "municipality": "Muaná",
        "state": "PA",
        "crop": "Coco-da-baía*",
        "hectares": 20.0,
        "production": 20.0,
        "year": 2023,
        "region": "Norte",
        "ibge_code": "1504901"
      },
      "geometry": {
        "type": "Point",
        "coordinates": [
          -51.76905099117262,
          -3.074838493599267
        ]
      }
    },
    {
      "type": "Feature",
      "properties": {
        "municipality": "Nova Esperança do Piriá",
        "state": "PA",
        "crop": "Coco-da-baía*",
        "hectares": 138.0,
        "production": 138.0,
        "year": 2023,
        "region": "Norte",
        "ibge_code": "1504950"
      },
      "geometry": {
        "type": "Point",
        "coordinates": [
          -52.97413011045065,
          -3.3119098434865046
        ]
      }
    },
    {
      "type": "Feature",
      "properties": {
        "municipality": "Nova Ipixuna",
        "state": "PA",
        "crop": "Coco-da-baía*",
        "hectares": 25.0,
        "production": 25.0,
        "year": 2023,
        "region": "Norte",
        "ibge_code": "1504976"
      },
      "geometry": {
        "type": "Point",
        "coordinates": [
          -53.36881565498298,
          -3.5209625329423453
        ]
      }
    },
    {
      "type": "Feature",
      "properties": {
        "municipality": "Nova Timboteua",
        "state": "PA",
        "crop": "Coco-da-baía*",
        "hectares": 120.0,
        "production": 120.0,
        "year": 2023,
        "region": "Norte",
        "ibge_code": "1505007"
      },
      "geometry": {
        "type": "Point",
        "coordinates": [
          -51.592656639884595,
          -2.756629916679742
        ]
      }
    },
    {
      "type": "Feature",
      "properties": {
        "municipality": "Novo Progresso",
        "state": "PA",
        "crop": "Coco-da-baía*",
        "hectares": 30.0,
        "production": 30.0,
        "year": 2023,
        "region": "Norte",
        "ibge_code": "1505031"
      },
      "geometry": {
        "type": "Point",
        "coordinates": [
          -51.65695353186815,
          -3.4786588363896054
        ]
      }
    },
    {
      "type": "Feature",
      "properties": {
        "municipality": "Óbidos",
        "state": "PA",
        "crop": "Coco-da-baía*",
        "hectares": 10.0,
        "production": 10.0,
        "year": 2023,
        "region": "Norte",
        "ibge_code": "1505106"
      },
      "geometry": {
        "type": "Point",
        "coordinates": [
          -51.561440603180586,
          -2.9438472690194444
        ]
      }
    },
    {
      "type": "Feature",
      "properties": {
        "municipality": "Oriximiná",
        "state": "PA",
        "crop": "Coco-da-baía*",
        "hectares": 3.0,
        "production": 3.0,
        "year": 2023,
        "region": "Norte",
        "ibge_code": "1505304"
      },
      "geometry": {
        "type": "Point",
        "coordinates": [
          -51.73163897048522,
          -4.016240352545964
        ]
      }
    },
    {
      "type": "Feature",
      "properties": {
        "municipality": "Ourém",
        "state": "PA",
        "crop": "Coco-da-baía*",
        "hectares": 100.0,
        "production": 100.0,
        "year": 2023,
        "region": "Norte",
        "ibge_code": "1505403"
      },
      "geometry": {
        "type": "Point",
        "coordinates": [
          -52.49213866879741,
          -3.9889544501718497
        ]
      }
    },
    {
      "type": "Feature",
      "properties": {
        "municipality": "Pacajá",
        "state": "PA",
        "crop": "Coco-da-baía*",
        "hectares": 15.0,
        "production": 15.0,
        "year": 2023,
        "region": "Norte",
        "ibge_code": "1505486"
      },
      "geometry": {
        "type": "Point",
        "coordinates": [
          -51.8555387294905,
          -2.802600206944514
        ]
      }
    },
    {
      "type": "Feature",
      "properties": {
        "municipality": "Paragominas",
        "state": "PA",
        "crop": "Coco-da-baía*",
        "hectares": 2.0,
        "production": 2.0,
        "year": 2023,
        "region": "Norte",
        "ibge_code": "1505502"
      },
      "geometry": {
        "type": "Point",
        "coordinates": [
          -52.47650420295389,
          -4.493659525833589
        ]
      }
    },
    {
      "type": "Feature",
      "properties": {
        "municipality": "Parauapebas",
        "state": "PA",
        "crop": "Coco-da-baía*",
        "hectares": 200.0,
        "production": 200.0,
        "year": 2023,
        "region": "Norte",
        "ibge_code": "1505536"
      },
      "geometry": {
        "type": "Point",
        "coordinates": [
          -51.761137357454864,
          -3.2988525295016515
        ]
      }
    },
    {
      "type": "Feature",
      "properties": {
        "municipality": "Peixe-Boi",
        "state": "PA",
        "crop": "Coco-da-baía*",
        "hectares": 150.0,
        "production": 150.0,
        "year": 2023,
        "region": "Norte",
        "ibge_code": "1505601"
      },
      "geometry": {
        "type": "Point",
        "coordinates": [
          -52.00196516762357,
          -3.2459183227027775
        ]
      }
    },
    {
      "type": "Feature",
      "properties": {
        "municipality": "Placas",
        "state": "PA",
        "crop": "Coco-da-baía*",
        "hectares": 5.0,
        "production": 5.0,
        "year": 2023,
        "region": "Norte",
        "ibge_code": "1505650"
      },
      "geometry": {
        "type": "Point",
        "coordinates": [
          -51.85519623839006,
          -4.155169968932039
        ]
      }
    },
    {
      "type": "Feature",
      "properties": {
        "municipality": "Ponta de Pedras",
        "state": "PA",
        "crop": "Coco-da-baía*",
        "hectares": 25.0,
        "production": 25.0,
        "year": 2023,
        "region": "Norte",
        "ibge_code": "1505700"
      },
      "geometry": {
        "type": "Point",
        "coordinates": [
          -51.630382938587786,
          -4.583779155688526
        ]
      }
    },
    {
      "type": "Feature",
      "properties": {
        "municipality": "Porto de Moz",
        "state": "PA",
        "crop": "Coco-da-baía*",
        "hectares": 65.0,
        "production": 65.0,
        "year": 2023,
        "region": "Norte",
        "ibge_code": "1505908"
      },
      "geometry": {
        "type": "Point",
        "coordinates": [
          -53.12246581835773,
          -3.599622146188791
        ]
      }
    },
    {
      "type": "Feature",
      "properties": {
        "municipality": "Prainha",
        "state": "PA",
        "crop": "Coco-da-baía*",
        "hectares": 40.0,
        "production": 40.0,
        "year": 2023,
        "region": "Norte",
        "ibge_code": "1506005"
      },
      "geometry": {
        "type": "Point",
        "coordinates": [
          -52.48439087495176,
          -4.359864713765683
        ]
      }
    },
    {
      "type": "Feature",
      "properties": {
        "municipality": "Primavera",
        "state": "PA",
        "crop": "Coco-da-baía*",
        "hectares": 70.0,
        "production": 70.0,
        "year": 2023,
        "region": "Norte",
        "ibge_code": "1506104"
      },
      "geometry": {
        "type": "Point",
        "coordinates": [
          -52.19645957803804,
          -3.3470461721052946
        ]
      }
    },
    {
      "type": "Feature",
      "properties": {
        "municipality": "Quatipuru",
        "state": "PA",
        "crop": "Coco-da-baía*",
        "hectares": 5.0,
        "production": 5.0,
        "year": 2023,
        "region": "Norte",
        "ibge_code": "1506112"
      },
      "geometry": {
        "type": "Point",
        "coordinates": [
          -52.69863530216167,
          -4.516896725881075
        ]
      }
    },
    {
      "type": "Feature",
      "properties": {
        "municipality": "Rondon do Pará",
        "state": "PA",
        "crop": "Coco-da-baía*",
        "hectares": 3.0,
        "production": 3.0,
        "year": 2023,
        "region": "Norte",
        "ibge_code": "1506187"
      },
      "geometry": {
        "type": "Point",
        "coordinates": [
          -52.419027535751084,
          -3.220880747632995
        ]
      }
    },
    {
      "type": "Feature",
      "properties": {
        "municipality": "Rurópolis",
        "state": "PA",
        "crop": "Coco-da-baía*",
        "hectares": 8.0,
        "production": 8.0,
        "year": 2023,
        "region": "Norte",
        "ibge_code": "1506195"
      },
      "geometry": {
        "type": "Point",
        "coordinates": [
          -52.97413011045065,
          -3.3119098434865046
        ]
      }
    },
    {
      "type": "Feature",
      "properties": {
        "municipality": "Salinópolis",
        "state": "PA",
        "crop": "Coco-da-baía*",
        "hectares": 50.0,
        "production": 50.0,
        "year": 2023,
        "region": "Norte",
        "ibge_code": "1506203"
      },
      "geometry": {
        "type": "Point",
        "coordinates": [
          -52.39096700905304,
          -4.56944521608288
        ]
      }
    },
    {
      "type": "Feature",
      "properties": {
        "municipality": "Salvaterra",
        "state": "PA",
        "crop": "Coco-da-baía*",
        "hectares": 15.0,
        "production": 15.0,
        "year": 2023,
        "region": "Norte",
        "ibge_code": "1506302"
      },
      "geometry": {
        "type": "Point",
        "coordinates": [
          -52.56553005867878,
          -2.881092387139983
        ]
      }
    },
    {
      "type": "Feature",
      "properties": {
        "municipality": "Santa Izabel do Pará",
        "state": "PA",
        "crop": "Coco-da-baía*",
        "hectares": 10.0,
        "production": 10.0,
        "year": 2023,
        "region": "Norte",
        "ibge_code": "1506500"
      },
      "geometry": {
        "type": "Point",
        "coordinates": [
          -52.72165136754407,
          -2.759642764466747
        ]
      }
    },
    {
      "type": "Feature",
      "properties": {
        "municipality": "Santa Luzia do Pará",
        "state": "PA",
        "crop": "Coco-da-baía*",
        "hectares": 200.0,
        "production": 200.0,
        "year": 2023,
        "region": "Norte",
        "ibge_code": "1506559"
      },
      "geometry": {
        "type": "Point",
        "coordinates": [
          -51.92933097548234,
          -4.500581599477189
        ]
      }
    },
    {
      "type": "Feature",
      "properties": {
        "municipality": "Santa Maria das Barreiras",
        "state": "PA",
        "crop": "Coco-da-baía*",
        "hectares": 5.0,
        "production": 5.0,
        "year": 2023,
        "region": "Norte",
        "ibge_code": "1506583"
      },
      "geometry": {
        "type": "Point",
        "coordinates": [
          -52.34242557656077,
          -3.9115721532235295
        ]
      }
    },
    {
      "type": "Feature",
      "properties": {
        "municipality": "Santarém",
        "state": "PA",
        "crop": "Coco-da-baía*",
        "hectares": 23.0,
        "production": 23.0,
        "year": 2023,
        "region": "Norte",
        "ibge_code": "1506807"
      },
      "geometry": {
        "type": "Point",
        "coordinates": [
          -53.25557114812373,
          -3.6502389890628244
        ]
      }
    },
    {
      "type": "Feature",
      "properties": {
        "municipality": "Santarém Novo",
        "state": "PA",
        "crop": "Coco-da-baía*",
        "hectares": 20.0,
        "production": 20.0,
        "year": 2023,
        "region": "Norte",
        "ibge_code": "1506906"
      },
      "geometry": {
        "type": "Point",
        "coordinates": [
          -52.543245990971954,
          -4.42066148979174
        ]
      }
    },
    {
      "type": "Feature",
      "properties": {
        "municipality": "Santo Antônio do Tauá",
        "state": "PA",
        "crop": "Coco-da-baía*",
        "hectares": 500.0,
        "production": 500.0,
        "year": 2023,
        "region": "Norte",
        "ibge_code": "1507003"
      },
      "geometry": {
        "type": "Point",
        "coordinates": [
          -52.069074480620415,
          -4.322369164586477
        ]
      }
    },
    {
      "type": "Feature",
      "properties": {
        "municipality": "São Caetano de Odivelas",
        "state": "PA",
        "crop": "Coco-da-baía*",
        "hectares": 45.0,
        "production": 45.0,
        "year": 2023,
        "region": "Norte",
        "ibge_code": "1507102"
      },
      "geometry": {
        "type": "Point",
        "coordinates": [
          -53.109402193612055,
          -3.8739684086809376
        ]
      }
    },
    {
      "type": "Feature",
      "properties": {
        "municipality": "São Domingos do Araguaia",
        "state": "PA",
        "crop": "Coco-da-baía*",
        "hectares": 20.0,
        "production": 20.0,
        "year": 2023,
        "region": "Norte",
        "ibge_code": "1507151"
      },
      "geometry": {
        "type": "Point",
        "coordinates": [
          -52.77474290775466,
          -3.1277111453532687
        ]
      }
    },
    {
      "type": "Feature",
      "properties": {
        "municipality": "São Domingos do Capim",
        "state": "PA",
        "crop": "Coco-da-baía*",
        "hectares": 20.0,
        "production": 20.0,
        "year": 2023,
        "region": "Norte",
        "ibge_code": "1507201"
      },
      "geometry": {
        "type": "Point",
        "coordinates": [
          -51.75320941269896,
          -3.082196704084077
        ]
      }
    },
    {
      "type": "Feature",
      "properties": {
        "municipality": "São Félix do Xingu",
        "state": "PA",
        "crop": "Coco-da-baía*",
        "hectares": 5.0,
        "production": 5.0,
        "year": 2023,
        "region": "Norte",
        "ibge_code": "1507300"
      },
      "geometry": {
        "type": "Point",
        "coordinates": [
          -51.5633354152472,
          -4.566747303301947
        ]
      }
    },
    {
      "type": "Feature",
      "properties": {
        "municipality": "São Francisco do Pará",
        "state": "PA",
        "crop": "Coco-da-baía*",
        "hectares": 45.0,
        "production": 45.0,
        "year": 2023,
        "region": "Norte",
        "ibge_code": "1507409"
      },
      "geometry": {
        "type": "Point",
        "coordinates": [
          -53.20715242717694,
          -2.715246269732232
        ]
      }
    },
    {
      "type": "Feature",
      "properties": {
        "municipality": "São João da Ponta",
        "state": "PA",
        "crop": "Coco-da-baía*",
        "hectares": 12.0,
        "production": 12.0,
        "year": 2023,
        "region": "Norte",
        "ibge_code": "1507466"
      },
      "geometry": {
        "type": "Point",
        "coordinates": [
          -52.85437271284029,
          -3.965327625504477
        ]
      }
    },
    {
      "type": "Feature",
      "properties": {
        "municipality": "São João de Pirabas",
        "state": "PA",
        "crop": "Coco-da-baía*",
        "hectares": 30.0,
        "production": 30.0,
        "year": 2023,
        "region": "Norte",
        "ibge_code": "1507474"
      },
      "geometry": {
        "type": "Point",
        "coordinates": [
          -53.38886621646274,
          -4.333610791968012
        ]
      }
    },
    {
      "type": "Feature",
      "properties": {
        "municipality": "São João do Araguaia",
        "state": "PA",
        "crop": "Coco-da-baía*",
        "hectares": 40.0,
        "production": 40.0,
        "year": 2023,
        "region": "Norte",
        "ibge_code": "1507508"
      },
      "geometry": {
        "type": "Point",
        "coordinates": [
          -53.24956584870191,
          -4.662679935446753
        ]
      }
    },
    {
      "type": "Feature",
      "properties": {
        "municipality": "São Miguel do Guamá",
        "state": "PA",
        "crop": "Coco-da-baía*",
        "hectares": 90.0,
        "production": 90.0,
        "year": 2023,
        "region": "Norte",
        "ibge_code": "1507607"
      },
      "geometry": {
        "type": "Point",
        "coordinates": [
          -52.24503953085742,
          -3.8110109623620465
        ]
      }
    },
    {
      "type": "Feature",
      "properties": {
        "municipality": "Senador José Porfírio",
        "state": "PA",
        "crop": "Coco-da-baía*",
        "hectares": 25.0,
        "production": 25.0,
        "year": 2023,
        "region": "Norte",
        "ibge_code": "1507805"
      },
      "geometry": {
        "type": "Point",
        "coordinates": [
          -52.00196516762357,
          -3.2459183227027775
        ]
      }
    },
    {
      "type": "Feature",
      "properties": {
        "municipality": "Soure",
        "state": "PA",
        "crop": "Coco-da-baía*",
        "hectares": 125.0,
        "production": 125.0,
        "year": 2023,
        "region": "Norte",
        "ibge_code": "1507904"
      },
      "geometry": {
        "type": "Point",
        "coordinates": [
          -51.84722784898166,
          -4.596146223958149
        ]
      }
    },
    {
      "type": "Feature",
      "properties": {
        "municipality": "Terra Alta",
        "state": "PA",
        "crop": "Coco-da-baía*",
        "hectares": 9.0,
        "production": 9.0,
        "year": 2023,
        "region": "Norte",
        "ibge_code": "1507961"
      },
      "geometry": {
        "type": "Point",
        "coordinates": [
          -52.64141969960511,
          -4.537107232757726
        ]
      }
    },
    {
      "type": "Feature",
      "properties": {
        "municipality": "Tomé-Açu",
        "state": "PA",
        "crop": "Coco-da-baía*",
        "hectares": 120.0,
        "production": 120.0,
        "year": 2023,
        "region": "Norte",
        "ibge_code": "1508001"
      },
      "geometry": {
        "type": "Point",
        "coordinates": [
          -53.289949808748396,
          -3.9002368313726414
        ]
      }
    },
    {
      "type": "Feature",
      "properties": {
        "municipality": "Tracuateua",
        "state": "PA",
        "crop": "Coco-da-baía*",
        "hectares": 70.0,
        "production": 70.0,
        "year": 2023,
        "region": "Norte",
        "ibge_code": "1508035"
      },
      "geometry": {
        "type": "Point",
        "coordinates": [
          -51.87859179606755,
          -3.8911144705540286
        ]
      }
    },
    {
      "type": "Feature",
      "properties": {
        "municipality": "Trairão",
        "state": "PA",
        "crop": "Coco-da-baía*",
        "hectares": 100.0,
        "production": 100.0,
        "year": 2023,
        "region": "Norte",
        "ibge_code": "1508050"
      },
      "geometry": {
        "type": "Point",
        "coordinates": [
          -51.49064922987324,
          -4.477571777410734
        ]
      }
    },
    {
      "type": "Feature",
      "properties": {
        "municipality": "Ulianópolis",
        "state": "PA",
        "crop": "Coco-da-baía*",
        "hectares": 73.0,
        "production": 73.0,
        "year": 2023,
        "region": "Norte",
        "ibge_code": "1508126"
      },
      "geometry": {
        "type": "Point",
        "coordinates": [
          -51.64721390084523,
          -4.604591659871788
        ]
      }
    },
    {
      "type": "Feature",
      "properties": {
        "municipality": "Uruará",
        "state": "PA",
        "crop": "Coco-da-baía*",
        "hectares": 10.0,
        "production": 10.0,
        "year": 2023,
        "region": "Norte",
        "ibge_code": "1508159"
      },
      "geometry": {
        "type": "Point",
        "coordinates": [
          -51.88327728782578,
          -3.3577483463994593
        ]
      }
    },
    {
      "type": "Feature",
      "properties": {
        "municipality": "Vigia",
        "state": "PA",
        "crop": "Coco-da-baía*",
        "hectares": 100.0,
        "production": 100.0,
        "year": 2023,
        "region": "Norte",
        "ibge_code": "1508209"
      },
      "geometry": {
        "type": "Point",
        "coordinates": [
          -51.84811027495047,
          -2.9321150601668453
        ]
      }
    },
    {
      "type": "Feature",
      "properties": {
        "municipality": "Viseu",
        "state": "PA",
        "crop": "Coco-da-baía*",
        "hectares": 95.0,
        "production": 95.0,
        "year": 2023,
        "region": "Norte",
        "ibge_code": "1508308"
      },
      "geometry": {
        "type": "Point",
        "coordinates": [
          -52.57349732652119,
          -4.047795665414481
        ]
      }
    },
    {
      "type": "Feature",
      "properties": {
        "municipality": "Araguaína",
        "state": "TO",
        "crop": "Coco-da-baía*",
        "hectares": 67.0,
        "production": 67.0,
        "year": 2023,
        "region": "Norte",
        "ibge_code": "1702109"
      },
      "geometry": {
        "type": "Point",
        "coordinates": [
          -47.404710060083296,
          -10.982617771111492
        ]
      }
    },
    {
      "type": "Feature",
      "properties": {
        "municipality": "Araguatins",
        "state": "TO",
        "crop": "Coco-da-baía*",
        "hectares": 3.0,
        "production": 3.0,
        "year": 2023,
        "region": "Norte",
        "ibge_code": "1702208"
      },
      "geometry": {
        "type": "Point",
        "coordinates": [
          -49.20052092251334,
          -10.86490723877946
        ]
      }
    },
    {
      "type": "Feature",
      "properties": {
        "municipality": "Axixá do Tocantins",
        "state": "TO",
        "crop": "Coco-da-baía*",
        "hectares": 3.0,
        "production": 3.0,
        "year": 2023,
        "region": "Norte",
        "ibge_code": "1702901"
      },
      "geometry": {
        "type": "Point",
        "coordinates": [
          -48.973945689553034,
          -10.214178364677451
        ]
      }
    },
    {
      "type": "Feature",
      "properties": {
        "municipality": "Carrasco Bonito",
        "state": "TO",
        "crop": "Coco-da-baía*",
        "hectares": 6.0,
        "production": 6.0,
        "year": 2023,
        "region": "Norte",
        "ibge_code": "1703891"
      },
      "geometry": {
        "type": "Point",
        "coordinates": [
          -48.093360581409726,
          -10.66760436636211
        ]
      }
    },
    {
      "type": "Feature",
      "properties": {
        "municipality": "Caseara",
        "state": "TO",
        "crop": "Coco-da-baía*",
        "hectares": 11.0,
        "production": 11.0,
        "year": 2023,
        "region": "Norte",
        "ibge_code": "1703909"
      },
      "geometry": {
        "type": "Point",
        "coordinates": [
          -48.023907419938794,
          -10.341506182419625
        ]
      }
    },
    {
      "type": "Feature",
      "properties": {
        "municipality": "Colinas do Tocantins",
        "state": "TO",
        "crop": "Coco-da-baía*",
        "hectares": 5.0,
        "production": 5.0,
        "year": 2023,
        "region": "Norte",
        "ibge_code": "1705508"
      },
      "geometry": {
        "type": "Point",
        "coordinates": [
          -47.34155089391452,
          -9.779877897813636
        ]
      }
    },
    {
      "type": "Feature",
      "properties": {
        "municipality": "Couto Magalhães",
        "state": "TO",
        "crop": "Coco-da-baía*",
        "hectares": 4.0,
        "production": 4.0,
        "year": 2023,
        "region": "Norte",
        "ibge_code": "1706001"
      },
      "geometry": {
        "type": "Point",
        "coordinates": [
          -48.66022335355044,
          -10.955791145145502
        ]
      }
    },
    {
      "type": "Feature",
      "properties": {
        "municipality": "Dianópolis",
        "state": "TO",
        "crop": "Coco-da-baía*",
        "hectares": 82.0,
        "production": 82.0,
        "year": 2023,
        "region": "Norte",
        "ibge_code": "1707009"
      },
      "geometry": {
        "type": "Point",
        "coordinates": [
          -48.53669555763056,
          -9.18391060313952
        ]
      }
    },
    {
      "type": "Feature",
      "properties": {
        "municipality": "Divinópolis do Tocantins",
        "state": "TO",
        "crop": "Coco-da-baía*",
        "hectares": 3.0,
        "production": 3.0,
        "year": 2023,
        "region": "Norte",
        "ibge_code": "1707108"
      },
      "geometry": {
        "type": "Point",
        "coordinates": [
          -48.953451384265605,
          -11.008258957692828
        ]
      }
    },
    {
      "type": "Feature",
      "properties": {
        "municipality": "Esperantina",
        "state": "TO",
        "crop": "Coco-da-baía*",
        "hectares": 3.0,
        "production": 3.0,
        "year": 2023,
        "region": "Norte",
        "ibge_code": "1707405"
      },
      "geometry": {
        "type": "Point",
        "coordinates": [
          -49.255632588358765,
          -9.662042241292966
        ]
      }
    },
    {
      "type": "Feature",
      "properties": {
        "municipality": "Monte do Carmo",
        "state": "TO",
        "crop": "Coco-da-baía*",
        "hectares": 30.0,
        "production": 30.0,
        "year": 2023,
        "region": "Norte",
        "ibge_code": "1713601"
      },
      "geometry": {
        "type": "Point",
        "coordinates": [
          -48.933810263237014,
          -9.752459881488756
        ]
      }
    },
    {
      "type": "Feature",
      "properties": {
        "municipality": "Nova Olinda",
        "state": "TO",
        "crop": "Coco-da-baía*",
        "hectares": 3.0,
        "production": 3.0,
        "year": 2023,
        "region": "Norte",
        "ibge_code": "1714880"
      },
      "geometry": {
        "type": "Point",
        "coordinates": [
          -48.73041058307983,
          -10.290408333619416
        ]
      }
    },
    {
      "type": "Feature",
      "properties": {
        "municipality": "Porto Nacional",
        "state": "TO",
        "crop": "Coco-da-baía*",
        "hectares": 75.0,
        "production": 75.0,
        "year": 2023,
        "region": "Norte",
        "ibge_code": "1718204"
      },
      "geometry": {
        "type": "Point",
        "coordinates": [
          -47.396932870873115,
          -10.9946202914613
        ]
      }
    },
    {
      "type": "Feature",
      "properties": {
        "municipality": "Tupiratins",
        "state": "TO",
        "crop": "Coco-da-baía*",
        "hectares": 2.0,
        "production": 2.0,
        "year": 2023,
        "region": "Norte",
        "ibge_code": "1721307"
      },
      "geometry": {
        "type": "Point",
        "coordinates": [
          -48.65762361734619,
          -10.920255739253061
        ]
      }
    },
    {
      "type": "Feature",
      "properties": {
        "municipality": "Wanderlândia",
        "state": "TO",
        "crop": "Coco-da-baía*",
        "hectares": 10.0,
        "production": 10.0,
        "year": 2023,
        "region": "Norte",
        "ibge_code": "1722081"
      },
      "geometry": {
        "type": "Point",
        "coordinates": [
          -49.177388419406064,
          -9.210545850479742
        ]
      }
    },
    {
      "type": "Feature",
      "properties": {
        "municipality": "Água Doce do Maranhão",
        "state": "MA",
        "crop": "Coco-da-baía*",
        "hectares": 29.0,
        "production": 29.0,
        "year": 2023,
        "region": "Nordeste",
        "ibge_code": "2100154"
      },
      "geometry": {
        "type": "Point",
        "coordinates": [
          -44.942224885550125,
          -4.9984067318533825
        ]
      }
    },
    {
      "type": "Feature",
      "properties": {
        "municipality": "Alcântara",
        "state": "MA",
        "crop": "Coco-da-baía*",
        "hectares": 33.0,
        "production": 33.0,
        "year": 2023,
        "region": "Nordeste",
        "ibge_code": "2100204"
      },
      "geometry": {
        "type": "Point",
        "coordinates": [
          -44.57507339753504,
          -4.9727216392554965
        ]
      }
    },
    {
      "type": "Feature",
      "properties": {
        "municipality": "Aldeias Altas",
        "state": "MA",
        "crop": "Coco-da-baía*",
        "hectares": 1.0,
        "production": 1.0,
        "year": 2023,
        "region": "Nordeste",
        "ibge_code": "2100303"
      },
      "geometry": {
        "type": "Point",
        "coordinates": [
          -44.577155901251714,
          -5.181816390524874
        ]
      }
    },
    {
      "type": "Feature",
      "properties": {
        "municipality": "Alto Parnaíba",
        "state": "MA",
        "crop": "Coco-da-baía*",
        "hectares": 4.0,
        "production": 4.0,
        "year": 2023,
        "region": "Nordeste",
        "ibge_code": "2100501"
      },
      "geometry": {
        "type": "Point",
        "coordinates": [
          -44.459415144839305,
          -4.388906131757766
        ]
      }
    },
    {
      "type": "Feature",
      "properties": {
        "municipality": "Amapá do Maranhão",
        "state": "MA",
        "crop": "Coco-da-baía*",
        "hectares": 7.0,
        "production": 7.0,
        "year": 2023,
        "region": "Nordeste",
        "ibge_code": "2100550"
      },
      "geometry": {
        "type": "Point",
        "coordinates": [
          -45.57537748941397,
          -5.670227676333438
        ]
      }
    },
    {
      "type": "Feature",
      "properties": {
        "municipality": "Amarante do Maranhão",
        "state": "MA",
        "crop": "Coco-da-baía*",
        "hectares": 6.0,
        "production": 6.0,
        "year": 2023,
        "region": "Nordeste",
        "ibge_code": "2100600"
      },
      "geometry": {
        "type": "Point",
        "coordinates": [
          -46.038444911454214,
          -5.400148140915154
        ]
      }
    },
    {
      "type": "Feature",
      "properties": {
        "municipality": "Araioses",
        "state": "MA",
        "crop": "Coco-da-baía*",
        "hectares": 15.0,
        "production": 15.0,
        "year": 2023,
        "region": "Nordeste",
        "ibge_code": "2100907"
      },
      "geometry": {
        "type": "Point",
        "coordinates": [
          -44.35074678903593,
          -5.927249988255186
        ]
      }
    },
    {
      "type": "Feature",
      "properties": {
        "municipality": "Arame",
        "state": "MA",
        "crop": "Coco-da-baía*",
        "hectares": 7.0,
        "production": 7.0,
        "year": 2023,
        "region": "Nordeste",
        "ibge_code": "2100956"
      },
      "geometry": {
        "type": "Point",
        "coordinates": [
          -46.12138604431639,
          -4.339754228119113
        ]
      }
    },
    {
      "type": "Feature",
      "properties": {
        "municipality": "Arari",
        "state": "MA",
        "crop": "Coco-da-baía*",
        "hectares": 2.0,
        "production": 2.0,
        "year": 2023,
        "region": "Nordeste",
        "ibge_code": "2101004"
      },
      "geometry": {
        "type": "Point",
        "coordinates": [
          -46.26202234568401,
          -5.188988925895993
        ]
      }
    },
    {
      "type": "Feature",
      "properties": {
        "municipality": "Axixá",
        "state": "MA",
        "crop": "Coco-da-baía*",
        "hectares": 24.0,
        "production": 24.0,
        "year": 2023,
        "region": "Nordeste",
        "ibge_code": "2101103"
      },
      "geometry": {
        "type": "Point",
        "coordinates": [
          -44.98483849782739,
          -4.4331368510732085
        ]
      }
    },
    {
      "type": "Feature",
      "properties": {
        "municipality": "Bacabeira",
        "state": "MA",
        "crop": "Coco-da-baía*",
        "hectares": 5.0,
        "production": 5.0,
        "year": 2023,
        "region": "Nordeste",
        "ibge_code": "2101251"
      },
      "geometry": {
        "type": "Point",
        "coordinates": [
          -44.67892167262956,
          -4.0576654955428
        ]
      }
    },
    {
      "type": "Feature",
      "properties": {
        "municipality": "Bacurituba",
        "state": "MA",
        "crop": "Coco-da-baía*",
        "hectares": 3.0,
        "production": 3.0,
        "year": 2023,
        "region": "Nordeste",
        "ibge_code": "2101350"
      },
      "geometry": {
        "type": "Point",
        "coordinates": [
          -45.808387720007794,
          -4.465887839398519
        ]
      }
    },
    {
      "type": "Feature",
      "properties": {
        "municipality": "Balsas",
        "state": "MA",
        "crop": "Coco-da-baía*",
        "hectares": 30.0,
        "production": 30.0,
        "year": 2023,
        "region": "Nordeste",
        "ibge_code": "2101400"
      },
      "geometry": {
        "type": "Point",
        "coordinates": [
          -44.90887433521904,
          -4.156667585492958
        ]
      }
    },
    {
      "type": "Feature",
      "properties": {
        "municipality": "Barra do Corda",
        "state": "MA",
        "crop": "Coco-da-baía*",
        "hectares": 9.0,
        "production": 9.0,
        "year": 2023,
        "region": "Nordeste",
        "ibge_code": "2101608"
      },
      "geometry": {
        "type": "Point",
        "coordinates": [
          -45.294605348977086,
          -5.6714588947326625
        ]
      }
    },
    {
      "type": "Feature",
      "properties": {
        "municipality": "Barreirinhas",
        "state": "MA",
        "crop": "Coco-da-baía*",
        "hectares": 53.0,
        "production": 53.0,
        "year": 2023,
        "region": "Nordeste",
        "ibge_code": "2101707"
      },
      "geometry": {
        "type": "Point",
        "coordinates": [
          -44.62103218310254,
          -5.751841895805431
        ]
      }
    },
    {
      "type": "Feature",
      "properties": {
        "municipality": "Bequimão",
        "state": "MA",
        "crop": "Coco-da-baía*",
        "hectares": 7.0,
        "production": 7.0,
        "year": 2023,
        "region": "Nordeste",
        "ibge_code": "2101905"
      },
      "geometry": {
        "type": "Point",
        "coordinates": [
          -44.46684461603196,
          -5.929850426500376
        ]
      }
    },
    {
      "type": "Feature",
      "properties": {
        "municipality": "Boa Vista do Gurupi",
        "state": "MA",
        "crop": "Coco-da-baía*",
        "hectares": 5.0,
        "production": 5.0,
        "year": 2023,
        "region": "Nordeste",
        "ibge_code": "2101970"
      },
      "geometry": {
        "type": "Point",
        "coordinates": [
          -45.175419184435526,
          -5.881774047219933
        ]
      }
    },
    {
      "type": "Feature",
      "properties": {
        "municipality": "Cajapió",
        "state": "MA",
        "crop": "Coco-da-baía*",
        "hectares": 3.0,
        "production": 3.0,
        "year": 2023,
        "region": "Nordeste",
        "ibge_code": "2102408"
      },
      "geometry": {
        "type": "Point",
        "coordinates": [
          -45.67052418673434,
          -4.550908524629071
        ]
      }
    },
    {
      "type": "Feature",
      "properties": {
        "municipality": "Carolina",
        "state": "MA",
        "crop": "Coco-da-baía*",
        "hectares": 5.0,
        "production": 5.0,
        "year": 2023,
        "region": "Nordeste",
        "ibge_code": "2102804"
      },
      "geometry": {
        "type": "Point",
        "coordinates": [
          -45.15074789366699,
          -4.397783407765125
        ]
      }
    },
    {
      "type": "Feature",
      "properties": {
        "municipality": "Caxias",
        "state": "MA",
        "crop": "Coco-da-baía*",
        "hectares": 17.0,
        "production": 17.0,
        "year": 2023,
        "region": "Nordeste",
        "ibge_code": "2103000"
      },
      "geometry": {
        "type": "Point",
        "coordinates": [
          -45.96811384552595,
          -5.484575625354871
        ]
      }
    },
    {
      "type": "Feature",
      "properties": {
        "municipality": "Cedral",
        "state": "MA",
        "crop": "Coco-da-baía*",
        "hectares": 11.0,
        "production": 11.0,
        "year": 2023,
        "region": "Nordeste",
        "ibge_code": "2103109"
      },
      "geometry": {
        "type": "Point",
        "coordinates": [
          -44.55084128138704,
          -4.213126215743218
        ]
      }
    },
    {
      "type": "Feature",
      "properties": {
        "municipality": "Central do Maranhão",
        "state": "MA",
        "crop": "Coco-da-baía*",
        "hectares": 7.0,
        "production": 7.0,
        "year": 2023,
        "region": "Nordeste",
        "ibge_code": "2103125"
      },
      "geometry": {
        "type": "Point",
        "coordinates": [
          -45.63527051346922,
          -5.021086363238785
        ]
      }
    },
    {
      "type": "Feature",
      "properties": {
        "municipality": "Chapadinha",
        "state": "MA",
        "crop": "Coco-da-baía*",
        "hectares": 5.0,
        "production": 5.0,
        "year": 2023,
        "region": "Nordeste",
        "ibge_code": "2103208"
      },
      "geometry": {
        "type": "Point",
        "coordinates": [
          -45.0107634693573,
          -4.887453947721889
        ]
      }
    },
    {
      "type": "Feature",
      "properties": {
        "municipality": "Codó",
        "state": "MA",
        "crop": "Coco-da-baía*",
        "hectares": 2.0,
        "production": 2.0,
        "year": 2023,
        "region": "Nordeste",
        "ibge_code": "2103307"
      },
      "geometry": {
        "type": "Point",
        "coordinates": [
          -44.87881813390071,
          -5.0901661378139424
        ]
      }
    },
    {
      "type": "Feature",
      "properties": {
        "municipality": "Coelho Neto",
        "state": "MA",
        "crop": "Coco-da-baía*",
        "hectares": 2.0,
        "production": 2.0,
        "year": 2023,
        "region": "Nordeste",
        "ibge_code": "2103406"
      },
      "geometry": {
        "type": "Point",
        "coordinates": [
          -44.441173147583946,
          -5.527704046303343
        ]
      }
    },
    {
      "type": "Feature",
      "properties": {
        "municipality": "Colinas",
        "state": "MA",
        "crop": "Coco-da-baía*",
        "hectares": 2.0,
        "production": 2.0,
        "year": 2023,
        "region": "Nordeste",
        "ibge_code": "2103505"
      },
      "geometry": {
        "type": "Point",
        "coordinates": [
          -44.31194922987324,
          -5.726471777410733
        ]
      }
    },
    {
      "type": "Feature",
      "properties": {
        "municipality": "Coroatá",
        "state": "MA",
        "crop": "Coco-da-baía*",
        "hectares": 6.0,
        "production": 6.0,
        "year": 2023,
        "region": "Nordeste",
        "ibge_code": "2103604"
      },
      "geometry": {
        "type": "Point",
        "coordinates": [
          -45.71187653150118,
          -4.091035001876694
        ]
      }
    },
    {
      "type": "Feature",
      "properties": {
        "municipality": "Cururupu",
        "state": "MA",
        "crop": "Coco-da-baía*",
        "hectares": 7.0,
        "production": 7.0,
        "year": 2023,
        "region": "Nordeste",
        "ibge_code": "2103703"
      },
      "geometry": {
        "type": "Point",
        "coordinates": [
          -44.90713595022391,
          -5.3330915831527514
        ]
      }
    },
    {
      "type": "Feature",
      "properties": {
        "municipality": "Fernando Falcão",
        "state": "MA",
        "crop": "Coco-da-baía*",
        "hectares": 3.0,
        "production": 3.0,
        "year": 2023,
        "region": "Nordeste",
        "ibge_code": "2104081"
      },
      "geometry": {
        "type": "Point",
        "coordinates": [
          -44.75471848569781,
          -4.5205034778217925
        ]
      }
    },
    {
      "type": "Feature",
      "properties": {
        "municipality": "Fortaleza dos Nogueiras",
        "state": "MA",
        "crop": "Coco-da-baía*",
        "hectares": 5.0,
        "production": 5.0,
        "year": 2023,
        "region": "Nordeste",
        "ibge_code": "2104107"
      },
      "geometry": {
        "type": "Point",
        "coordinates": [
          -44.31272753350399,
          -5.369688143699747
        ]
      }
    },
    {
      "type": "Feature",
      "properties": {
        "municipality": "Fortuna",
        "state": "MA",
        "crop": "Coco-da-baía*",
        "hectares": 6.0,
        "production": 6.0,
        "year": 2023,
        "region": "Nordeste",
        "ibge_code": "2104206"
      },
      "geometry": {
        "type": "Point",
        "coordinates": [
          -44.460223637594424,
          -5.198541331896601
        ]
      }
    },
    {
      "type": "Feature",
      "properties": {
        "municipality": "Governador Archer",
        "state": "MA",
        "crop": "Coco-da-baía*",
        "hectares": 1.0,
        "production": 1.0,
        "year": 2023,
        "region": "Nordeste",
        "ibge_code": "2104503"
      },
      "geometry": {
        "type": "Point",
        "coordinates": [
          -44.790826021478544,
          -4.715096610220596
        ]
      }
    },
    {
      "type": "Feature",
      "properties": {
        "municipality": "Governador Nunes Freire",
        "state": "MA",
        "crop": "Coco-da-baía*",
        "hectares": 6.0,
        "production": 6.0,
        "year": 2023,
        "region": "Nordeste",
        "ibge_code": "2104677"
      },
      "geometry": {
        "type": "Point",
        "coordinates": [
          -44.53067262595486,
          -4.040978139610089
        ]
      }
    },