{
  "type": "FeatureCollection",
  "name": "Erva-mate (folha verde)_production",
  "features": [
    {
      "type": "Feature",
      "properties": {
        "municipality": "Agudos do Sul",
        "state": "PR",
        "crop": "Erva-mate (folha verde)",
        "hectares": 9.0,
        "production": 9.0,
        "year": 2023,
        "region": "Sul",
        "ibge_code": "4100301"
      },
      "geometry": {
        "type": "Point",
        "coordinates": [
          -50.73253056443912,
          -25.83313269172884
        ]
      }
    },
    {
      "type": "Feature",
      "properties": {
        "municipality": "Ampére",
        "state": "PR",
        "crop": "Erva-mate (folha verde)",
        "hectares": 6.0,
        "production": 6.0,
        "year": 2023,
        "region": "Sul",
        "ibge_code": "4101002"
      },
      "geometry": {
        "type": "Point",
        "coordinates": [
          -51.1371634693573,
          -24.81975394772189
        ]
      }
    },
    {
      "type": "Feature",
      "properties": {
        "municipality": "Anahy",
        "state": "PR",
        "crop": "Erva-mate (folha verde)",
        "hectares": 5.0,
        "production": 5.0,
        "year": 2023,
        "region": "Sul",
        "ibge_code": "4101051"
      },
      "geometry": {
        "type": "Point",
        "coordinates": [
          -51.4250116180295,
          -24.904651387699275
        ]
      }
    },
    {
      "type": "Feature",
      "properties": {
        "municipality": "Araucária",
        "state": "PR",
        "crop": "Erva-mate (folha verde)",
        "hectares": 5.0,
        "production": 5.0,
        "year": 2023,
        "region": "Sul",
        "ibge_code": "4101804"
      },
      "geometry": {
        "type": "Point",
        "coordinates": [
          -50.4601557879898,
          -24.65156980303147
        ]
      }
    },
    {
      "type": "Feature",
      "properties": {
        "municipality": "Balsa Nova",
        "state": "PR",
        "crop": "Erva-mate (folha verde)",
        "hectares": 2.0,
        "production": 2.0,
        "year": 2023,
        "region": "Sul",
        "ibge_code": "4102307"
      },
      "geometry": {
        "type": "Point",
        "coordinates": [
          -52.091338056516925,
          -25.79294177899794
        ]
      }
    },
    {
      "type": "Feature",
      "properties": {
        "municipality": "Barracão",
        "state": "PR",
        "crop": "Erva-mate (folha verde)",
        "hectares": 3.0,
        "production": 3.0,
        "year": 2023,
        "region": "Sul",
        "ibge_code": "4102604"
      },
      "geometry": {
        "type": "Point",
        "coordinates": [
          -50.76618471569123,
          -24.326589349926717
        ]
      }
    },
    {
      "type": "Feature",
      "properties": {
        "municipality": "Bela Vista da Caroba",
        "state": "PR",
        "crop": "Erva-mate (folha verde)",
        "hectares": 5.0,
        "production": 5.0,
        "year": 2023,
        "region": "Sul",
        "ibge_code": "4102752"
      },
      "geometry": {
        "type": "Point",
        "coordinates": [
          -51.24876144805803,
          -25.47708545279548
        ]
      }
    },
    {
      "type": "Feature",
      "properties": {
        "municipality": "Bituruna",
        "state": "PR",
        "crop": "Erva-mate (folha verde)",
        "hectares": 4050.0,
        "production": 4050.0,
        "year": 2023,
        "region": "Sul",
        "ibge_code": "4102901"
      },
      "geometry": {
        "type": "Point",
        "coordinates": [
          -50.44342503992046,
          -25.03906221706622
        ]
      }
    },
    {
      "type": "Feature",
      "properties": {
        "municipality": "Boa Ventura de São Roque",
        "state": "PR",
        "crop": "Erva-mate (folha verde)",
        "hectares": 320.0,
        "production": 320.0,
        "year": 2023,
        "region": "Sul",
        "ibge_code": "4103040"
      },
      "geometry": {
        "type": "Point",
        "coordinates": [
          -51.6103724423083,
          -24.901977219032524
        ]
      }
    },
    {
      "type": "Feature",
      "properties": {
        "municipality": "Boa Vista da Aparecida",
        "state": "PR",
        "crop": "Erva-mate (folha verde)",
        "hectares": 5.0,
        "production": 5.0,
        "year": 2023,
        "region": "Sul",
        "ibge_code": "4103057"
      },
      "geometry": {
        "type": "Point",
        "coordinates": [
          -51.32654053396104,
          -24.44004559821946
        ]
      }
    },
    {
      "type": "Feature",
      "properties": {
        "municipality": "Bom Jesus do Sul",
        "state": "PR",
        "crop": "Erva-mate (folha verde)",
        "hectares": 3.0,
        "production": 3.0,
        "year": 2023,
        "region": "Sul",
        "ibge_code": "4103156"
      },
      "geometry": {
        "type": "Point",
        "coordinates": [
          -50.877030975482334,
          -25.68178159947719
        ]
      }
    },
    {
      "type": "Feature",
      "properties": {
        "municipality": "Bom Sucesso do Sul",
        "state": "PR",
        "crop": "Erva-mate (folha verde)",
        "hectares": 15.0,
        "production": 15.0,
        "year": 2023,
        "region": "Sul",
        "ibge_code": "4103222"
      },
      "geometry": {
        "type": "Point",
        "coordinates": [
          -51.349033489323666,
          -25.451520778129773
        ]
      }
    },
    {
      "type": "Feature",
      "properties": {
        "municipality": "Braganey",
        "state": "PR",
        "crop": "Erva-mate (folha verde)",
        "hectares": 5.0,
        "production": 5.0,
        "year": 2023,
        "region": "Sul",
        "ibge_code": "4103354"
      },
      "geometry": {
        "type": "Point",
        "coordinates": [
          -51.343606426204815,
          -25.395529848391632
        ]
      }
    },
    {
      "type": "Feature",
      "properties": {
        "municipality": "Cafelândia",
        "state": "PR",
        "crop": "Erva-mate (folha verde)",
        "hectares": 5.0,
        "production": 5.0,
        "year": 2023,
        "region": "Sul",
        "ibge_code": "4103453"
      },
      "geometry": {
        "type": "Point",
        "coordinates": [
          -52.14205540102064,
          -24.514492082218993
        ]
      }
    },
    {
      "type": "Feature",
      "properties": {
        "municipality": "Campo Bonito",
        "state": "PR",
        "crop": "Erva-mate (folha verde)",
        "hectares": 50.0,
        "production": 50.0,
        "year": 2023,
        "region": "Sul",
        "ibge_code": "4104055"
      },
      "geometry": {
        "type": "Point",
        "coordinates": [
          -50.550095582124,
          -25.298058517488997
        ]
      }
    },
    {
      "type": "Feature",
      "properties": {
        "municipality": "Campo do Tenente",
        "state": "PR",
        "crop": "Erva-mate (folha verde)",
        "hectares": 3.0,
        "production": 3.0,
        "year": 2023,
        "region": "Sul",
        "ibge_code": "4104105"
      },
      "geometry": {
        "type": "Point",
        "coordinates": [
          -51.45427982207067,
          -24.53722573270868
        ]
      }
    },
    {
      "type": "Feature",
      "properties": {
        "municipality": "Campo Largo",
        "state": "PR",
        "crop": "Erva-mate (folha verde)",
        "hectares": 80.0,
        "production": 80.0,
        "year": 2023,
        "region": "Sul",
        "ibge_code": "4104204"
      },
      "geometry": {
        "type": "Point",
        "coordinates": [
          -51.26471057098614,
          -24.72857977491484
        ]
      }
    },
    {
      "type": "Feature",
      "properties": {
        "municipality": "Campo Magro",
        "state": "PR",
        "crop": "Erva-mate (folha verde)",
        "hectares": 1.0,
        "production": 1.0,
        "year": 2023,
        "region": "Sul",
        "ibge_code": "4104253"
      },
      "geometry": {
        "type": "Point",
        "coordinates": [
          -52.008795000128536,
          -25.302393010783707
        ]
      }
    },
    {
      "type": "Feature",
      "properties": {
        "municipality": "Cândido de Abreu",
        "state": "PR",
        "crop": "Erva-mate (folha verde)",
        "hectares": 4.0,
        "production": 4.0,
        "year": 2023,
        "region": "Sul",
        "ibge_code": "4104402"
      },
      "geometry": {
        "type": "Point",
        "coordinates": [
          -50.83925606333581,
          -25.443124111146002
        ]
      }
    },
    {
      "type": "Feature",
      "properties": {
        "municipality": "Candói",
        "state": "PR",
        "crop": "Erva-mate (folha verde)",
        "hectares": 13.0,
        "production": 13.0,
        "year": 2023,
        "region": "Sul",
        "ibge_code": "4104428"
      },
      "geometry": {
        "type": "Point",
        "coordinates": [
          -51.919816344920775,
          -25.34136417980492
        ]
      }
    },
    {
      "type": "Feature",
      "properties": {
        "municipality": "Capanema",
        "state": "PR",
        "crop": "Erva-mate (folha verde)",
        "hectares": 21.0,
        "production": 21.0,
        "year": 2023,
        "region": "Sul",
        "ibge_code": "4104501"
      },
      "geometry": {
        "type": "Point",
        "coordinates": [
          -51.92750372418071,
          -24.01313181929831
        ]
      }
    },
    {
      "type": "Feature",
      "properties": {
        "municipality": "Capitão Leônidas Marques",
        "state": "PR",
        "crop": "Erva-mate (folha verde)",
        "hectares": 15.0,
        "production": 15.0,
        "year": 2023,
        "region": "Sul",
        "ibge_code": "4104600"
      },
      "geometry": {
        "type": "Point",
        "coordinates": [
          -52.05474621990391,
          -24.037216868244652
        ]
      }
    },
    {
      "type": "Feature",
      "properties": {
        "municipality": "Cascavel",
        "state": "PR",
        "crop": "Erva-mate (folha verde)",
        "hectares": 340.0,
        "production": 340.0,
        "year": 2023,
        "region": "Sul",
        "ibge_code": "4104808"
      },
      "geometry": {
        "type": "Point",
        "coordinates": [
          -51.58539706529497,
          -24.68168224406555
        ]
      }
    },
    {
      "type": "Feature",
      "properties": {
        "municipality": "Catanduvas",
        "state": "PR",
        "crop": "Erva-mate (folha verde)",
        "hectares": 30.0,
        "production": 30.0,
        "year": 2023,
        "region": "Sul",
        "ibge_code": "4105003"
      },
      "geometry": {
        "type": "Point",
        "coordinates": [
          -51.056585838288605,
          -25.54930138332676
        ]
      }
    },
    {
      "type": "Feature",
      "properties": {
        "municipality": "Céu Azul",
        "state": "PR",
        "crop": "Erva-mate (folha verde)",
        "hectares": 12.0,
        "production": 12.0,
        "year": 2023,
        "region": "Sul",
        "ibge_code": "4105300"
      },
      "geometry": {
        "type": "Point",
        "coordinates": [
          -52.035722887203534,
          -24.47123546440743
        ]
      }
    },
    {
      "type": "Feature",
      "properties": {
        "municipality": "Chopinzinho",
        "state": "PR",
        "crop": "Erva-mate (folha verde)",
        "hectares": 17.0,
        "production": 17.0,
        "year": 2023,
        "region": "Sul",
        "ibge_code": "4105409"
      },
      "geometry": {
        "type": "Point",
        "coordinates": [
          -50.48600633387573,
          -25.368785168630648
        ]
      }
    },
    {
      "type": "Feature",
      "properties": {
        "municipality": "Clevelândia",
        "state": "PR",
        "crop": "Erva-mate (folha verde)",
        "hectares": 38.0,
        "production": 38.0,
        "year": 2023,
        "region": "Sul",
        "ibge_code": "4105706"
      },
      "geometry": {
        "type": "Point",
        "coordinates": [
          -51.516444425403655,
          -24.28499390661881
        ]
      }
    },
    {
      "type": "Feature",
      "properties": {
        "municipality": "Corbélia",
        "state": "PR",
        "crop": "Erva-mate (folha verde)",
        "hectares": 30.0,
        "production": 30.0,
        "year": 2023,
        "region": "Sul",
        "ibge_code": "4106308"
      },
      "geometry": {
        "type": "Point",
        "coordinates": [
          -51.83247115204024,
          -25.113000120042308
        ]
      }
    },
    {
      "type": "Feature",
      "properties": {
        "municipality": "Coronel Domingos Soares",
        "state": "PR",
        "crop": "Erva-mate (folha verde)",
        "hectares": 180.0,
        "production": 180.0,
        "year": 2023,
        "region": "Sul",
        "ibge_code": "4106456"
      },
      "geometry": {
        "type": "Point",
        "coordinates": [
          -52.21433972032972,
          -24.13726201545291
        ]
      }
    },
    {
      "type": "Feature",
      "properties": {
        "municipality": "Coronel Vivida",
        "state": "PR",
        "crop": "Erva-mate (folha verde)",
        "hectares": 16.0,
        "production": 16.0,
        "year": 2023,
        "region": "Sul",
        "ibge_code": "4106506"
      },
      "geometry": {
        "type": "Point",
        "coordinates": [
          -51.930309227217194,
          -24.335567134870608
        ]
      }
    },
    {
      "type": "Feature",
      "properties": {
        "municipality": "Cruz Machado",
        "state": "PR",
        "crop": "Erva-mate (folha verde)",
        "hectares": 8400.0,
        "production": 8400.0,
        "year": 2023,
        "region": "Sul",
        "ibge_code": "4106803"
      },
      "geometry": {
        "type": "Point",
        "coordinates": [
          -52.006930007246375,
          -24.101395249985966
        ]
      }
    },
    {
      "type": "Feature",
      "properties": {
        "municipality": "Dois Vizinhos",
        "state": "PR",
        "crop": "Erva-mate (folha verde)",
        "hectares": 2.0,
        "production": 2.0,
        "year": 2023,
        "region": "Sul",
        "ibge_code": "4107207"
      },
      "geometry": {
        "type": "Point",
        "coordinates": [
          -51.77826724281921,
          -25.06298782462215
        ]
      }
    },
    {
      "type": "Feature",
      "properties": {
        "municipality": "Enéas Marques",
        "state": "PR",
        "crop": "Erva-mate (folha verde)",
        "hectares": 1.0,
        "production": 1.0,
        "year": 2023,
        "region": "Sul",
        "ibge_code": "4107405"
      },
      "geometry": {
        "type": "Point",
        "coordinates": [
          -52.006930007246375,
          -24.101395249985966
        ]
      }
    },
    {
      "type": "Feature",
      "properties": {
        "municipality": "Fernandes Pinheiro",
        "state": "PR",
        "crop": "Erva-mate (folha verde)",
        "hectares": 145.0,
        "production": 145.0,
        "year": 2023,
        "region": "Sul",
        "ibge_code": "4107736"
      },
      "geometry": {
        "type": "Point",
        "coordinates": [
          -51.08074262281275,
          -25.137297159343085
        ]
      }
    },
    {
      "type": "Feature",
      "properties": {
        "municipality": "Flor da Serra do Sul",
        "state": "PR",
        "crop": "Erva-mate (folha verde)",
        "hectares": 5.0,
        "production": 5.0,
        "year": 2023,
        "region": "Sul",
        "ibge_code": "4107850"
      },
      "geometry": {
        "type": "Point",
        "coordinates": [
          -52.20616826411123,
          -24.24938626341732
        ]
      }
    },
    {
      "type": "Feature",
      "properties": {
        "municipality": "Francisco Beltrão",
        "state": "PR",
        "crop": "Erva-mate (folha verde)",
        "hectares": 11.0,
        "production": 11.0,
        "year": 2023,
        "region": "Sul",
        "ibge_code": "4108403"
      },
      "geometry": {
        "type": "Point",
        "coordinates": [
          -52.091338056516925,
          -25.79294177899794
        ]
      }
    },
    {
      "type": "Feature",
      "properties": {
        "municipality": "Foz do Jordão",
        "state": "PR",
        "crop": "Erva-mate (folha verde)",
        "hectares": 11.0,
        "production": 11.0,
        "year": 2023,
        "region": "Sul",
        "ibge_code": "4108452"
      },
      "geometry": {
        "type": "Point",
        "coordinates": [
          -51.74282215733508,
          -25.089828523662092
        ]
      }
    },
    {
      "type": "Feature",
      "properties": {
        "municipality": "General Carneiro",
        "state": "PR",
        "crop": "Erva-mate (folha verde)",
        "hectares": 490.0,
        "production": 490.0,
        "year": 2023,
        "region": "Sul",
        "ibge_code": "4108502"
      },
      "geometry": {
        "type": "Point",
        "coordinates": [
          -51.194306646051125,
          -25.5357712908445
        ]
      }
    },
    {
      "type": "Feature",
      "properties": {
        "municipality": "Guamiranga",
        "state": "PR",
        "crop": "Erva-mate (folha verde)",
        "hectares": 210.0,
        "production": 210.0,
        "year": 2023,
        "region": "Sul",
        "ibge_code": "4108957"
      },
      "geometry": {
        "type": "Point",
        "coordinates": [
          -51.64633530216167,
          -25.698096725881076
        ]
      }
    },
    {
      "type": "Feature",
      "properties": {
        "municipality": "Guaraniaçu",
        "state": "PR",
        "crop": "Erva-mate (folha verde)",
        "hectares": 54.0,
        "production": 54.0,
        "year": 2023,
        "region": "Sul",
        "ibge_code": "4109302"
      },
      "geometry": {
        "type": "Point",
        "coordinates": [
          -50.881118485697804,
          -24.452803477821792
        ]
      }
    },
    {
      "type": "Feature",
      "properties": {
        "municipality": "Guarapuava",
        "state": "PR",
        "crop": "Erva-mate (folha verde)",
        "hectares": 2350.0,
        "production": 2350.0,
        "year": 2023,
        "region": "Sul",
        "ibge_code": "4109401"
      },
      "geometry": {
        "type": "Point",
        "coordinates": [
          -51.238220139218434,
          -25.400236080661283
        ]
      }
    },
    {
      "type": "Feature",
      "properties": {
        "municipality": "Honório Serpa",
        "state": "PR",
        "crop": "Erva-mate (folha verde)",
        "hectares": 10.0,
        "production": 10.0,
        "year": 2023,
        "region": "Sul",
        "ibge_code": "4109658"
      },
      "geometry": {
        "type": "Point",
        "coordinates": [
          -52.21685505201186,
          -24.32510827962011
        ]
      }
    },
    {
      "type": "Feature",
      "properties": {
        "municipality": "Ibema",
        "state": "PR",
        "crop": "Erva-mate (folha verde)",
        "hectares": 200.0,
        "production": 200.0,
        "year": 2023,
        "region": "Sul",
        "ibge_code": "4109757"
      },
      "geometry": {
        "type": "Point",
        "coordinates": [
          -52.21576017791762,
          -24.188953595772535
        ]
      }
    },
    {
      "type": "Feature",
      "properties": {
        "municipality": "Imbituva",
        "state": "PR",
        "crop": "Erva-mate (folha verde)",
        "hectares": 440.0,
        "production": 440.0,
        "year": 2023,
        "region": "Sul",
        "ibge_code": "4110102"
      },
      "geometry": {
        "type": "Point",
        "coordinates": [
          -50.4887221959319,
          -25.599031860221547
        ]
      }
    },
    {
      "type": "Feature",
      "properties": {
        "municipality": "Inácio Martins",
        "state": "PR",
        "crop": "Erva-mate (folha verde)",
        "hectares": 12.0,
        "production": 12.0,
        "year": 2023,
        "region": "Sul",
        "ibge_code": "4110201"
      },
      "geometry": {
        "type": "Point",
        "coordinates": [
          -52.39605976141473,
          -24.970371396488478
        ]
      }
    },
    {
      "type": "Feature",
      "properties": {
        "municipality": "Irati",
        "state": "PR",
        "crop": "Erva-mate (folha verde)",
        "hectares": 435.0,
        "production": 435.0,
        "year": 2023,
        "region": "Sul",
        "ibge_code": "4110706"
      },
      "geometry": {
        "type": "Point",
        "coordinates": [
          -50.81486355637029,
          -24.36246769978391
        ]
      }
    },
    {
      "type": "Feature",
      "properties": {
        "municipality": "Iretama",
        "state": "PR",
        "crop": "Erva-mate (folha verde)",
        "hectares": 6.0,
        "production": 6.0,
        "year": 2023,
        "region": "Sul",
        "ibge_code": "4110805"
      },
      "geometry": {
        "type": "Point",
        "coordinates": [
          -51.65490953584427,
          -24.21141066703455
        ]
      }
    },
    {
      "type": "Feature",
      "properties": {
        "municipality": "Itapejara d'Oeste",
        "state": "PR",
        "crop": "Erva-mate (folha verde)",
        "hectares": 16.0,
        "production": 16.0,
        "year": 2023,
        "region": "Sul",
        "ibge_code": "4111209"
      },
      "geometry": {
        "type": "Point",
        "coordinates": [
          -50.98366848059414,
          -25.847736448570743
        ]
      }
    },
    {
      "type": "Feature",
      "properties": {
        "municipality": "Ivaí",
        "state": "PR",
        "crop": "Erva-mate (folha verde)",
        "hectares": 1100.0,
        "production": 1100.0,
        "year": 2023,
        "region": "Sul",
        "ibge_code": "4111407"
      },
      "geometry": {
        "type": "Point",
        "coordinates": [
          -51.969943684803,
          -23.937071724679814
        ]
      }
    },
    {
      "type": "Feature",
      "properties": {
        "municipality": "Jaguariaíva",
        "state": "PR",
        "crop": "Erva-mate (folha verde)",
        "hectares": 2.0,
        "production": 2.0,
        "year": 2023,
        "region": "Sul",
        "ibge_code": "4112009"
      },
      "geometry": {
        "type": "Point",
        "coordinates": [
          -50.49953287087311,
          -25.712520291461303
        ]
      }
    },
    {
      "type": "Feature",
      "properties": {
        "municipality": "Lapa",
        "state": "PR",
        "crop": "Erva-mate (folha verde)",
        "hectares": 60.0,
        "production": 60.0,
        "year": 2023,
        "region": "Sul",
        "ibge_code": "4113205"
      },
      "geometry": {
        "type": "Point",
        "coordinates": [
          -51.89787260513806,
          -24.701920965597537
        ]
      }
    },
    {
      "type": "Feature",
      "properties": {
        "municipality": "Mallet",
        "state": "PR",
        "crop": "Erva-mate (folha verde)",
        "hectares": 280.0,
        "production": 280.0,
        "year": 2023,
        "region": "Sul",
        "ibge_code": "4113908"
      },
      "geometry": {
        "type": "Point",
        "coordinates": [
          -51.76731425521419,
          -24.909579981153286
        ]
      }
    },
    {
      "type": "Feature",
      "properties": {
        "municipality": "Mandirituba",
        "state": "PR",
        "crop": "Erva-mate (folha verde)",
        "hectares": 2.0,
        "production": 2.0,
        "year": 2023,
        "region": "Sul",
        "ibge_code": "4114302"
      },
      "geometry": {
        "type": "Point",
        "coordinates": [
          -50.57359771216959,
          -24.44280139250369
        ]
      }
    },
    {
      "type": "Feature",
      "properties": {
        "municipality": "Manfrinópolis",
        "state": "PR",
        "crop": "Erva-mate (folha verde)",
        "hectares": 1.0,
        "production": 1.0,
        "year": 2023,
        "region": "Sul",
        "ibge_code": "4114351"
      },
      "geometry": {
        "type": "Point",
        "coordinates": [
          -51.357446083487865,
          -25.277885439429678
        ]
      }
    },
    {
      "type": "Feature",
      "properties": {
        "municipality": "Mangueirinha",
        "state": "PR",
        "crop": "Erva-mate (folha verde)",
        "hectares": 24.0,
        "production": 24.0,
        "year": 2023,
        "region": "Sul",
        "ibge_code": "4114401"
      },
      "geometry": {
        "type": "Point",
        "coordinates": [
          -51.510732079385456,
          -25.403698770366795
        ]
      }
    },
    {
      "type": "Feature",
      "properties": {
        "municipality": "Manoel Ribas",
        "state": "PR",
        "crop": "Erva-mate (folha verde)",
        "hectares": 3.0,
        "production": 3.0,
        "year": 2023,
        "region": "Sul",
        "ibge_code": "4114500"
      },
      "geometry": {
        "type": "Point",
        "coordinates": [
          -51.32329635590254,
          -25.830782624021516
        ]
      }
    },
    {
      "type": "Feature",
      "properties": {
        "municipality": "Mariópolis",
        "state": "PR",
        "crop": "Erva-mate (folha verde)",
        "hectares": 8.0,
        "production": 8.0,
        "year": 2023,
        "region": "Sul",
        "ibge_code": "4115309"
      },
      "geometry": {
        "type": "Point",
        "coordinates": [
          -50.47620992833123,
          -25.439788281237902
        ]
      }
    },
    {
      "type": "Feature",
      "properties": {
        "municipality": "Marmeleiro",
        "state": "PR",
        "crop": "Erva-mate (folha verde)",
        "hectares": 2.0,
        "production": 2.0,
        "year": 2023,
        "region": "Sul",
        "ibge_code": "4115408"
      },
      "geometry": {
        "type": "Point",
        "coordinates": [
          -51.340549424278734,
          -25.8241704162861
        ]
      }
    },
    {
      "type": "Feature",
      "properties": {
        "municipality": "Mato Rico",
        "state": "PR",
        "crop": "Erva-mate (folha verde)",
        "hectares": 6.0,
        "production": 6.0,
        "year": 2023,
        "region": "Sul",
        "ibge_code": "4115739"
      },
      "geometry": {
        "type": "Point",
        "coordinates": [
          -52.30235402513438,
          -25.84297919779511
        ]
      }
    },
    {
      "type": "Feature",
      "properties": {
        "municipality": "Nova Esperança do Sudoeste",
        "state": "PR",
        "crop": "Erva-mate (folha verde)",
        "hectares": 1.0,
        "production": 1.0,
        "year": 2023,
        "region": "Sul",
        "ibge_code": "4116950"
      },
      "geometry": {
        "type": "Point",
        "coordinates": [
          -50.86106336389782,
          -25.26232962239311
        ]
      }
    },
    {
      "type": "Feature",
      "properties": {
        "municipality": "Nova Prata do Iguaçu",
        "state": "PR",
        "crop": "Erva-mate (folha verde)",
        "hectares": 14.0,
        "production": 14.0,
        "year": 2023,
        "region": "Sul",
        "ibge_code": "4117255"
      },
      "geometry": {
        "type": "Point",
        "coordinates": [
          -50.572676418964505,
          -24.43013773919958
        ]
      }
    },
    {
      "type": "Feature",
      "properties": {
        "municipality": "Nova Tebas",
        "state": "PR",
        "crop": "Erva-mate (folha verde)",
        "hectares": 5.0,
        "production": 5.0,
        "year": 2023,
        "region": "Sul",
        "ibge_code": "4117271"
      },
      "geometry": {
        "type": "Point",
        "coordinates": [
          -50.79581027495047,
          -24.113315060166844
        ]
      }
    },
    {
      "type": "Feature",
      "properties": {
        "municipality": "Palmas",
        "state": "PR",
        "crop": "Erva-mate (folha verde)",
        "hectares": 62.0,
        "production": 62.0,
        "year": 2023,
        "region": "Sul",
        "ibge_code": "4117602"
      },
      "geometry": {
        "type": "Point",
        "coordinates": [
          -50.46319247708827,
          -25.829885051915305
        ]
      }
    },
    {
      "type": "Feature",
      "properties": {
        "municipality": "Palmital",
        "state": "PR",
        "crop": "Erva-mate (folha verde)",
        "hectares": 110.0,
        "production": 110.0,
        "year": 2023,
        "region": "Sul",
        "ibge_code": "4117800"
      },
      "geometry": {
        "type": "Point",
        "coordinates": [
          -51.58539706529497,
          -24.68168224406555
        ]
      }
    },
    {
      "type": "Feature",
      "properties": {
        "municipality": "Pato Branco",
        "state": "PR",
        "crop": "Erva-mate (folha verde)",
        "hectares": 25.0,
        "production": 25.0,
        "year": 2023,
        "region": "Sul",
        "ibge_code": "4118501"
      },
      "geometry": {
        "type": "Point",
        "coordinates": [
          -51.63590979512252,
          -25.0036285469629
        ]
      }
    },
    {
      "type": "Feature",
      "properties": {
        "municipality": "Paula Freitas",
        "state": "PR",
        "crop": "Erva-mate (folha verde)",
        "hectares": 180.0,
        "production": 180.0,
        "year": 2023,
        "region": "Sul",
        "ibge_code": "4118600"
      },
      "geometry": {
        "type": "Point",
        "coordinates": [
          -50.83964205525845,
          -25.335075226414148
        ]
      }
    },
    {
      "type": "Feature",
      "properties": {
        "municipality": "Paulo Frontin",
        "state": "PR",
        "crop": "Erva-mate (folha verde)",
        "hectares": 500.0,
        "production": 500.0,
        "year": 2023,
        "region": "Sul",
        "ibge_code": "4118709"
      },
      "geometry": {
        "type": "Point",
        "coordinates": [
          -51.63292119003692,
          -24.573506739129854
        ]
      }
    },
    {
      "type": "Feature",
      "properties": {
        "municipality": "Pérola d'Oeste",
        "state": "PR",
        "crop": "Erva-mate (folha verde)",
        "hectares": 8.0,
        "production": 8.0,
        "year": 2023,
        "region": "Sul",
        "ibge_code": "4119004"
      },
      "geometry": {
        "type": "Point",
        "coordinates": [
          -51.77802873078047,
          -25.085567533906612
        ]
      }
    },
    {
      "type": "Feature",
      "properties": {
        "municipality": "Piên",
        "state": "PR",
        "crop": "Erva-mate (folha verde)",
        "hectares": 7.0,
        "production": 7.0,
        "year": 2023,
        "region": "Sul",
        "ibge_code": "4119103"
      },
      "geometry": {
        "type": "Point",
        "coordinates": [
          -51.45006438921829,
          -25.190725021101695
        ]
      }
    },
    {
      "type": "Feature",
      "properties": {
        "municipality": "Pinhal de São Bento",
        "state": "PR",
        "crop": "Erva-mate (folha verde)",
        "hectares": 5.0,
        "production": 5.0,
        "year": 2023,
        "region": "Sul",
        "ibge_code": "4119251"
      },
      "geometry": {
        "type": "Point",
        "coordinates": [
          -51.37138557317077,
          -25.19956360160913
        ]
      }
    },
    {
      "type": "Feature",
      "properties": {
        "municipality": "Pinhão",
        "state": "PR",
        "crop": "Erva-mate (folha verde)",
        "hectares": 1498.0,
        "production": 1498.0,
        "year": 2023,
        "region": "Sul",
        "ibge_code": "4119301"
      },
      "geometry": {
        "type": "Point",
        "coordinates": [
          -52.00429579245138,
          -25.147328469976284
        ]
      }
    },
    {
      "type": "Feature",
      "properties": {
        "municipality": "Pitanga",
        "state": "PR",
        "crop": "Erva-mate (folha verde)",
        "hectares": 1200.0,
        "production": 1200.0,
        "year": 2023,
        "region": "Sul",
        "ibge_code": "4119608"
      },
      "geometry": {
        "type": "Point",
        "coordinates": [
          -51.822407112720555,
          -24.81503687078838
        ]
      }
    },
    {
      "type": "Feature",
      "properties": {
        "municipality": "Planalto",
        "state": "PR",
        "crop": "Erva-mate (folha verde)",
        "hectares": 30.0,
        "production": 30.0,
        "year": 2023,
        "region": "Sul",
        "ibge_code": "4119806"
      },
      "geometry": {
        "type": "Point",
        "coordinates": [
          -51.16886942584755,
          -25.596857587225834
        ]
      }
    },
    {
      "type": "Feature",
      "properties": {
        "municipality": "Porto Vitória",
        "state": "PR",
        "crop": "Erva-mate (folha verde)",
        "hectares": 875.0,
        "production": 875.0,
        "year": 2023,
        "region": "Sul",
        "ibge_code": "4120309"
      },
      "geometry": {
        "type": "Point",
        "coordinates": [
          -51.59438789814994,
          -25.38824887343941
        ]
      }
    },
    {
      "type": "Feature",
      "properties": {
        "municipality": "Pranchita",
        "state": "PR",
        "crop": "Erva-mate (folha verde)",
        "hectares": 10.0,
        "production": 10.0,
        "year": 2023,
        "region": "Sul",
        "ibge_code": "4120358"
      },
      "geometry": {
        "type": "Point",
        "coordinates": [
          -51.42100534897708,
          -25.603758894732664
        ]
      }
    },
    {
      "type": "Feature",
      "properties": {
        "municipality": "Prudentópolis",
        "state": "PR",
        "crop": "Erva-mate (folha verde)",
        "hectares": 850.0,
        "production": 850.0,
        "year": 2023,
        "region": "Sul",
        "ibge_code": "4120606"
      },
      "geometry": {
        "type": "Point",
        "coordinates": [
          -51.868452553854915,
          -24.898126862482794
        ]
      }
    },
    {
      "type": "Feature",
      "properties": {
        "municipality": "Quitandinha",
        "state": "PR",
        "crop": "Erva-mate (folha verde)",
        "hectares": 45.0,
        "production": 45.0,
        "year": 2023,
        "region": "Sul",
        "ibge_code": "4121208"
      },
      "geometry": {
        "type": "Point",
        "coordinates": [
          -51.140361891362225,
          -24.94088347554131
        ]
      }
    },
    {
      "type": "Feature",
      "properties": {
        "municipality": "Ramilândia",
        "state": "PR",
        "crop": "Erva-mate (folha verde)",
        "hectares": 13.0,
        "production": 13.0,
        "year": 2023,
        "region": "Sul",
        "ibge_code": "4121257"
      },
      "geometry": {
        "type": "Point",
        "coordinates": [
          -50.4887221959319,
          -25.599031860221547
        ]
      }
    },
    {
      "type": "Feature",
      "properties": {
        "municipality": "Realeza",
        "state": "PR",
        "crop": "Erva-mate (folha verde)",
        "hectares": 7.0,
        "production": 7.0,
        "year": 2023,
        "region": "Sul",
        "ibge_code": "4121406"
      },
      "geometry": {
        "type": "Point",
        "coordinates": [
          -52.149477319822466,
          -24.79169236826293
        ]
      }
    },
    {
      "type": "Feature",
      "properties": {
        "municipality": "Rebouças",
        "state": "PR",
        "crop": "Erva-mate (folha verde)",
        "hectares": 435.0,
        "production": 435.0,
        "year": 2023,
        "region": "Sul",
        "ibge_code": "4121505"
      },
      "geometry": {
        "type": "Point",
        "coordinates": [
          -51.949165945269904,
          -25.175703262391696
        ]
      }
    },
    {
      "type": "Feature",
      "properties": {
        "municipality": "Renascença",
        "state": "PR",
        "crop": "Erva-mate (folha verde)",
        "hectares": 3.0,
        "production": 3.0,
        "year": 2023,
        "region": "Sul",
        "ibge_code": "4121604"
      },
      "geometry": {
        "type": "Point",
        "coordinates": [
          -51.748987711874925,
          -24.294969261766546
        ]
      }
    },
    {
      "type": "Feature",
      "properties": {
        "municipality": "Reserva do Iguaçu",
        "state": "PR",
        "crop": "Erva-mate (folha verde)",
        "hectares": 406.0,
        "production": 406.0,
        "year": 2023,
        "region": "Sul",
        "ibge_code": "4121752"
      },
      "geometry": {
        "type": "Point",
        "coordinates": [
          -52.39605976141473,
          -24.970371396488478
        ]
      }
    },
    {
      "type": "Feature",
      "properties": {
        "municipality": "Rio Azul",
        "state": "PR",
        "crop": "Erva-mate (folha verde)",
        "hectares": 500.0,
        "production": 500.0,
        "year": 2023,
        "region": "Sul",
        "ibge_code": "4122008"
      },
      "geometry": {
        "type": "Point",
        "coordinates": [
          -51.70177748941396,
          -25.602527676333438
        ]
      }
    },
    {
      "type": "Feature",
      "properties": {
        "municipality": "Rio Negro",
        "state": "PR",
        "crop": "Erva-mate (folha verde)",
        "hectares": 15.0,
        "production": 15.0,
        "year": 2023,
        "region": "Sul",
        "ibge_code": "4122305"
      },
      "geometry": {
        "type": "Point",
        "coordinates": [
          -51.24467221045082,
          -24.748046521314716
        ]
      }
    },
    {
      "type": "Feature",
      "properties": {
        "municipality": "Roncador",
        "state": "PR",
        "crop": "Erva-mate (folha verde)",
        "hectares": 30.0,
        "production": 30.0,
        "year": 2023,
        "region": "Sul",
        "ibge_code": "4122503"
      },
      "geometry": {
        "type": "Point",
        "coordinates": [
          -52.11786001134039,
          -24.057964075018898
        ]
      }
    },
    {
      "type": "Feature",
      "properties": {
        "municipality": "Salgado Filho",
        "state": "PR",
        "crop": "Erva-mate (folha verde)",
        "hectares": 1.0,
        "production": 1.0,
        "year": 2023,
        "region": "Sul",
        "ibge_code": "4122800"
      },
      "geometry": {
        "type": "Point",
        "coordinates": [
          -50.78741844576264,
          -24.849232180575015
        ]
      }
    },
    {
      "type": "Feature",
      "properties": {
        "municipality": "Salto do Lontra",
        "state": "PR",
        "crop": "Erva-mate (folha verde)",
        "hectares": 19.0,
        "production": 19.0,
        "year": 2023,
        "region": "Sul",
        "ibge_code": "4123006"
      },
      "geometry": {
        "type": "Point",
        "coordinates": [
          -51.92983975850099,
          -25.557810686332267
        ]
      }
    },
    {
      "type": "Feature",
      "properties": {
        "municipality": "Santa Izabel do Oeste",
        "state": "PR",
        "crop": "Erva-mate (folha verde)",
        "hectares": 18.0,
        "production": 18.0,
        "year": 2023,
        "region": "Sul",
        "ibge_code": "4123808"
      },
      "geometry": {
        "type": "Point",
        "coordinates": [
          -52.225027387781374,
          -25.435542188645833
        ]
      }
    },
    {
      "type": "Feature",
      "properties": {
        "municipality": "Santa Maria do Oeste",
        "state": "PR",
        "crop": "Erva-mate (folha verde)",
        "hectares": 1020.0,
        "production": 1020.0,
        "year": 2023,
        "region": "Sul",
        "ibge_code": "4123857"
      },
      "geometry": {
        "type": "Point",
        "coordinates": [
          -51.53831028641012,
          -24.921987399578914
        ]
      }
    },
    {
      "type": "Feature",
      "properties": {
        "municipality": "Santa Tereza do Oeste",
        "state": "PR",
        "crop": "Erva-mate (folha verde)",
        "hectares": 15.0,
        "production": 15.0,
        "year": 2023,
        "region": "Sul",
        "ibge_code": "4124020"
      },
      "geometry": {
        "type": "Point",
        "coordinates": [
          -50.68744673449597,
          -24.48715093514762
        ]
      }
    },
    {
      "type": "Feature",
      "properties": {
        "municipality": "Santo Antônio do Sudoeste",
        "state": "PR",
        "crop": "Erva-mate (folha verde)",
        "hectares": 10.0,
        "production": 10.0,
        "year": 2023,
        "region": "Sul",
        "ibge_code": "4124400"
      },
      "geometry": {
        "type": "Point",
        "coordinates": [
          -51.86183261407629,
          -25.175736775664827
        ]
      }
    },
    {
      "type": "Feature",
      "properties": {
        "municipality": "São João",
        "state": "PR",
        "crop": "Erva-mate (folha verde)",
        "hectares": 11.0,
        "production": 11.0,
        "year": 2023,
        "region": "Sul",
        "ibge_code": "4124806"
      },
      "geometry": {
        "type": "Point",
        "coordinates": [
          -50.71675099117262,
          -24.256038493599267
        ]
      }
    },
    {
      "type": "Feature",
      "properties": {
        "municipality": "São João do Triunfo",
        "state": "PR",
        "crop": "Erva-mate (folha verde)",
        "hectares": 750.0,
        "production": 750.0,
        "year": 2023,
        "region": "Sul",
        "ibge_code": "4125100"
      },
      "geometry": {
        "type": "Point",
        "coordinates": [
          -51.320410878260056,
          -25.24716393889961
        ]
      }
    },
    {
      "type": "Feature",
      "properties": {
        "municipality": "São Jorge d'Oeste",
        "state": "PR",
        "crop": "Erva-mate (folha verde)",
        "hectares": 2.0,
        "production": 2.0,
        "year": 2023,
        "region": "Sul",
        "ibge_code": "4125209"
      },
      "geometry": {
        "type": "Point",
        "coordinates": [
          -52.09373218589343,
          -23.946398659787924
        ]
      }
    },
    {
      "type": "Feature",
      "properties": {
        "municipality": "São José dos Pinhais",
        "state": "PR",
        "crop": "Erva-mate (folha verde)",
        "hectares": 9.0,
        "production": 9.0,
        "year": 2023,
        "region": "Sul",
        "ibge_code": "4125506"
      },
      "geometry": {
        "type": "Point",
        "coordinates": [
          -51.16851528453992,
          -25.57487954518688
        ]
      }
    },
    {
      "type": "Feature",
      "properties": {
        "municipality": "São Mateus do Sul",
        "state": "PR",
        "crop": "Erva-mate (folha verde)",
        "hectares": 7800.0,
        "production": 7800.0,
        "year": 2023,
        "region": "Sul",
        "ibge_code": "4125605"
      },
      "geometry": {
        "type": "Point",
        "coordinates": [
          -50.56255724287319,
          -24.09035359674158
        ]
      }
    },
    {
      "type": "Feature",
      "properties": {
        "municipality": "Saudade do Iguaçu",
        "state": "PR",
        "crop": "Erva-mate (folha verde)",
        "hectares": 4.0,
        "production": 4.0,
        "year": 2023,
        "region": "Sul",
        "ibge_code": "4126272"
      },
      "geometry": {
        "type": "Point",
        "coordinates": [
          -52.27114066020871,
          -23.944729705739036
        ]
      }
    },
    {
      "type": "Feature",
      "properties": {
        "municipality": "Sulina",
        "state": "PR",
        "crop": "Erva-mate (folha verde)",
        "hectares": 6.0,
        "production": 6.0,
        "year": 2023,
        "region": "Sul",
        "ibge_code": "4126652"
      },
      "geometry": {
        "type": "Point",
        "coordinates": [
          -50.64744938859449,
          -24.61414389823118
        ]
      }
    },
    {
      "type": "Feature",
      "properties": {
        "municipality": "Teixeira Soares",
        "state": "PR",
        "crop": "Erva-mate (folha verde)",
        "hectares": 175.0,
        "production": 175.0,
        "year": 2023,
        "region": "Sul",
        "ibge_code": "4127007"
      },
      "geometry": {
        "type": "Point",
        "coordinates": [
          -52.20616826411123,
          -24.24938626341732
        ]
      }
    },
    {
      "type": "Feature",
      "properties": {
        "municipality": "Tijucas do Sul",
        "state": "PR",
        "crop": "Erva-mate (folha verde)",
        "hectares": 35.0,
        "production": 35.0,
        "year": 2023,
        "region": "Sul",
        "ibge_code": "4127601"
      },
      "geometry": {
        "type": "Point",
        "coordinates": [
          -51.532066822501015,
          -25.686841991005164
        ]
      }
    },
    {
      "type": "Feature",
      "properties": {
        "municipality": "Três Barras do Paraná",
        "state": "PR",
        "crop": "Erva-mate (folha verde)",
        "hectares": 1.0,
        "production": 1.0,
        "year": 2023,
        "region": "Sul",
        "ibge_code": "4127858"
      },
      "geometry": {
        "type": "Point",
        "coordinates": [
          -52.25152519388054,
          -25.85073658201682
        ]
      }
    },
    {
      "type": "Feature",
      "properties": {
        "municipality": "Turvo",
        "state": "PR",
        "crop": "Erva-mate (folha verde)",
        "hectares": 852.0,
        "production": 852.0,
        "year": 2023,
        "region": "Sul",
        "ibge_code": "4127965"
      },
      "geometry": {
        "type": "Point",
        "coordinates": [
          -51.11123849782739,
          -24.36543685107321
        ]
      }
    },
    {
      "type": "Feature",
      "properties": {
        "municipality": "União da Vitória",
        "state": "PR",
        "crop": "Erva-mate (folha verde)",
        "hectares": 750.0,
        "production": 750.0,
        "year": 2023,
        "region": "Sul",
        "ibge_code": "4128203"
      },
      "geometry": {
        "type": "Point",
        "coordinates": [
          -52.217594783840866,
          -24.529190878824046
        ]
      }
    },
    {
      "type": "Feature",
      "properties": {
        "municipality": "Verê",
        "state": "PR",
        "crop": "Erva-mate (folha verde)",
        "hectares": 3.0,
        "production": 3.0,
        "year": 2023,
        "region": "Sul",
        "ibge_code": "4128609"
      },
      "geometry": {
        "type": "Point",
        "coordinates": [
          -50.75097227572641,
          -24.014991735361797
        ]
      }
    },
    {
      "type": "Feature",
      "properties": {
        "municipality": "Vitorino",
        "state": "PR",
        "crop": "Erva-mate (folha verde)",
        "hectares": 8.0,
        "production": 8.0,
        "year": 2023,
        "region": "Sul",
        "ibge_code": "4128708"
      },
      "geometry": {
        "type": "Point",
        "coordinates": [
          -52.02350365736925,
          -24.863324091984502
        ]
      }
    },
    {
      "type": "Feature",
      "properties": {
        "municipality": "Abelardo Luz",
        "state": "SC",
        "crop": "Erva-mate (folha verde)",
        "hectares": 35.0,
        "production": 35.0,
        "year": 2023,
        "region": "Sul",
        "ibge_code": "4200101"
      },
      "geometry": {
        "type": "Point",
        "coordinates": [
          -49.71781809922866,
          -27.144910788712355
        ]
      }
    },
    {
      "type": "Feature",
      "properties": {
        "municipality": "Agrolândia",
        "state": "SC",
        "crop": "Erva-mate (folha verde)",
        "hectares": 12.0,
        "production": 12.0,
        "year": 2023,
        "region": "Sul",
        "ibge_code": "4200200"
      },
      "geometry": {
        "type": "Point",
        "coordinates": [
          -50.47300953584427,
          -26.56051066703455
        ]
      }
    },
    {
      "type": "Feature",
      "properties": {
        "municipality": "Águas Frias",
        "state": "SC",
        "crop": "Erva-mate (folha verde)",
        "hectares": 9.0,
        "production": 9.0,
        "year": 2023,
        "region": "Sul",
        "ibge_code": "4200556"
      },
      "geometry": {
        "type": "Point",
        "coordinates": [
          -49.681698121506074,
          -26.323737816484005
        ]
      }
    },
    {
      "type": "Feature",
      "properties": {
        "municipality": "Alto Bela Vista",
        "state": "SC",
        "crop": "Erva-mate (folha verde)",
        "hectares": 30.0,
        "production": 30.0,
        "year": 2023,
        "region": "Sul",
        "ibge_code": "4200754"
      },
      "geometry": {
        "type": "Point",
        "coordinates": [
          -50.250190874951755,
          -27.89016471376568
        ]
      }
    },
    {
      "type": "Feature",
      "properties": {
        "municipality": "Anita Garibaldi",
        "state": "SC",
        "crop": "Erva-mate (folha verde)",
        "hectares": 4.0,
        "production": 4.0,
        "year": 2023,
        "region": "Sul",
        "ibge_code": "4201000"
      },
      "geometry": {
        "type": "Point",
        "coordinates": [
          -50.30904599097195,
          -27.95096148979174
        ]
      }
    },
    {
      "type": "Feature",
      "properties": {
        "municipality": "Arabutã",
        "state": "SC",
        "crop": "Erva-mate (folha verde)",
        "hectares": 300.0,
        "production": 300.0,
        "year": 2023,
        "region": "Sul",
        "ibge_code": "4201273"
      },
      "geometry": {
        "type": "Point",
        "coordinates": [
          -49.43459234551775,
          -27.81249565063438
        ]
      }
    },
    {
      "type": "Feature",
      "properties": {
        "municipality": "Arroio Trinta",
        "state": "SC",
        "crop": "Erva-mate (folha verde)",
        "hectares": 32.0,
        "production": 32.0,
        "year": 2023,
        "region": "Sul",
        "ibge_code": "4201604"
      },
      "geometry": {
        "type": "Point",
        "coordinates": [
          -49.55063056443912,
          -28.18223269172884
        ]
      }
    },
    {
      "type": "Feature",
      "properties": {
        "municipality": "Arvoredo",
        "state": "SC",
        "crop": "Erva-mate (folha verde)",
        "hectares": 78.0,
        "production": 78.0,
        "year": 2023,
        "region": "Sul",
        "ibge_code": "4201653"
      },
      "geometry": {
        "type": "Point",
        "coordinates": [
          -50.24230420295389,
          -28.02395952583359
        ]
      }
    },
    {
      "type": "Feature",
      "properties": {
        "municipality": "Bela Vista do Toldo",
        "state": "SC",
        "crop": "Erva-mate (folha verde)",
        "hectares": 330.0,
        "production": 330.0,
        "year": 2023,
        "region": "Sul",
        "ibge_code": "4202131"
      },
      "geometry": {
        "type": "Point",
        "coordinates": [
          -51.08516312361242,
          -27.85563704693976
        ]
      }
    },
    {
      "type": "Feature",
      "properties": {
        "municipality": "Bocaina do Sul",
        "state": "SC",
        "crop": "Erva-mate (folha verde)",
        "hectares": 12.0,
        "production": 12.0,
        "year": 2023,
        "region": "Sul",
        "ibge_code": "4202438"
      },
      "geometry": {
        "type": "Point",
        "coordinates": [
          -50.03431223413501,
          -27.246385366638265
        ]
      }
    },
    {
      "type": "Feature",
      "properties": {
        "municipality": "Bom Jesus",
        "state": "SC",
        "crop": "Erva-mate (folha verde)",
        "hectares": 5.0,
        "production": 5.0,
        "year": 2023,
        "region": "Sul",
        "ibge_code": "4202537"
      },
      "geometry": {
        "type": "Point",
        "coordinates": [
          -49.77910238938425,
          -27.209423181044475
        ]
      }
    },
    {
      "type": "Feature",
      "properties": {
        "municipality": "Bom Retiro",
        "state": "SC",
        "crop": "Erva-mate (folha verde)",
        "hectares": 3.0,
        "production": 3.0,
        "year": 2023,
        "region": "Sul",
        "ibge_code": "4202602"
      },
      "geometry": {
        "type": "Point",
        "coordinates": [
          -49.745083601018486,
          -26.887765321543114
        ]
      }
    },
    {
      "type": "Feature",
      "properties": {
        "municipality": "Caçador",
        "state": "SC",
        "crop": "Erva-mate (folha verde)",
        "hectares": 87.0,
        "production": 87.0,
        "year": 2023,
        "region": "Sul",
        "ibge_code": "4203006"
      },
      "geometry": {
        "type": "Point",
        "coordinates": [
          -49.69335063154067,
          -26.578910500859198
        ]
      }
    },
    {
      "type": "Feature",
      "properties": {
        "municipality": "Calmon",
        "state": "SC",
        "crop": "Erva-mate (folha verde)",
        "hectares": 66.0,
        "production": 66.0,
        "year": 2023,
        "region": "Sul",
        "ibge_code": "4203154"
      },
      "geometry": {
        "type": "Point",
        "coordinates": [
          -50.638168528273226,
          -27.108051942796035
        ]
      }
    },
    {
      "type": "Feature",
      "properties": {
        "municipality": "Campo Alegre",
        "state": "SC",
        "crop": "Erva-mate (folha verde)",
        "hectares": 360.0,
        "production": 360.0,
        "year": 2023,
        "region": "Sul",
        "ibge_code": "4203303"
      },
      "geometry": {
        "type": "Point",
        "coordinates": [
          -49.83936615156486,
          -27.912401040333606
        ]
      }
    },
    {
      "type": "Feature",
      "properties": {
        "municipality": "Campo Erê",
        "state": "SC",
        "crop": "Erva-mate (folha verde)",
        "hectares": 15.0,
        "production": 15.0,
        "year": 2023,
        "region": "Sul",
        "ibge_code": "4203501"
      },
      "geometry": {
        "type": "Point",
        "coordinates": [
          -50.14421980846063,
          -27.624364569240985
        ]
      }
    },
    {
      "type": "Feature",
      "properties": {
        "municipality": "Campos Novos",
        "state": "SC",
        "crop": "Erva-mate (folha verde)",
        "hectares": 10.0,
        "production": 10.0,
        "year": 2023,
        "region": "Sul",
        "ibge_code": "4203600"
      },
      "geometry": {
        "type": "Point",
        "coordinates": [
          -49.36265170687514,
          -28.096171763578713
        ]
      }
    },
    {
      "type": "Feature",
      "properties": {
        "municipality": "Canoinhas",
        "state": "SC",
        "crop": "Erva-mate (folha verde)",
        "hectares": 1103.0,
        "production": 1103.0,
        "year": 2023,
        "region": "Sul",
        "ibge_code": "4203808"
      },
      "geometry": {
        "type": "Point",
        "coordinates": [
          -50.58541425521419,
          -27.258679981153286
        ]
      }
    },
    {
      "type": "Feature",
      "properties": {
        "municipality": "Catanduvas",
        "state": "SC",
        "crop": "Erva-mate (folha verde)",
        "hectares": 560.0,
        "production": 560.0,
        "year": 2023,
        "region": "Sul",
        "ibge_code": "4204004"
      },
      "geometry": {
        "type": "Point",
        "coordinates": [
          -49.874685838288606,
          -27.89840138332676
        ]
      }
    },
    {
      "type": "Feature",
      "properties": {
        "municipality": "Cerro Negro",
        "state": "SC",
        "crop": "Erva-mate (folha verde)",
        "hectares": 6.0,
        "production": 6.0,
        "year": 2023,
        "region": "Sul",
        "ibge_code": "4204178"
      },
      "geometry": {
        "type": "Point",
        "coordinates": [
          -49.39908612538054,
          -26.66749728325325
        ]
      }
    },
    {
      "type": "Feature",
      "properties": {
        "municipality": "Chapecó",
        "state": "SC",
        "crop": "Erva-mate (folha verde)",
        "hectares": 2729.0,
        "production": 2729.0,
        "year": 2023,
        "region": "Sul",
        "ibge_code": "4204202"
      },
      "geometry": {
        "type": "Point",
        "coordinates": [
          -50.350166822501016,
          -28.035941991005163
        ]
      }
    },
    {
      "type": "Feature",
      "properties": {
        "municipality": "Concórdia",
        "state": "SC",
        "crop": "Erva-mate (folha verde)",
        "hectares": 1250.0,
        "production": 1250.0,
        "year": 2023,
        "region": "Sul",
        "ibge_code": "4204301"
      },
      "geometry": {
        "type": "Point",
        "coordinates": [
          -50.350166822501016,
          -28.035941991005163
        ]
      }
    },
    {
      "type": "Feature",
      "properties": {
        "municipality": "Cordilheira Alta",
        "state": "SC",
        "crop": "Erva-mate (folha verde)",
        "hectares": 53.0,
        "production": 53.0,
        "year": 2023,
        "region": "Sul",
        "ibge_code": "4204350"
      },
      "geometry": {
        "type": "Point",
        "coordinates": [
          -50.76866159015723,
          -26.591524629295233
        ]
      }
    },
    {
      "type": "Feature",
      "properties": {
        "municipality": "Coronel Freitas",
        "state": "SC",
        "crop": "Erva-mate (folha verde)",
        "hectares": 5.0,
        "production": 5.0,
        "year": 2023,
        "region": "Sul",
        "ibge_code": "4204400"
      },
      "geometry": {
        "type": "Point",
        "coordinates": [
          -50.477102435123946,
          -27.344154018876626
        ]
      }
    },
    {
      "type": "Feature",
      "properties": {
        "municipality": "Correia Pinto",
        "state": "SC",
        "crop": "Erva-mate (folha verde)",
        "hectares": 3.0,
        "production": 3.0,
        "year": 2023,
        "region": "Sul",
        "ibge_code": "4204558"
      },
      "geometry": {
        "type": "Point",
        "coordinates": [
          -49.60551844576264,
          -27.198332180575015
        ]
      }
    },
    {
      "type": "Feature",
      "properties": {
        "municipality": "Dionísio Cerqueira",
        "state": "SC",
        "crop": "Erva-mate (folha verde)",
        "hectares": 72.0,
        "production": 72.0,
        "year": 2023,
        "region": "Sul",
        "ibge_code": "4205001"
      },
      "geometry": {
        "type": "Point",
        "coordinates": [
          -50.33806820310048,
          -26.645656973605774
        ]
      }
    },
    {
      "type": "Feature",
      "properties": {
        "municipality": "Doutor Pedrinho",
        "state": "SC",
        "crop": "Erva-mate (folha verde)",
        "hectares": 30.0,
        "production": 30.0,
        "year": 2023,
        "region": "Sul",
        "ibge_code": "4205159"
      },
      "geometry": {
        "type": "Point",
        "coordinates": [
          -49.32541006008329,
          -28.049617771111492
        ]
      }
    },
    {
      "type": "Feature",
      "properties": {
        "municipality": "Faxinal dos Guedes",
        "state": "SC",
        "crop": "Erva-mate (folha verde)",
        "hectares": 26.0,
        "production": 26.0,
        "year": 2023,
        "region": "Sul",
        "ibge_code": "4205308"
      },
      "geometry": {
        "type": "Point",
        "coordinates": [
          -50.686552553854916,
          -27.247226862482794
        ]
      }
    },
    {
      "type": "Feature",
      "properties": {
        "municipality": "Fraiburgo",
        "state": "SC",
        "crop": "Erva-mate (folha verde)",
        "hectares": 11.0,
        "production": 11.0,
        "year": 2023,
        "region": "Sul",
        "ibge_code": "4205506"
      },
      "geometry": {
        "type": "Point",
        "coordinates": [
          -50.43599901649388,
          -26.28699335442344
        ]
      }
    },
    {
      "type": "Feature",
      "properties": {
        "municipality": "Guarujá do Sul",
        "state": "SC",
        "crop": "Erva-mate (folha verde)",
        "hectares": 2.0,
        "production": 2.0,
        "year": 2023,
        "region": "Sul",
        "ibge_code": "4206603"
      },
      "geometry": {
        "type": "Point",
        "coordinates": [
          -50.05128382826209,
          -28.067697026268366
        ]
      }
    },
    {
      "type": "Feature",
      "properties": {
        "municipality": "Guatambú",
        "state": "SC",
        "crop": "Erva-mate (folha verde)",
        "hectares": 1533.0,
        "production": 1533.0,
        "year": 2023,
        "region": "Sul",
        "ibge_code": "4206652"
      },
      "geometry": {
        "type": "Point",
        "coordinates": [
          -51.044526644954736,
          -28.137572802298113
        ]
      }
    },
    {
      "type": "Feature",
      "properties": {
        "municipality": "Ibicaré",
        "state": "SC",
        "crop": "Erva-mate (folha verde)",
        "hectares": 10.0,
        "production": 10.0,
        "year": 2023,
        "region": "Sul",
        "ibge_code": "4206801"
      },
      "geometry": {
        "type": "Point",
        "coordinates": [
          -51.043127387781375,
          -27.784642188645833
        ]
      }
    },
    {
      "type": "Feature",
      "properties": {
        "municipality": "Iomerê",
        "state": "SC",
        "crop": "Erva-mate (folha verde)",
        "hectares": 4.0,
        "production": 4.0,
        "year": 2023,
        "region": "Sul",
        "ibge_code": "4207577"
      },
      "geometry": {
        "type": "Point",
        "coordinates": [
          -49.971470248869544,
          -27.613708483140236
        ]
      }
    },
    {
      "type": "Feature",
      "properties": {
        "municipality": "Ipira",
        "state": "SC",
        "crop": "Erva-mate (folha verde)",
        "hectares": 65.0,
        "production": 65.0,
        "year": 2023,
        "region": "Sul",
        "ibge_code": "4207601"
      },
      "geometry": {
        "type": "Point",
        "coordinates": [
          -51.218048128437246,
          -28.115404329448655
        ]
      }
    },
    {
      "type": "Feature",
      "properties": {
        "municipality": "Ipuaçu",
        "state": "SC",
        "crop": "Erva-mate (folha verde)",
        "hectares": 4.0,
        "production": 4.0,
        "year": 2023,
        "region": "Sul",
        "ibge_code": "4207684"
      },
      "geometry": {
        "type": "Point",
        "coordinates": [
          -50.617727539654126,
          -27.200100677487157
        ]
      }
    },
    {
      "type": "Feature",
      "properties": {
        "municipality": "Ipumirim",
        "state": "SC",
        "crop": "Erva-mate (folha verde)",
        "hectares": 450.0,
        "production": 450.0,
        "year": 2023,
        "region": "Sul",
        "ibge_code": "4207700"
      },
      "geometry": {
        "type": "Point",
        "coordinates": [
          -49.71781809922866,
          -27.144910788712355
        ]
      }
    },
    {
      "type": "Feature",
      "properties": {
        "municipality": "Irani",
        "state": "SC",
        "crop": "Erva-mate (folha verde)",
        "hectares": 155.0,
        "production": 155.0,
        "year": 2023,
        "region": "Sul",
        "ibge_code": "4207809"
      },
      "geometry": {
        "type": "Point",
        "coordinates": [
          -49.99033462006731,
          -26.826463951876967
        ]
      }
    },
    {
      "type": "Feature",
      "properties": {
        "municipality": "Irineópolis",
        "state": "SC",
        "crop": "Erva-mate (folha verde)",
        "hectares": 318.0,
        "production": 318.0,
        "year": 2023,
        "region": "Sul",
        "ibge_code": "4207908"
      },
      "geometry": {
        "type": "Point",
        "coordinates": [
          -50.33929732652119,
          -27.57809566541448
        ]
      }
    },
    {
      "type": "Feature",
      "properties": {
        "municipality": "Itá",
        "state": "SC",
        "crop": "Erva-mate (folha verde)",
        "hectares": 45.0,
        "production": 45.0,
        "year": 2023,
        "region": "Sul",
        "ibge_code": "4208005"
      },
      "geometry": {
        "type": "Point",
        "coordinates": [
          -50.41891120805797,
          -26.465763847095022
        ]
      }
    },
    {
      "type": "Feature",
      "properties": {
        "municipality": "Itaiópolis",
        "state": "SC",
        "crop": "Erva-mate (folha verde)",
        "hectares": 373.0,
        "production": 373.0,
        "year": 2023,
        "region": "Sul",
        "ibge_code": "4208104"
      },
      "geometry": {
        "type": "Point",
        "coordinates": [
          -49.586726879670614,
          -27.444183719724094
        ]
      }
    },
    {
      "type": "Feature",
      "properties": {
        "municipality": "Jaborá",
        "state": "SC",
        "crop": "Erva-mate (folha verde)",
        "hectares": 100.0,
        "production": 100.0,
        "year": 2023,
        "region": "Sul",
        "ibge_code": "4208609"
      },
      "geometry": {
        "type": "Point",
        "coordinates": [
          -50.82939100893172,
          -27.07999573499087
        ]
      }
    },
    {
      "type": "Feature",
      "properties": {
        "municipality": "Jaraguá do Sul",
        "state": "SC",
        "crop": "Erva-mate (folha verde)",
        "hectares": 3.0,
        "production": 3.0,
        "year": 2023,
        "region": "Sul",
        "ibge_code": "4208906"
      },
      "geometry": {
        "type": "Point",
        "coordinates": [
          -49.319964912576694,
          -26.64762482472652
        ]
      }
    },
    {
      "type": "Feature",
      "properties": {
        "municipality": "Jardinópolis",
        "state": "SC",
        "crop": "Erva-mate (folha verde)",
        "hectares": 1.0,
        "production": 1.0,
        "year": 2023,
        "region": "Sul",
        "ibge_code": "4208955"
      },
      "geometry": {
        "type": "Point",
        "coordinates": [
          -51.00827584075909,
          -27.080416188365522
        ]
      }
    },
    {
      "type": "Feature",
      "properties": {
        "municipality": "Joaçaba",
        "state": "SC",
        "crop": "Erva-mate (folha verde)",
        "hectares": 3.0,
        "production": 3.0,
        "year": 2023,
        "region": "Sul",
        "ibge_code": "4209003"
      },
      "geometry": {
        "type": "Point",
        "coordinates": [
          -51.053383775555396,
          -27.993783906040967
        ]
      }
    },
    {
      "type": "Feature",
      "properties": {
        "municipality": "José Boiteux",
        "state": "SC",
        "crop": "Erva-mate (folha verde)",
        "hectares": 25.0,
        "production": 25.0,
        "year": 2023,
        "region": "Sul",
        "ibge_code": "4209151"
      },
      "geometry": {
        "type": "Point",
        "coordinates": [
          -49.321688444013645,
          -26.39256949674811
        ]
      }
    },
    {
      "type": "Feature",
      "properties": {
        "municipality": "Lacerdópolis",
        "state": "SC",
        "crop": "Erva-mate (folha verde)",
        "hectares": 94.0,
        "production": 94.0,
        "year": 2023,
        "region": "Sul",
        "ibge_code": "4209201"
      },
      "geometry": {
        "type": "Point",
        "coordinates": [
          -51.10985468997908,
          -26.285590283258006
        ]
      }
    },
    {
      "type": "Feature",
      "properties": {
        "municipality": "Lages",
        "state": "SC",
        "crop": "Erva-mate (folha verde)",
        "hectares": 8.0,
        "production": 8.0,
        "year": 2023,
        "region": "Sul",
        "ibge_code": "4209300"
      },
      "geometry": {
        "type": "Point",
        "coordinates": [
          -51.055749808748395,
          -27.430536831372642
        ]
      }
    },
    {
      "type": "Feature",
      "properties": {
        "municipality": "Lajeado Grande",
        "state": "SC",
        "crop": "Erva-mate (folha verde)",
        "hectares": 4.0,
        "production": 4.0,
        "year": 2023,
        "region": "Sul",
        "ibge_code": "4209458"
      },
      "geometry": {
        "type": "Point",
        "coordinates": [
          -49.49743897048522,
          -27.546540352545964
        ]
      }
    },
    {
      "type": "Feature",
      "properties": {
        "municipality": "Lebon Régis",
        "state": "SC",
        "crop": "Erva-mate (folha verde)",
        "hectares": 40.0,
        "production": 40.0,
        "year": 2023,
        "region": "Sul",
        "ibge_code": "4209706"
      },
      "geometry": {
        "type": "Point",
        "coordinates": [
          -50.32845521294202,
          -27.131165794854542
        ]
      }
    },
    {
      "type": "Feature",
      "properties": {
        "municipality": "Lindóia do Sul",
        "state": "SC",
        "crop": "Erva-mate (folha verde)",
        "hectares": 600.0,
        "production": 600.0,
        "year": 2023,
        "region": "Sul",
        "ibge_code": "4209854"
      },
      "geometry": {
        "type": "Point",
        "coordinates": [
          -49.719249607055595,
          -26.645003037669927
        ]
      }
    },
    {
      "type": "Feature",
      "properties": {
        "municipality": "Luzerna",
        "state": "SC",
        "crop": "Erva-mate (folha verde)",
        "hectares": 40.0,
        "production": 40.0,
        "year": 2023,
        "region": "Sul",
        "ibge_code": "4210035"
      },
      "geometry": {
        "type": "Point",
        "coordinates": [
          -50.781425997056914,
          -27.58060307426328
        ]
      }
    },
    {
      "type": "Feature",
      "properties": {
        "municipality": "Macieira",
        "state": "SC",
        "crop": "Erva-mate (folha verde)",
        "hectares": 1.0,
        "production": 1.0,
        "year": 2023,
        "region": "Sul",
        "ibge_code": "4210050"
      },
      "geometry": {
        "type": "Point",
        "coordinates": [
          -50.002540674772725,
          -26.412599833220085
        ]
      }
    },
    {
      "type": "Feature",
      "properties": {
        "municipality": "Mafra",
        "state": "SC",
        "crop": "Erva-mate (folha verde)",
        "hectares": 396.0,
        "production": 396.0,
        "year": 2023,
        "region": "Sul",
        "ibge_code": "4210100"
      },
      "geometry": {
        "type": "Point",
        "coordinates": [
          -49.68402711131797,
          -28.182901660973524
        ]
      }
    },
    {
      "type": "Feature",
      "properties": {
        "municipality": "Major Vieira",
        "state": "SC",
        "crop": "Erva-mate (folha verde)",
        "hectares": 337.0,
        "production": 337.0,
        "year": 2023,
        "region": "Sul",
        "ibge_code": "4210308"
      },
      "geometry": {
        "type": "Point",
        "coordinates": [
          -50.84160365736925,
          -27.212424091984502
        ]
      }
    },
    {
      "type": "Feature",
      "properties": {
        "municipality": "Marema",
        "state": "SC",
        "crop": "Erva-mate (folha verde)",
        "hectares": 2.0,
        "production": 2.0,
        "year": 2023,
        "region": "Sul",
        "ibge_code": "4210555"
      },
      "geometry": {
        "type": "Point",
        "coordinates": [
          -50.76929913713026,
          -27.01901321495023
        ]
      }
    },
    {
      "type": "Feature",
      "properties": {
        "municipality": "Matos Costa",
        "state": "SC",
        "crop": "Erva-mate (folha verde)",
        "hectares": 50.0,
        "production": 50.0,
        "year": 2023,
        "region": "Sul",
        "ibge_code": "4210704"
      },
      "geometry": {
        "type": "Point",
        "coordinates": [
          -50.240162633075386,
          -28.134342632205357
        ]
      }
    },
    {
      "type": "Feature",
      "properties": {
        "municipality": "Monte Castelo",
        "state": "SC",
        "crop": "Erva-mate (folha verde)",
        "hectares": 278.0,
        "production": 278.0,
        "year": 2023,
        "region": "Sul",
        "ibge_code": "4211108"
      },
      "geometry": {
        "type": "Point",
        "coordinates": [
          -50.0450592866787,
          -27.096947473717595
        ]
      }
    },
    {
      "type": "Feature",
      "properties": {
        "municipality": "Nova Erechim",
        "state": "SC",
        "crop": "Erva-mate (folha verde)",
        "hectares": 1.0,
        "production": 1.0,
        "year": 2023,
        "region": "Sul",
        "ibge_code": "4211405"
      },
      "geometry": {
        "type": "Point",
        "coordinates": [
          -50.50820137433332,
          -27.207733080068966
        ]
      }
    },
    {
      "type": "Feature",
      "properties": {
        "municipality": "Nova Itaberaba",
        "state": "SC",
        "crop": "Erva-mate (folha verde)",
        "hectares": 10.0,
        "production": 10.0,
        "year": 2023,
        "region": "Sul",
        "ibge_code": "4211454"
      },
      "geometry": {
        "type": "Point",
        "coordinates": [
          -50.62167112028,
          -27.71123188665339
        ]
      }
    },
    {
      "type": "Feature",
      "properties": {
        "municipality": "Novo Horizonte",
        "state": "SC",
        "crop": "Erva-mate (folha verde)",
        "hectares": 8.0,
        "production": 8.0,
        "year": 2023,
        "region": "Sul",
        "ibge_code": "4211652"
      },
      "geometry": {
        "type": "Point",
        "coordinates": [
          -50.240162633075386,
          -28.134342632205357
        ]
      }
    },
    {
      "type": "Feature",
      "properties": {
        "municipality": "Otacílio Costa",
        "state": "SC",
        "crop": "Erva-mate (folha verde)",
        "hectares": 3.0,
        "production": 3.0,
        "year": 2023,
        "region": "Sul",
        "ibge_code": "4211751"
      },
      "geometry": {
        "type": "Point",
        "coordinates": [
          -50.89464568955303,
          -27.28117836467745
        ]
      }
    },
    {
      "type": "Feature",
      "properties": {
        "municipality": "Ouro",
        "state": "SC",
        "crop": "Erva-mate (folha verde)",
        "hectares": 195.0,
        "production": 195.0,
        "year": 2023,
        "region": "Sul",
        "ibge_code": "4211801"
      },
      "geometry": {
        "type": "Point",
        "coordinates": [
          -49.757605449413596,
          -26.807687516893033
        ]
      }
    },
    {
      "type": "Feature",
      "properties": {
        "municipality": "Paial",
        "state": "SC",
        "crop": "Erva-mate (folha verde)",
        "hectares": 13.0,
        "production": 13.0,
        "year": 2023,
        "region": "Sul",
        "ibge_code": "4211876"
      },
      "geometry": {
        "type": "Point",
        "coordinates": [
          -49.55657944510161,
          -27.529503586474554
        ]
      }
    },
    {
      "type": "Feature",
      "properties": {
        "municipality": "Painel",
        "state": "SC",
        "crop": "Erva-mate (folha verde)",
        "hectares": 30.0,
        "production": 30.0,
        "year": 2023,
        "region": "Sul",
        "ibge_code": "4211892"
      },
      "geometry": {
        "type": "Point",
        "coordinates": [
          -49.454325626322074,
          -28.17422501192528
        ]
      }
    },
    {
      "type": "Feature",
      "properties": {
        "municipality": "Palma Sola",
        "state": "SC",
        "crop": "Erva-mate (folha verde)",
        "hectares": 35.0,
        "production": 35.0,
        "year": 2023,
        "region": "Sul",
        "ibge_code": "4212007"
      },
      "geometry": {
        "type": "Point",
        "coordinates": [
          -50.32883207938546,
          -27.752798770366795
        ]
      }
    },
    {
      "type": "Feature",
      "properties": {
        "municipality": "Palmeira",
        "state": "SC",
        "crop": "Erva-mate (folha verde)",
        "hectares": 15.0,
        "production": 15.0,
        "year": 2023,
        "region": "Sul",
        "ibge_code": "4212056"
      },
      "geometry": {
        "type": "Point",
        "coordinates": [
          -50.4436625206871,
          -27.08068484760864
        ]
      }
    },
    {
      "type": "Feature",
      "properties": {
        "municipality": "Papanduva",
        "state": "SC",
        "crop": "Erva-mate (folha verde)",
        "hectares": 339.0,
        "production": 339.0,
        "year": 2023,
        "region": "Sul",
        "ibge_code": "4212205"
      },
      "geometry": {
        "type": "Point",
        "coordinates": [
          -50.83883708514064,
          -28.11473303889093
        ]
      }
    },
    {
      "type": "Feature",
      "properties": {
        "municipality": "Passos Maia",
        "state": "SC",
        "crop": "Erva-mate (folha verde)",
        "hectares": 50.0,
        "production": 50.0,
        "year": 2023,
        "region": "Sul",
        "ibge_code": "4212270"
      },
      "geometry": {
        "type": "Point",
        "coordinates": [
          -50.414377259921466,
          -27.81485316901114
        ]
      }
    },
    {
      "type": "Feature",
      "properties": {
        "municipality": "Peritiba",
        "state": "SC",
        "crop": "Erva-mate (folha verde)",
        "hectares": 20.0,
        "production": 20.0,
        "year": 2023,
        "region": "Sul",
        "ibge_code": "4212601"
      },
      "geometry": {
        "type": "Point",
        "coordinates": [
          -49.49090974028068,
          -27.025376924684224
        ]
      }
    },
    {
      "type": "Feature",
      "properties": {
        "municipality": "Pinhalzinho",
        "state": "SC",
        "crop": "Erva-mate (folha verde)",
        "hectares": 6.0,
        "production": 6.0,
        "year": 2023,
        "region": "Sul",
        "ibge_code": "4212908"
      },
      "geometry": {
        "type": "Point",
        "coordinates": [
          -49.99703087693102,
          -27.278201525378574
        ]
      }
    },
    {
      "type": "Feature",
      "properties": {
        "municipality": "Pinheiro Preto",
        "state": "SC",
        "crop": "Erva-mate (folha verde)",
        "hectares": 3.0,
        "production": 3.0,
        "year": 2023,
        "region": "Sul",
        "ibge_code": "4213005"
      },
      "geometry": {
        "type": "Point",
        "coordinates": [
          -51.0141987061326,
          -27.489738559167854
        ]
      }
    },
    {
      "type": "Feature",
      "properties": {
        "municipality": "Piratuba",
        "state": "SC",
        "crop": "Erva-mate (folha verde)",
        "hectares": 32.0,
        "production": 32.0,
        "year": 2023,
        "region": "Sul",
        "ibge_code": "4213104"
      },
      "geometry": {
        "type": "Point",
        "coordinates": [
          -49.70132212086149,
          -26.91641576916309
        ]
      }
    },
    {
      "type": "Feature",
      "properties": {
        "municipality": "Ponte Serrada",
        "state": "SC",
        "crop": "Erva-mate (folha verde)",
        "hectares": 170.0,
        "production": 170.0,
        "year": 2023,
        "region": "Sul",
        "ibge_code": "4213401"
      },
      "geometry": {
        "type": "Point",
        "coordinates": [
          -49.76693286455515,
          -26.42987531256126
        ]
      }
    },
    {
      "type": "Feature",
      "properties": {
        "municipality": "Porto União",
        "state": "SC",
        "crop": "Erva-mate (folha verde)",
        "hectares": 398.0,
        "production": 398.0,
        "year": 2023,
        "region": "Sul",
        "ibge_code": "4213609"
      },
      "geometry": {
        "type": "Point",
        "coordinates": [
          -49.61192673337718,
          -27.886740443505182
        ]
      }
    },
    {
      "type": "Feature",
      "properties": {
        "municipality": "Presidente Castello Branco",
        "state": "SC",
        "crop": "Erva-mate (folha verde)",
        "hectares": 135.0,
        "production": 135.0,
        "year": 2023,
        "region": "Sul",
        "ibge_code": "4213906"
      },
      "geometry": {
        "type": "Point",
        "coordinates": [
          -49.66153600709654,
          -27.477852601805477
        ]
      }
    },
    {
      "type": "Feature",
      "properties": {
        "municipality": "Quilombo",
        "state": "SC",
        "crop": "Erva-mate (folha verde)",
        "hectares": 10.0,
        "production": 10.0,
        "year": 2023,
        "region": "Sul",
        "ibge_code": "4214201"
      },
      "geometry": {
        "type": "Point",
        "coordinates": [
          -49.71538987747264,
          -28.093125471154423
        ]
      }
    },
    {
      "type": "Feature",
      "properties": {
        "municipality": "Rio das Antas",
        "state": "SC",
        "crop": "Erva-mate (folha verde)",
        "hectares": 45.0,
        "production": 45.0,
        "year": 2023,
        "region": "Sul",
        "ibge_code": "4214409"
      },
      "geometry": {
        "type": "Point",
        "coordinates": [
          -51.01164206117708,
          -26.92577497547004
        ]
      }
    },
    {
      "type": "Feature",
      "properties": {
        "municipality": "Rio Negrinho",
        "state": "SC",
        "crop": "Erva-mate (folha verde)",
        "hectares": 252.0,
        "production": 252.0,
        "year": 2023,
        "region": "Sul",
        "ibge_code": "4215000"
      },
      "geometry": {
        "type": "Point",
        "coordinates": [
          -50.810103447164636,
          -27.1571030254918
        ]
      }
    },
    {
      "type": "Feature",
      "properties": {
        "municipality": "Rio Rufino",
        "state": "SC",
        "crop": "Erva-mate (folha verde)",
        "hectares": 10.0,
        "production": 10.0,
        "year": 2023,
        "region": "Sul",
        "ibge_code": "4215059"
      },
      "geometry": {
        "type": "Point",
        "coordinates": [
          -50.239105348977084,
          -27.952858894732664
        ]
      }
    },
    {
      "type": "Feature",
      "properties": {
        "municipality": "Romelândia",
        "state": "SC",
        "crop": "Erva-mate (folha verde)",
        "hectares": 2.0,
        "production": 2.0,
        "year": 2023,
        "region": "Sul",
        "ibge_code": "4215208"
      },
      "geometry": {
        "type": "Point",
        "coordinates": [
          -49.48869055713427,
          -26.273960469951913
        ]
      }
    },
    {
      "type": "Feature",
      "properties": {
        "municipality": "Saltinho",
        "state": "SC",
        "crop": "Erva-mate (folha verde)",
        "hectares": 10.0,
        "production": 10.0,
        "year": 2023,
        "region": "Sul",
        "ibge_code": "4215356"
      },
      "geometry": {
        "type": "Point",
        "coordinates": [
          -51.08447177332965,
          -26.612516926893683
        ]
      }
    },
    {
      "type": "Feature",
      "properties": {
        "municipality": "Salto Veloso",
        "state": "SC",
        "crop": "Erva-mate (folha verde)",
        "hectares": 30.0,
        "production": 30.0,
        "year": 2023,
        "region": "Sul",
        "ibge_code": "4215406"
      },
      "geometry": {
        "type": "Point",
        "coordinates": [
          -49.49470429110457,
          -27.97395486597444
        ]
      }
    },
    {
      "type": "Feature",
      "properties": {
        "municipality": "Santa Helena",
        "state": "SC",
        "crop": "Erva-mate (folha verde)",
        "hectares": 1.0,
        "production": 1.0,
        "year": 2023,
        "region": "Sul",
        "ibge_code": "4215554"
      },
      "geometry": {
        "type": "Point",
        "coordinates": [
          -49.56304573378772,
          -26.758065445126448
        ]
      }
    },
    {
      "type": "Feature",
      "properties": {
        "municipality": "Santiago do Sul",
        "state": "SC",
        "crop": "Erva-mate (folha verde)",
        "hectares": 2.0,
        "production": 2.0,
        "year": 2023,
        "region": "Sul",
        "ibge_code": "4215695"
      },
      "geometry": {
        "type": "Point",
        "coordinates": [
          -50.175546083487866,
          -27.626985439429678
        ]
      }
    },
    {
      "type": "Feature",
      "properties": {
        "municipality": "São Bernardino",
        "state": "SC",
        "crop": "Erva-mate (folha verde)",
        "hectares": 3.0,
        "production": 3.0,
        "year": 2023,
        "region": "Sul",
        "ibge_code": "4215752"
      },
      "geometry": {
        "type": "Point",
        "coordinates": [
          -51.078978320626184,
          -26.695455024094958
        ]
      }
    },
    {
      "type": "Feature",
      "properties": {
        "municipality": "São Bento do Sul",
        "state": "SC",
        "crop": "Erva-mate (folha verde)",
        "hectares": 153.0,
        "production": 153.0,
        "year": 2023,
        "region": "Sul",
        "ibge_code": "4215802"
      },
      "geometry": {
        "type": "Point",
        "coordinates": [
          -50.86396668962762,
          -26.734926834403314
        ]
      }
    },
    {
      "type": "Feature",
      "properties": {
        "municipality": "São Joaquim",
        "state": "SC",
        "crop": "Erva-mate (folha verde)",
        "hectares": 5.0,
        "production": 5.0,
        "year": 2023,
        "region": "Sul",
        "ibge_code": "4216503"
      },
      "geometry": {
        "type": "Point",
        "coordinates": [
          -50.96015540102064,
          -26.863592082218993
        ]
      }
    },
    {
      "type": "Feature",
      "properties": {
        "municipality": "São José do Cedro",
        "state": "SC",
        "crop": "Erva-mate (folha verde)",
        "hectares": 9.0,
        "production": 9.0,
        "year": 2023,
        "region": "Sul",
        "ibge_code": "4216701"
      },
      "geometry": {
        "type": "Point",
        "coordinates": [
          -50.066861448058035,
          -27.82618545279548
        ]
      }
    },
    {
      "type": "Feature",
      "properties": {
        "municipality": "São José do Cerrito",
        "state": "SC",
        "crop": "Erva-mate (folha verde)",
        "hectares": 22.0,
        "production": 22.0,
        "year": 2023,
        "region": "Sul",
        "ibge_code": "4216800"
      },
      "geometry": {
        "type": "Point",
        "coordinates": [
          -51.16027761849975,
          -26.946431187166755
        ]
      }
    },
    {
      "type": "Feature",
      "properties": {
        "municipality": "São Lourenço do Oeste",
        "state": "SC",
        "crop": "Erva-mate (folha verde)",
        "hectares": 5.0,
        "production": 5.0,
        "year": 2023,
        "region": "Sul",
        "ibge_code": "4216909"
      },
      "geometry": {
        "type": "Point",
        "coordinates": [
          -49.40472363759442,
          -27.4799413318966
        ]
      }
    },
    {
      "type": "Feature",
      "properties": {
        "municipality": "Saudades",
        "state": "SC",
        "crop": "Erva-mate (folha verde)",
        "hectares": 1.0,
        "production": 1.0,
        "year": 2023,
        "region": "Sul",
        "ibge_code": "4217303"
      },
      "geometry": {
        "type": "Point",
        "coordinates": [
          -49.719249607055595,
          -26.645003037669927
        ]
      }
    },
    {
      "type": "Feature",
      "properties": {
        "municipality": "Seara",
        "state": "SC",
        "crop": "Erva-mate (folha verde)",
        "hectares": 50.0,
        "production": 50.0,
        "year": 2023,
        "region": "Sul",
        "ibge_code": "4217501"
      },
      "geometry": {
        "type": "Point",
        "coordinates": [
          -49.818774670653504,
          -27.082682063353058
        ]
      }
    },
    {
      "type": "Feature",
      "properties": {
        "municipality": "Sul Brasil",
        "state": "SC",
        "crop": "Erva-mate (folha verde)",
        "hectares": 6.0,
        "production": 6.0,
        "year": 2023,
        "region": "Sul",
        "ibge_code": "4217758"
      },
      "geometry": {
        "type": "Point",
        "coordinates": [
          -51.20591607078347,
          -27.224691239495026
        ]
      }
    },
    {
      "type": "Feature",
      "properties": {
        "municipality": "Tangará",
        "state": "SC",
        "crop": "Erva-mate (folha verde)",
        "hectares": 5.0,
        "production": 5.0,
        "year": 2023,
        "region": "Sul",
        "ibge_code": "4217907"
      },
      "geometry": {
        "type": "Point",
        "coordinates": [
          -50.67643388676075,
          -27.32391865368267
        ]
      }
    },
    {
      "type": "Feature",
      "properties": {
        "municipality": "Timbó Grande",
        "state": "SC",
        "crop": "Erva-mate (folha verde)",
        "hectares": 162.0,
        "production": 162.0,
        "year": 2023,
        "region": "Sul",
        "ibge_code": "4218251"
      },
      "geometry": {
        "type": "Point",
        "coordinates": [
          -49.414043503183144,
          -27.211693713857386
        ]
      }
    },
    {
      "type": "Feature",
      "properties": {
        "municipality": "Três Barras",
        "state": "SC",
        "crop": "Erva-mate (folha verde)",
        "hectares": 135.0,
        "production": 135.0,
        "year": 2023,
        "region": "Sul",
        "ibge_code": "4218301"
      },
      "geometry": {
        "type": "Point",
        "coordinates": [
          -51.02685411318223,
          -26.61334370910438
        ]
      }
    },
    {
      "type": "Feature",
      "properties": {
        "municipality": "Treze Tílias",
        "state": "SC",
        "crop": "Erva-mate (folha verde)",
        "hectares": 10.0,
        "production": 10.0,
        "year": 2023,
        "region": "Sul",
        "ibge_code": "4218509"
      },
      "geometry": {
        "type": "Point",
        "coordinates": [
          -50.169773873815856,
          -26.707743268889086
        ]
      }
    },
    {
      "type": "Feature",
      "properties": {
        "municipality": "Urubici",
        "state": "SC",
        "crop": "Erva-mate (folha verde)",
        "hectares": 48.0,
        "production": 48.0,
        "year": 2023,
        "region": "Sul",
        "ibge_code": "4218905"
      },
      "geometry": {
        "type": "Point",
        "coordinates": [
          -50.91720165215099,
          -27.594634470333677
        ]
      }
    },
    {
      "type": "Feature",
      "properties": {
        "municipality": "Urupema",
        "state": "SC",
        "crop": "Erva-mate (folha verde)",
        "hectares": 23.0,
        "production": 23.0,
        "year": 2023,
        "region": "Sul",
        "ibge_code": "4218954"
      },
      "geometry": {
        "type": "Point",
        "coordinates": [
          -50.822544086052446,
          -26.43929718271924
        ]
      }
    },
    {
      "type": "Feature",
      "properties": {
        "municipality": "Vargeão",
        "state": "SC",
        "crop": "Erva-mate (folha verde)",
        "hectares": 250.0,
        "production": 250.0,
        "year": 2023,
        "region": "Sul",
        "ibge_code": "4219101"
      },
      "geometry": {
        "type": "Point",
        "coordinates": [
          -49.872924656229785,
          -26.998519137106918
        ]
      }
    },
    {
      "type": "Feature",
      "properties": {
        "municipality": "Vargem Bonita",
        "state": "SC",
        "crop": "Erva-mate (folha verde)",
        "hectares": 10.0,
        "production": 10.0,
        "year": 2023,
        "region": "Sul",
        "ibge_code": "4219176"
      },
      "geometry": {
        "type": "Point",
        "coordinates": [
          -50.095247893666986,
          -26.679183407765127
        ]
      }
    },
    {
      "type": "Feature",
      "properties": {
        "municipality": "Videira",
        "state": "SC",
        "crop": "Erva-mate (folha verde)",
        "hectares": 32.0,
        "production": 32.0,
        "year": 2023,
        "region": "Sul",
        "ibge_code": "4219309"
      },
      "geometry": {
        "type": "Point",
        "coordinates": [
          -50.41757940509936,
          -27.610192251286932
        ]
      }
    },
    {
      "type": "Feature",
      "properties": {
        "municipality": "Vitor Meireles",
        "state": "SC",
        "crop": "Erva-mate (folha verde)",
        "hectares": 5.0,
        "production": 5.0,
        "year": 2023,
        "region": "Sul",
        "ibge_code": "4219358"
      },
      "geometry": {
        "type": "Point",
        "coordinates": [
          -49.44100558145818,
          -27.26674104228008
        ]
      }
    },
    {
      "type": "Feature",
      "properties": {
        "municipality": "Xanxerê",
        "state": "SC",
        "crop": "Erva-mate (folha verde)",
        "hectares": 63.0,
        "production": 63.0,
        "year": 2023,
        "region": "Sul",
        "ibge_code": "4219507"
      },
      "geometry": {
        "type": "Point",
        "coordinates": [
          -49.31763287087311,
          -28.061620291461303
        ]
      }
    },
    {
      "type": "Feature",
      "properties": {
        "municipality": "Xavantina",
        "state": "SC",
        "crop": "Erva-mate (folha verde)",
        "hectares": 30.0,
        "production": 30.0,
        "year": 2023,
        "region": "Sul",
        "ibge_code": "4219606"
      },
      "geometry": {
        "type": "Point",
        "coordinates": [
          -50.479903040988816,
          -27.953330789332245
        ]
      }
    },
    {
      "type": "Feature",
      "properties": {
        "municipality": "Xaxim",
        "state": "SC",
        "crop": "Erva-mate (folha verde)",
        "hectares": 1177.0,
        "production": 1177.0,
        "year": 2023,
        "region": "Sul",
        "ibge_code": "4219705"
      },
      "geometry": {
        "type": "Point",
        "coordinates": [
          -49.767765167623566,
          -26.77621832270278
        ]
      }
    },
    {
      "type": "Feature",
      "properties": {
        "municipality": "Água Santa",
        "state": "RS",
        "crop": "Erva-mate (folha verde)",
        "hectares": 8.0,
        "production": 8.0,
        "year": 2023,
        "region": "Sul",
        "ibge_code": "4300059"
      },
      "geometry": {
        "type": "Point",
        "coordinates": [
          -52.00385649206964,
          -30.714237244232002
        ]
      }
    },
    {
      "type": "Feature",
      "properties": {
        "municipality": "Ajuricaba",
        "state": "RS",
        "crop": "Erva-mate (folha verde)",
        "hectares": 70.0,
        "production": 70.0,
        "year": 2023,
        "region": "Sul",
        "ibge_code": "4300208"
      },
      "geometry": {
        "type": "Point",
        "coordinates": [
          -50.894838903009514,
          -30.67207027333356
        ]
      }
    },
    {
      "type": "Feature",
      "properties": {
        "municipality": "Alegria",
        "state": "RS",
        "crop": "Erva-mate (folha verde)",
        "hectares": 2.0,
        "production": 2.0,
        "year": 2023,
        "region": "Sul",
        "ibge_code": "4300455"
      },
      "geometry": {
        "type": "Point",
        "coordinates": [
          -51.218983211957834,
          -29.54032014928488
        ]
      }
    },
    {
      "type": "Feature",
      "properties": {
        "municipality": "Almirante Tamandaré do Sul",
        "state": "RS",
        "crop": "Erva-mate (folha verde)",
        "hectares": 3.0,
        "production": 3.0,
        "year": 2023,
        "region": "Sul",
        "ibge_code": "4300471"
      },
      "geometry": {
        "type": "Point",
        "coordinates": [
          -51.2465655823941,
          -29.44115742667106
        ]
      }
    },
    {
      "type": "Feature",
      "properties": {
        "municipality": "Alpestre",
        "state": "RS",
        "crop": "Erva-mate (folha verde)",
        "hectares": 1.0,
        "production": 1.0,
        "year": 2023,
        "region": "Sul",
        "ibge_code": "4300505"
      },
      "geometry": {
        "type": "Point",
        "coordinates": [
          -50.341634352288196,
          -30.61325792406341
        ]
      }
    },
    {
      "type": "Feature",
      "properties": {
        "municipality": "Ametista do Sul",
        "state": "RS",
        "crop": "Erva-mate (folha verde)",
        "hectares": 3.0,
        "production": 3.0,
        "year": 2023,
        "region": "Sul",
        "ibge_code": "4300646"
      },
      "geometry": {
        "type": "Point",
        "coordinates": [
          -50.64055585722682,
          -29.142222940070237
        ]
      }
    },
    {
      "type": "Feature",
      "properties": {
        "municipality": "Anta Gorda",
        "state": "RS",
        "crop": "Erva-mate (folha verde)",
        "hectares": 2650.0,
        "production": 2650.0,
        "year": 2023,
        "region": "Sul",
        "ibge_code": "4300703"
      },
      "geometry": {
        "type": "Point",
        "coordinates": [
          -50.723182173901115,
          -30.42832437316939
        ]
      }
    },
    {
      "type": "Feature",
      "properties": {
        "municipality": "Aratiba",
        "state": "RS",
        "crop": "Erva-mate (folha verde)",
        "hectares": 75.0,
        "production": 75.0,
        "year": 2023,
        "region": "Sul",
        "ibge_code": "4300901"
      },
      "geometry": {
        "type": "Point",
        "coordinates": [
          -50.99509059545949,
          -29.725720362076355
        ]
      }
    },
    {
      "type": "Feature",
      "properties": {
        "municipality": "Arvorezinha",
        "state": "RS",
        "crop": "Erva-mate (folha verde)",
        "hectares": 4600.0,
        "production": 4600.0,
        "year": 2023,
        "region": "Sul",
        "ibge_code": "4301404"
      },