{
  "type": "FeatureCollection",
  "name": "Fumo (em folha)_production",
  "features": [
    {
      "type": "Feature",
      "properties": {
        "municipality": "Feijó",
        "state": "AC",
        "crop": "Fumo (em folha)",
        "hectares": 10.0,
        "production": 10.0,
        "year": 2023,
        "region": "Norte",
        "ibge_code": "1200302"
      },
      "geometry": {
        "type": "Point",
        "coordinates": [
          -70.00511042723109,
          -8.60073080746991
        ]
      }
    },
    {
      "type": "Feature",
      "properties": {
        "municipality": "Marechal Thaumaturgo",
        "state": "AC",
        "crop": "Fumo (em folha)",
        "hectares": 100.0,
        "production": 100.0,
        "year": 2023,
        "region": "Norte",
        "ibge_code": "1200351"
      },
      "geometry": {
        "type": "Point",
        "coordinates": [
          -70.47386957647166,
          -9.011846666100318
        ]
      }
    },
    {
      "type": "Feature",
      "properties": {
        "municipality": "Sena Madureira",
        "state": "AC",
        "crop": "Fumo (em folha)",
        "hectares": 30.0,
        "production": 30.0,
        "year": 2023,
        "region": "Norte",
        "ibge_code": "1200500"
      },
      "geometry": {
        "type": "Point",
        "coordinates": [
          -71.60889164058379,
          -9.389671870349403
        ]
      }
    },
    {
      "type": "Feature",
      "properties": {
        "municipality": "Tracuateua",
        "state": "PA",
        "crop": "Fumo (em folha)",
        "hectares": 15.0,
        "production": 15.0,
        "year": 2023,
        "region": "Norte",
        "ibge_code": "1508035"
      },
      "geometry": {
        "type": "Point",
        "coordinates": [
          -51.87859179606755,
          -3.8911144705540286
        ]
      }
    },
    {
      "type": "Feature",
      "properties": {
        "municipality": "Santana do Cariri",
        "state": "CE",
        "crop": "Fumo (em folha)",
        "hectares": 66.0,
        "production": 66.0,
        "year": 2023,
        "region": "Nordeste",
        "ibge_code": "2312106"
      },
      "geometry": {
        "type": "Point",
        "coordinates": [
          -39.64535744996065,
          -5.3682108083228846
        ]
      }
    },
    {
      "type": "Feature",
      "properties": {
        "municipality": "Arapiraca",
        "state": "AL",
        "crop": "Fumo (em folha)",
        "hectares": 2500.0,
        "production": 2500.0,
        "year": 2023,
        "region": "Nordeste",
        "ibge_code": "2700300"
      },
      "geometry": {
        "type": "Point",
        "coordinates": [
          -36.06053897048522,
          -9.875540352545965
        ]
      }
    },
    {
      "type": "Feature",
      "properties": {
        "municipality": "Belo Monte",
        "state": "AL",
        "crop": "Fumo (em folha)",
        "hectares": 3.0,
        "production": 3.0,
        "year": 2023,
        "region": "Nordeste",
        "ibge_code": "2700904"
      },
      "geometry": {
        "type": "Point",
        "coordinates": [
          -36.20979616855335,
          -8.960233232193458
        ]
      }
    },
    {
      "type": "Feature",
      "properties": {
        "municipality": "Campo Grande",
        "state": "AL",
        "crop": "Fumo (em folha)",
        "hectares": 23.0,
        "production": 23.0,
        "year": 2023,
        "region": "Nordeste",
        "ibge_code": "2701506"
      },
      "geometry": {
        "type": "Point",
        "coordinates": [
          -37.505978812410184,
          -10.457914005802104
        ]
      }
    },
    {
      "type": "Feature",
      "properties": {
        "municipality": "Coité do Nóia",
        "state": "AL",
        "crop": "Fumo (em folha)",
        "hectares": 90.0,
        "production": 90.0,
        "year": 2023,
        "region": "Nordeste",
        "ibge_code": "2702009"
      },
      "geometry": {
        "type": "Point",
        "coordinates": [
          -37.22296298357027,
          -9.240257117918915
        ]
      }
    },
    {
      "type": "Feature",
      "properties": {
        "municipality": "Craíbas",
        "state": "AL",
        "crop": "Fumo (em folha)",
        "hectares": 2000.0,
        "production": 2000.0,
        "year": 2023,
        "region": "Nordeste",
        "ibge_code": "2702355"
      },
      "geometry": {
        "type": "Point",
        "coordinates": [
          -37.07098506851128,
          -9.604161953155057
        ]
      }
    },
    {
      "type": "Feature",
      "properties": {
        "municipality": "Feira Grande",
        "state": "AL",
        "crop": "Fumo (em folha)",
        "hectares": 750.0,
        "production": 750.0,
        "year": 2023,
        "region": "Nordeste",
        "ibge_code": "2702603"
      },
      "geometry": {
        "type": "Point",
        "coordinates": [
          -37.63962496417243,
          -9.04176787493127
        ]
      }
    },
    {
      "type": "Feature",
      "properties": {
        "municipality": "Girau do Ponciano",
        "state": "AL",
        "crop": "Fumo (em folha)",
        "hectares": 1800.0,
        "production": 1800.0,
        "year": 2023,
        "region": "Nordeste",
        "ibge_code": "2702900"
      },
      "geometry": {
        "type": "Point",
        "coordinates": [
          -36.71327410883724,
          -10.097127386978178
        ]
      }
    },
    {
      "type": "Feature",
      "properties": {
        "municipality": "Igaci",
        "state": "AL",
        "crop": "Fumo (em folha)",
        "hectares": 480.0,
        "production": 480.0,
        "year": 2023,
        "region": "Nordeste",
        "ibge_code": "2703106"
      },
      "geometry": {
        "type": "Point",
        "coordinates": [
          -36.494273460236265,
          -10.329965780150895
        ]
      }
    },
    {
      "type": "Feature",
      "properties": {
        "municipality": "Jaramataia",
        "state": "AL",
        "crop": "Fumo (em folha)",
        "hectares": 4.0,
        "production": 4.0,
        "year": 2023,
        "region": "Nordeste",
        "ibge_code": "2703700"
      },
      "geometry": {
        "type": "Point",
        "coordinates": [
          -36.92422189064977,
          -9.428494810620174
        ]
      }
    },
    {
      "type": "Feature",
      "properties": {
        "municipality": "Junqueiro",
        "state": "AL",
        "crop": "Fumo (em folha)",
        "hectares": 100.0,
        "production": 100.0,
        "year": 2023,
        "region": "Nordeste",
        "ibge_code": "2704005"
      },
      "geometry": {
        "type": "Point",
        "coordinates": [
          -36.20136301863547,
          -9.635007691643745
        ]
      }
    },
    {
      "type": "Feature",
      "properties": {
        "municipality": "Lagoa da Canoa",
        "state": "AL",
        "crop": "Fumo (em folha)",
        "hectares": 425.0,
        "production": 425.0,
        "year": 2023,
        "region": "Nordeste",
        "ibge_code": "2704104"
      },
      "geometry": {
        "type": "Point",
        "coordinates": [
          -37.65234066020871,
          -8.622829705739035
        ]
      }
    },
    {
      "type": "Feature",
      "properties": {
        "municipality": "Limoeiro de Anadia",
        "state": "AL",
        "crop": "Fumo (em folha)",
        "hectares": 300.0,
        "production": 300.0,
        "year": 2023,
        "region": "Nordeste",
        "ibge_code": "2704203"
      },
      "geometry": {
        "type": "Point",
        "coordinates": [
          -36.68133386194668,
          -9.534879860267583
        ]
      }
    },
    {
      "type": "Feature",
      "properties": {
        "municipality": "Porto Real do Colégio",
        "state": "AL",
        "crop": "Fumo (em folha)",
        "hectares": 15.0,
        "production": 15.0,
        "year": 2023,
        "region": "Nordeste",
        "ibge_code": "2707503"
      },
      "geometry": {
        "type": "Point",
        "coordinates": [
          -36.06053897048522,
          -9.875540352545965
        ]
      }
    },
    {
      "type": "Feature",
      "properties": {
        "municipality": "São Sebastião",
        "state": "AL",
        "crop": "Fumo (em folha)",
        "hectares": 450.0,
        "production": 450.0,
        "year": 2023,
        "region": "Nordeste",
        "ibge_code": "2708808"
      },
      "geometry": {
        "type": "Point",
        "coordinates": [
          -36.87424896322359,
          -9.184683971547633
        ]
      }
    },
    {
      "type": "Feature",
      "properties": {
        "municipality": "Taquarana",
        "state": "AL",
        "crop": "Fumo (em folha)",
        "hectares": 100.0,
        "production": 100.0,
        "year": 2023,
        "region": "Nordeste",
        "ibge_code": "2709103"
      },
      "geometry": {
        "type": "Point",
        "coordinates": [
          -36.65217054036131,
          -9.729210771426708
        ]
      }
    },
    {
      "type": "Feature",
      "properties": {
        "municipality": "Teotônio Vilela",
        "state": "AL",
        "crop": "Fumo (em folha)",
        "hectares": 2.0,
        "production": 2.0,
        "year": 2023,
        "region": "Nordeste",
        "ibge_code": "2709152"
      },
      "geometry": {
        "type": "Point",
        "coordinates": [
          -37.60516398103177,
          -9.51292078925932
        ]
      }
    },
    {
      "type": "Feature",
      "properties": {
        "municipality": "Traipu",
        "state": "AL",
        "crop": "Fumo (em folha)",
        "hectares": 320.0,
        "production": 320.0,
        "year": 2023,
        "region": "Nordeste",
        "ibge_code": "2709202"
      },
      "geometry": {
        "type": "Point",
        "coordinates": [
          -36.39181472370738,
          -8.577211871616736
        ]
      }
    },
    {
      "type": "Feature",
      "properties": {
        "municipality": "Antas",
        "state": "BA",
        "crop": "Fumo (em folha)",
        "hectares": 100.0,
        "production": 100.0,
        "year": 2023,
        "region": "Nordeste",
        "ibge_code": "2901601"
      },
      "geometry": {
        "type": "Point",
        "coordinates": [
          -41.44996189136223,
          -13.338183475541308
        ]
      }
    },
    {
      "type": "Feature",
      "properties": {
        "municipality": "Antônio Cardoso",
        "state": "BA",
        "crop": "Fumo (em folha)",
        "hectares": 30.0,
        "production": 30.0,
        "year": 2023,
        "region": "Nordeste",
        "ibge_code": "2901700"
      },
      "geometry": {
        "type": "Point",
        "coordinates": [
          -41.261316506371884,
          -13.421666376445115
        ]
      }
    },
    {
      "type": "Feature",
      "properties": {
        "municipality": "Antônio Gonçalves",
        "state": "BA",
        "crop": "Fumo (em folha)",
        "hectares": 20.0,
        "production": 20.0,
        "year": 2023,
        "region": "Nordeste",
        "ibge_code": "2901809"
      },
      "geometry": {
        "type": "Point",
        "coordinates": [
          -41.46259421713804,
          -14.20134841024332
        ]
      }
    },
    {
      "type": "Feature",
      "properties": {
        "municipality": "Cabaceiras do Paraguaçu",
        "state": "BA",
        "crop": "Fumo (em folha)",
        "hectares": 585.0,
        "production": 585.0,
        "year": 2023,
        "region": "Nordeste",
        "ibge_code": "2904852"
      },
      "geometry": {
        "type": "Point",
        "coordinates": [
          -41.716695217940064,
          -13.892236222566964
        ]
      }
    },
    {
      "type": "Feature",
      "properties": {
        "municipality": "Castro Alves",
        "state": "BA",
        "crop": "Fumo (em folha)",
        "hectares": 35.0,
        "production": 35.0,
        "year": 2023,
        "region": "Nordeste",
        "ibge_code": "2907301"
      },
      "geometry": {
        "type": "Point",
        "coordinates": [
          -41.759664389218294,
          -13.588025021101695
        ]
      }
    },
    {
      "type": "Feature",
      "properties": {
        "municipality": "Cícero Dantas",
        "state": "BA",
        "crop": "Fumo (em folha)",
        "hectares": 20.0,
        "production": 20.0,
        "year": 2023,
        "region": "Nordeste",
        "ibge_code": "2907806"
      },
      "geometry": {
        "type": "Point",
        "coordinates": [
          -42.673528023942175,
          -13.366448430291928
        ]
      }
    },
    {
      "type": "Feature",
      "properties": {
        "municipality": "Cocos",
        "state": "BA",
        "crop": "Fumo (em folha)",
        "hectares": 4000.0,
        "production": 4000.0,
        "year": 2023,
        "region": "Nordeste",
        "ibge_code": "2908101"
      },
      "geometry": {
        "type": "Point",
        "coordinates": [
          -42.697416070783476,
          -13.272891239495026
        ]
      }
    },
    {
      "type": "Feature",
      "properties": {
        "municipality": "Conceição da Feira",
        "state": "BA",
        "crop": "Fumo (em folha)",
        "hectares": 1.0,
        "production": 1.0,
        "year": 2023,
        "region": "Nordeste",
        "ibge_code": "2908200"
      },
      "geometry": {
        "type": "Point",
        "coordinates": [
          -42.15036778892766,
          -13.576683642945527
        ]
      }
    },
    {
      "type": "Feature",
      "properties": {
        "municipality": "Conceição do Almeida",
        "state": "BA",
        "crop": "Fumo (em folha)",
        "hectares": 19.0,
        "production": 19.0,
        "year": 2023,
        "region": "Nordeste",
        "ibge_code": "2908309"
      },
      "geometry": {
        "type": "Point",
        "coordinates": [
          -41.134049771150345,
          -13.736021531610453
        ]
      }
    },
    {
      "type": "Feature",
      "properties": {
        "municipality": "Correntina",
        "state": "BA",
        "crop": "Fumo (em folha)",
        "hectares": 11.0,
        "production": 11.0,
        "year": 2023,
        "region": "Nordeste",
        "ibge_code": "2909307"
      },
      "geometry": {
        "type": "Point",
        "coordinates": [
          -41.48183462006731,
          -12.874663951876967
        ]
      }
    },
    {
      "type": "Feature",
      "properties": {
        "municipality": "Cruz das Almas",
        "state": "BA",
        "crop": "Fumo (em folha)",
        "hectares": 156.0,
        "production": 156.0,
        "year": 2023,
        "region": "Nordeste",
        "ibge_code": "2909802"
      },
      "geometry": {
        "type": "Point",
        "coordinates": [
          -40.919981682101664,
          -12.642885516071823
        ]
      }
    },
    {
      "type": "Feature",
      "properties": {
        "municipality": "Fátima",
        "state": "BA",
        "crop": "Fumo (em folha)",
        "hectares": 1.0,
        "production": 1.0,
        "year": 2023,
        "region": "Nordeste",
        "ibge_code": "2910750"
      },
      "geometry": {
        "type": "Point",
        "coordinates": [
          -42.545685527318014,
          -14.16751997292881
        ]
      }
    },
    {
      "type": "Feature",
      "properties": {
        "municipality": "Feira de Santana",
        "state": "BA",
        "crop": "Fumo (em folha)",
        "hectares": 30.0,
        "production": 30.0,
        "year": 2023,
        "region": "Nordeste",
        "ibge_code": "2910800"
      },
      "geometry": {
        "type": "Point",
        "coordinates": [
          -42.434116574571306,
          -13.479268715326171
        ]
      }
    },
    {
      "type": "Feature",
      "properties": {
        "municipality": "Governador Mangabeira",
        "state": "BA",
        "crop": "Fumo (em folha)",
        "hectares": 425.0,
        "production": 425.0,
        "year": 2023,
        "region": "Nordeste",
        "ibge_code": "2911600"
      },
      "geometry": {
        "type": "Point",
        "coordinates": [
          -42.00249208901886,
          -13.94856962323557
        ]
      }
    },
    {
      "type": "Feature",
      "properties": {
        "municipality": "Ipecaetá",
        "state": "BA",
        "crop": "Fumo (em folha)",
        "hectares": 35.0,
        "production": 35.0,
        "year": 2023,
        "region": "Nordeste",
        "ibge_code": "2913804"
      },
      "geometry": {
        "type": "Point",
        "coordinates": [
          -42.4874684782305,
          -13.897637449736937
        ]
      }
    },
    {
      "type": "Feature",
      "properties": {
        "municipality": "Irará",
        "state": "BA",
        "crop": "Fumo (em folha)",
        "hectares": 20.0,
        "production": 20.0,
        "year": 2023,
        "region": "Nordeste",
        "ibge_code": "2914505"
      },
      "geometry": {
        "type": "Point",
        "coordinates": [
          -42.00264843732492,
          -13.251770016897177
        ]
      }
    },
    {
      "type": "Feature",
      "properties": {
        "municipality": "Jaborandi",
        "state": "BA",
        "crop": "Fumo (em folha)",
        "hectares": 2670.0,
        "production": 2670.0,
        "year": 2023,
        "region": "Nordeste",
        "ibge_code": "2917359"
      },
      "geometry": {
        "type": "Point",
        "coordinates": [
          -42.49977584075909,
          -13.128616188365523
        ]
      }
    },
    {
      "type": "Feature",
      "properties": {
        "municipality": "Jacobina",
        "state": "BA",
        "crop": "Fumo (em folha)",
        "hectares": 35.0,
        "production": 35.0,
        "year": 2023,
        "region": "Nordeste",
        "ibge_code": "2917508"
      },
      "geometry": {
        "type": "Point",
        "coordinates": [
          -42.39969205452306,
          -14.08743624434574
        ]
      }
    },
    {
      "type": "Feature",
      "properties": {
        "municipality": "Livramento de Nossa Senhora",
        "state": "BA",
        "crop": "Fumo (em folha)",
        "hectares": 10.0,
        "production": 10.0,
        "year": 2023,
        "region": "Nordeste",
        "ibge_code": "2919504"
      },
      "geometry": {
        "type": "Point",
        "coordinates": [
          -41.61388938098942,
          -12.368938486489535
        ]
      }
    },
    {
      "type": "Feature",
      "properties": {
        "municipality": "Matina",
        "state": "BA",
        "crop": "Fumo (em folha)",
        "hectares": 7.0,
        "production": 7.0,
        "year": 2023,
        "region": "Nordeste",
        "ibge_code": "2921054"
      },
      "geometry": {
        "type": "Point",
        "coordinates": [
          -42.53054120467018,
          -12.698771262479916
        ]
      }
    },
    {
      "type": "Feature",
      "properties": {
        "municipality": "Muritiba",
        "state": "BA",
        "crop": "Fumo (em folha)",
        "hectares": 172.0,
        "production": 172.0,
        "year": 2023,
        "region": "Nordeste",
        "ibge_code": "2922300"
      },
      "geometry": {
        "type": "Point",
        "coordinates": [
          -40.941603572757316,
          -13.041268901497302
        ]
      }
    },
    {
      "type": "Feature",
      "properties": {
        "municipality": "Novo Horizonte",
        "state": "BA",
        "crop": "Fumo (em folha)",
        "hectares": 3.0,
        "production": 3.0,
        "year": 2023,
        "region": "Nordeste",
        "ibge_code": "2923035"
      },
      "geometry": {
        "type": "Point",
        "coordinates": [
          -41.73166263307539,
          -14.182542632205356
        ]
      }
    },
    {
      "type": "Feature",
      "properties": {
        "municipality": "Novo Triunfo",
        "state": "BA",
        "crop": "Fumo (em folha)",
        "hectares": 40.0,
        "production": 40.0,
        "year": 2023,
        "region": "Nordeste",
        "ibge_code": "2923050"
      },
      "geometry": {
        "type": "Point",
        "coordinates": [
          -41.65276843632649,
          -13.224990489110812
        ]
      }
    },
    {
      "type": "Feature",
      "properties": {
        "municipality": "Palmeiras",
        "state": "BA",
        "crop": "Fumo (em folha)",
        "hectares": 10.0,
        "production": 10.0,
        "year": 2023,
        "region": "Nordeste",
        "ibge_code": "2923506"
      },
      "geometry": {
        "type": "Point",
        "coordinates": [
          -40.751514629611194,
          -12.6035032473512
        ]
      }
    },
    {
      "type": "Feature",
      "properties": {
        "municipality": "Santanópolis",
        "state": "BA",
        "crop": "Fumo (em folha)",
        "hectares": 2.0,
        "production": 2.0,
        "year": 2023,
        "region": "Nordeste",
        "ibge_code": "2928307"
      },
      "geometry": {
        "type": "Point",
        "coordinates": [
          -41.2491054494136,
          -12.855887516893032
        ]
      }
    },
    {
      "type": "Feature",
      "properties": {
        "municipality": "Santa Rita de Cássia",
        "state": "BA",
        "crop": "Fumo (em folha)",
        "hectares": 18.0,
        "production": 18.0,
        "year": 2023,
        "region": "Nordeste",
        "ibge_code": "2928406"
      },
      "geometry": {
        "type": "Point",
        "coordinates": [
          -41.46259421713804,
          -14.20134841024332
        ]
      }
    },
    {
      "type": "Feature",
      "properties": {
        "municipality": "Santo Estêvão",
        "state": "BA",
        "crop": "Fumo (em folha)",
        "hectares": 60.0,
        "production": 60.0,
        "year": 2023,
        "region": "Nordeste",
        "ibge_code": "2928802"
      },
      "geometry": {
        "type": "Point",
        "coordinates": [
          -42.61658460694122,
          -12.893225630193708
        ]
      }
    },
    {
      "type": "Feature",
      "properties": {
        "municipality": "São Felipe",
        "state": "BA",
        "crop": "Fumo (em folha)",
        "hectares": 1.0,
        "production": 1.0,
        "year": 2023,
        "region": "Nordeste",
        "ibge_code": "2929107"
      },
      "geometry": {
        "type": "Point",
        "coordinates": [
          -41.99760876636503,
          -13.763838905666251
        ]
      }
    },
    {
      "type": "Feature",
      "properties": {
        "municipality": "Sapeaçu",
        "state": "BA",
        "crop": "Fumo (em folha)",
        "hectares": 24.0,
        "production": 24.0,
        "year": 2023,
        "region": "Nordeste",
        "ibge_code": "2929602"
      },
      "geometry": {
        "type": "Point",
        "coordinates": [
          -41.756306809977204,
          -13.19577087733267
        ]
      }
    },
    {
      "type": "Feature",
      "properties": {
        "municipality": "Seabra",
        "state": "BA",
        "crop": "Fumo (em folha)",
        "hectares": 110.0,
        "production": 110.0,
        "year": 2023,
        "region": "Nordeste",
        "ibge_code": "2929909"
      },
      "geometry": {
        "type": "Point",
        "coordinates": [
          -41.892565586101064,
          -13.875790060770028
        ]
      }
    },
    {
      "type": "Feature",
      "properties": {
        "municipality": "Aricanduva",
        "state": "MG",
        "crop": "Fumo (em folha)",
        "hectares": 5.0,
        "production": 5.0,
        "year": 2023,
        "region": "Sudeste",
        "ibge_code": "3104452"
      },
      "geometry": {
        "type": "Point",
        "coordinates": [
          -45.251792048479906,
          -18.29140368765939
        ]
      }
    },
    {
      "type": "Feature",
      "properties": {
        "municipality": "Astolfo Dutra",
        "state": "MG",
        "crop": "Fumo (em folha)",
        "hectares": 6.0,
        "production": 6.0,
        "year": 2023,
        "region": "Sudeste",
        "ibge_code": "3104601"
      },
      "geometry": {
        "type": "Point",
        "coordinates": [
          -43.71671143457994,
          -19.42410553260665
        ]
      }
    },
    {
      "type": "Feature",
      "properties": {
        "municipality": "Biquinhas",
        "state": "MG",
        "crop": "Fumo (em folha)",
        "hectares": 3.0,
        "production": 3.0,
        "year": 2023,
        "region": "Sudeste",
        "ibge_code": "3107000"
      },
      "geometry": {
        "type": "Point",
        "coordinates": [
          -44.760709369227364,
          -17.622015609257446
        ]
      }
    },
    {
      "type": "Feature",
      "properties": {
        "municipality": "Comercinho",
        "state": "MG",
        "crop": "Fumo (em folha)",
        "hectares": 12.0,
        "production": 12.0,
        "year": 2023,
        "region": "Sudeste",
        "ibge_code": "3117009"
      },
      "geometry": {
        "type": "Point",
        "coordinates": [
          -45.05308948621039,
          -18.762592489120543
        ]
      }
    },
    {
      "type": "Feature",
      "properties": {
        "municipality": "Guarani",
        "state": "MG",
        "crop": "Fumo (em folha)",
        "hectares": 40.0,
        "production": 40.0,
        "year": 2023,
        "region": "Sudeste",
        "ibge_code": "3128402"
      },
      "geometry": {
        "type": "Point",
        "coordinates": [
          -45.41301917257433,
          -19.006213919387136
        ]
      }
    },
    {
      "type": "Feature",
      "properties": {
        "municipality": "Lassance",
        "state": "MG",
        "crop": "Fumo (em folha)",
        "hectares": 90.0,
        "production": 90.0,
        "year": 2023,
        "region": "Sudeste",
        "ibge_code": "3138104"
      },
      "geometry": {
        "type": "Point",
        "coordinates": [
          -44.647248963223596,
          -18.125583971547634
        ]
      }
    },
    {
      "type": "Feature",
      "properties": {
        "municipality": "Medina",
        "state": "MG",
        "crop": "Fumo (em folha)",
        "hectares": 6.0,
        "production": 6.0,
        "year": 2023,
        "region": "Sudeste",
        "ibge_code": "3141405"
      },
      "geometry": {
        "type": "Point",
        "coordinates": [
          -45.4602033317958,
          -17.896950837531826
        ]
      }
    },
    {
      "type": "Feature",
      "properties": {
        "municipality": "Perdões",
        "state": "MG",
        "crop": "Fumo (em folha)",
        "hectares": 10.0,
        "production": 10.0,
        "year": 2023,
        "region": "Sudeste",
        "ibge_code": "3149903"
      },
      "geometry": {
        "type": "Point",
        "coordinates": [
          -44.600906809977204,
          -18.417470877332672
        ]
      }
    },
    {
      "type": "Feature",
      "properties": {
        "municipality": "Poço Fundo",
        "state": "MG",
        "crop": "Fumo (em folha)",
        "hectares": 100.0,
        "production": 100.0,
        "year": 2023,
        "region": "Sudeste",
        "ibge_code": "3151701"
      },
      "geometry": {
        "type": "Point",
        "coordinates": [
          -44.50536235767705,
          -18.652519929768353
        ]
      }
    },
    {
      "type": "Feature",
      "properties": {
        "municipality": "Rio Pomba",
        "state": "MG",
        "crop": "Fumo (em folha)",
        "hectares": 30.0,
        "production": 30.0,
        "year": 2023,
        "region": "Sudeste",
        "ibge_code": "3155801"
      },
      "geometry": {
        "type": "Point",
        "coordinates": [
          -44.18773595022391,
          -18.884391583152752
        ]
      }
    },
    {
      "type": "Feature",
      "properties": {
        "municipality": "Tocantins",
        "state": "MG",
        "crop": "Fumo (em folha)",
        "hectares": 30.0,
        "production": 30.0,
        "year": 2023,
        "region": "Sudeste",
        "ibge_code": "3169000"
      },
      "geometry": {
        "type": "Point",
        "coordinates": [
          -44.09773661604918,
          -18.84935197446353
        ]
      }
    },
    {
      "type": "Feature",
      "properties": {
        "municipality": "Várzea da Palma",
        "state": "MG",
        "crop": "Fumo (em folha)",
        "hectares": 10.0,
        "production": 10.0,
        "year": 2023,
        "region": "Sudeste",
        "ibge_code": "3170800"
      },
      "geometry": {
        "type": "Point",
        "coordinates": [
          -45.30949112101159,
          -18.323178295248628
        ]
      }
    },
    {
      "type": "Feature",
      "properties": {
        "municipality": "Itajobi",
        "state": "SP",
        "crop": "Fumo (em folha)",
        "hectares": 10.0,
        "production": 10.0,
        "year": 2023,
        "region": "Sudeste",
        "ibge_code": "3521903"
      },
      "geometry": {
        "type": "Point",
        "coordinates": [
          -47.42696793153857,
          -24.078403820525132
        ]
      }
    },
    {
      "type": "Feature",
      "properties": {
        "municipality": "Tietê",
        "state": "SP",
        "crop": "Fumo (em folha)",
        "hectares": 3.0,
        "production": 3.0,
        "year": 2023,
        "region": "Sudeste",
        "ibge_code": "3554508"
      },
      "geometry": {
        "type": "Point",
        "coordinates": [
          -46.67233866879741,
          -23.82745445017185
        ]
      }
    },
    {
      "type": "Feature",
      "properties": {
        "municipality": "Agudos do Sul",
        "state": "PR",
        "crop": "Fumo (em folha)",
        "hectares": 680.0,
        "production": 680.0,
        "year": 2023,
        "region": "Sul",
        "ibge_code": "4100301"
      },
      "geometry": {
        "type": "Point",
        "coordinates": [
          -50.73253056443912,
          -25.83313269172884
        ]
      }
    },
    {
      "type": "Feature",
      "properties": {
        "municipality": "Alto Piquiri",
        "state": "PR",
        "crop": "Fumo (em folha)",
        "hectares": 13.0,
        "production": 13.0,
        "year": 2023,
        "region": "Sul",
        "ibge_code": "4100707"
      },
      "geometry": {
        "type": "Point",
        "coordinates": [
          -51.05482465622978,
          -24.649419137106918
        ]
      }
    },
    {
      "type": "Feature",
      "properties": {
        "municipality": "Ampére",
        "state": "PR",
        "crop": "Fumo (em folha)",
        "hectares": 10.0,
        "production": 10.0,
        "year": 2023,
        "region": "Sul",
        "ibge_code": "4101002"
      },
      "geometry": {
        "type": "Point",
        "coordinates": [
          -51.1371634693573,
          -24.81975394772189
        ]
      }
    },
    {
      "type": "Feature",
      "properties": {
        "municipality": "Antônio Olinto",
        "state": "PR",
        "crop": "Fumo (em folha)",
        "hectares": 850.0,
        "production": 850.0,
        "year": 2023,
        "region": "Sul",
        "ibge_code": "4101309"
      },
      "geometry": {
        "type": "Point",
        "coordinates": [
          -51.24488424564992,
          -25.277586490532446
        ]
      }
    },
    {
      "type": "Feature",
      "properties": {
        "municipality": "Apucarana",
        "state": "PR",
        "crop": "Fumo (em folha)",
        "hectares": 17.0,
        "production": 17.0,
        "year": 2023,
        "region": "Sul",
        "ibge_code": "4101408"
      },
      "geometry": {
        "type": "Point",
        "coordinates": [
          -51.266319783705086,
          -25.507860625377607
        ]
      }
    },
    {
      "type": "Feature",
      "properties": {
        "municipality": "Arapongas",
        "state": "PR",
        "crop": "Fumo (em folha)",
        "hectares": 4.0,
        "production": 4.0,
        "year": 2023,
        "region": "Sul",
        "ibge_code": "4101507"
      },
      "geometry": {
        "type": "Point",
        "coordinates": [
          -50.48036532058325,
          -24.268915487719667
        ]
      }
    },
    {
      "type": "Feature",
      "properties": {
        "municipality": "Araruna",
        "state": "PR",
        "crop": "Fumo (em folha)",
        "hectares": 10.0,
        "production": 10.0,
        "year": 2023,
        "region": "Sul",
        "ibge_code": "4101705"
      },
      "geometry": {
        "type": "Point",
        "coordinates": [
          -52.31651565498298,
          -24.702162532942346
        ]
      }
    },
    {
      "type": "Feature",
      "properties": {
        "municipality": "Araucária",
        "state": "PR",
        "crop": "Fumo (em folha)",
        "hectares": 8.0,
        "production": 8.0,
        "year": 2023,
        "region": "Sul",
        "ibge_code": "4101804"
      },
      "geometry": {
        "type": "Point",
        "coordinates": [
          -50.4601557879898,
          -24.65156980303147
        ]
      }
    },
    {
      "type": "Feature",
      "properties": {
        "municipality": "Bela Vista da Caroba",
        "state": "PR",
        "crop": "Fumo (em folha)",
        "hectares": 3.0,
        "production": 3.0,
        "year": 2023,
        "region": "Sul",
        "ibge_code": "4102752"
      },
      "geometry": {
        "type": "Point",
        "coordinates": [
          -51.24876144805803,
          -25.47708545279548
        ]
      }
    },
    {
      "type": "Feature",
      "properties": {
        "municipality": "Bituruna",
        "state": "PR",
        "crop": "Fumo (em folha)",
        "hectares": 250.0,
        "production": 250.0,
        "year": 2023,
        "region": "Sul",
        "ibge_code": "4102901"
      },
      "geometry": {
        "type": "Point",
        "coordinates": [
          -50.44342503992046,
          -25.03906221706622
        ]
      }
    },
    {
      "type": "Feature",
      "properties": {
        "municipality": "Boa Esperança do Iguaçu",
        "state": "PR",
        "crop": "Fumo (em folha)",
        "hectares": 24.0,
        "production": 24.0,
        "year": 2023,
        "region": "Sul",
        "ibge_code": "4103024"
      },
      "geometry": {
        "type": "Point",
        "coordinates": [
          -50.86852048652647,
          -24.443440273890207
        ]
      }
    },
    {
      "type": "Feature",
      "properties": {
        "municipality": "Borrazópolis",
        "state": "PR",
        "crop": "Fumo (em folha)",
        "hectares": 6.0,
        "production": 6.0,
        "year": 2023,
        "region": "Sul",
        "ibge_code": "4103305"
      },
      "geometry": {
        "type": "Point",
        "coordinates": [
          -52.1245165745713,
          -25.081968715326173
        ]
      }
    },
    {
      "type": "Feature",
      "properties": {
        "municipality": "Braganey",
        "state": "PR",
        "crop": "Fumo (em folha)",
        "hectares": 65.0,
        "production": 65.0,
        "year": 2023,
        "region": "Sul",
        "ibge_code": "4103354"
      },
      "geometry": {
        "type": "Point",
        "coordinates": [
          -51.343606426204815,
          -25.395529848391632
        ]
      }
    },
    {
      "type": "Feature",
      "properties": {
        "municipality": "Califórnia",
        "state": "PR",
        "crop": "Fumo (em folha)",
        "hectares": 5.0,
        "production": 5.0,
        "year": 2023,
        "region": "Sul",
        "ibge_code": "4103503"
      },
      "geometry": {
        "type": "Point",
        "coordinates": [
          -50.572676418964505,
          -24.43013773919958
        ]
      }
    },
    {
      "type": "Feature",
      "properties": {
        "municipality": "Campina da Lagoa",
        "state": "PR",
        "crop": "Fumo (em folha)",
        "hectares": 20.0,
        "production": 20.0,
        "year": 2023,
        "region": "Sul",
        "ibge_code": "4103909"
      },
      "geometry": {
        "type": "Point",
        "coordinates": [
          -51.70675465246426,
          -24.525038480446277
        ]
      }
    },
    {
      "type": "Feature",
      "properties": {
        "municipality": "Campo Bonito",
        "state": "PR",
        "crop": "Fumo (em folha)",
        "hectares": 5.0,
        "production": 5.0,
        "year": 2023,
        "region": "Sul",
        "ibge_code": "4104055"
      },
      "geometry": {
        "type": "Point",
        "coordinates": [
          -50.550095582124,
          -25.298058517488997
        ]
      }
    },
    {
      "type": "Feature",
      "properties": {
        "municipality": "Campo do Tenente",
        "state": "PR",
        "crop": "Fumo (em folha)",
        "hectares": 385.0,
        "production": 385.0,
        "year": 2023,
        "region": "Sul",
        "ibge_code": "4104105"
      },
      "geometry": {
        "type": "Point",
        "coordinates": [
          -51.45427982207067,
          -24.53722573270868
        ]
      }
    },
    {
      "type": "Feature",
      "properties": {
        "municipality": "Candói",
        "state": "PR",
        "crop": "Fumo (em folha)",
        "hectares": 22.0,
        "production": 22.0,
        "year": 2023,
        "region": "Sul",
        "ibge_code": "4104428"
      },
      "geometry": {
        "type": "Point",
        "coordinates": [
          -51.919816344920775,
          -25.34136417980492
        ]
      }
    },
    {
      "type": "Feature",
      "properties": {
        "municipality": "Cantagalo",
        "state": "PR",
        "crop": "Fumo (em folha)",
        "hectares": 295.0,
        "production": 295.0,
        "year": 2023,
        "region": "Sul",
        "ibge_code": "4104451"
      },
      "geometry": {
        "type": "Point",
        "coordinates": [
          -51.607389350178345,
          -25.86485076022788
        ]
      }
    },
    {
      "type": "Feature",
      "properties": {
        "municipality": "Capanema",
        "state": "PR",
        "crop": "Fumo (em folha)",
        "hectares": 47.0,
        "production": 47.0,
        "year": 2023,
        "region": "Sul",
        "ibge_code": "4104501"
      },
      "geometry": {
        "type": "Point",
        "coordinates": [
          -51.92750372418071,
          -24.01313181929831
        ]
      }
    },
    {
      "type": "Feature",
      "properties": {
        "municipality": "Cascavel",
        "state": "PR",
        "crop": "Fumo (em folha)",
        "hectares": 4.0,
        "production": 4.0,
        "year": 2023,
        "region": "Sul",
        "ibge_code": "4104808"
      },
      "geometry": {
        "type": "Point",
        "coordinates": [
          -51.58539706529497,
          -24.68168224406555
        ]
      }
    },
    {
      "type": "Feature",
      "properties": {
        "municipality": "Catanduvas",
        "state": "PR",
        "crop": "Fumo (em folha)",
        "hectares": 7.0,
        "production": 7.0,
        "year": 2023,
        "region": "Sul",
        "ibge_code": "4105003"
      },
      "geometry": {
        "type": "Point",
        "coordinates": [
          -51.056585838288605,
          -25.54930138332676
        ]
      }
    },
    {
      "type": "Feature",
      "properties": {
        "municipality": "Céu Azul",
        "state": "PR",
        "crop": "Fumo (em folha)",
        "hectares": 4.0,
        "production": 4.0,
        "year": 2023,
        "region": "Sul",
        "ibge_code": "4105300"
      },
      "geometry": {
        "type": "Point",
        "coordinates": [
          -52.035722887203534,
          -24.47123546440743
        ]
      }
    },
    {
      "type": "Feature",
      "properties": {
        "municipality": "Chopinzinho",
        "state": "PR",
        "crop": "Fumo (em folha)",
        "hectares": 37.0,
        "production": 37.0,
        "year": 2023,
        "region": "Sul",
        "ibge_code": "4105409"
      },
      "geometry": {
        "type": "Point",
        "coordinates": [
          -50.48600633387573,
          -25.368785168630648
        ]
      }
    },
    {
      "type": "Feature",
      "properties": {
        "municipality": "Cianorte",
        "state": "PR",
        "crop": "Fumo (em folha)",
        "hectares": 18.0,
        "production": 18.0,
        "year": 2023,
        "region": "Sul",
        "ibge_code": "4105508"
      },
      "geometry": {
        "type": "Point",
        "coordinates": [
          -51.35497047269042,
          -24.176641428066382
        ]
      }
    },
    {
      "type": "Feature",
      "properties": {
        "municipality": "Contenda",
        "state": "PR",
        "crop": "Fumo (em folha)",
        "hectares": 20.0,
        "production": 20.0,
        "year": 2023,
        "region": "Sul",
        "ibge_code": "4106209"
      },
      "geometry": {
        "type": "Point",
        "coordinates": [
          -52.30232176534693,
          -25.66425747648275
        ]
      }
    },
    {
      "type": "Feature",
      "properties": {
        "municipality": "Cruzeiro do Oeste",
        "state": "PR",
        "crop": "Fumo (em folha)",
        "hectares": 1.0,
        "production": 1.0,
        "year": 2023,
        "region": "Sul",
        "ibge_code": "4106605"
      },
      "geometry": {
        "type": "Point",
        "coordinates": [
          -51.35116235767705,
          -25.033519929768353
        ]
      }
    },
    {
      "type": "Feature",
      "properties": {
        "municipality": "Cruz Machado",
        "state": "PR",
        "crop": "Fumo (em folha)",
        "hectares": 1200.0,
        "production": 1200.0,
        "year": 2023,
        "region": "Sul",
        "ibge_code": "4106803"
      },
      "geometry": {
        "type": "Point",
        "coordinates": [
          -52.006930007246375,
          -24.101395249985966
        ]
      }
    },
    {
      "type": "Feature",
      "properties": {
        "municipality": "Diamante D'Oeste",
        "state": "PR",
        "crop": "Fumo (em folha)",
        "hectares": 4.0,
        "production": 4.0,
        "year": 2023,
        "region": "Sul",
        "ibge_code": "4107157"
      },
      "geometry": {
        "type": "Point",
        "coordinates": [
          -51.0040009193925,
          -24.449187461367206
        ]
      }
    },
    {
      "type": "Feature",
      "properties": {
        "municipality": "Dois Vizinhos",
        "state": "PR",
        "crop": "Fumo (em folha)",
        "hectares": 14.0,
        "production": 14.0,
        "year": 2023,
        "region": "Sul",
        "ibge_code": "4107207"
      },
      "geometry": {
        "type": "Point",
        "coordinates": [
          -51.77826724281921,
          -25.06298782462215
        ]
      }
    },
    {
      "type": "Feature",
      "properties": {
        "municipality": "Enéas Marques",
        "state": "PR",
        "crop": "Fumo (em folha)",
        "hectares": 2.0,
        "production": 2.0,
        "year": 2023,
        "region": "Sul",
        "ibge_code": "4107405"
      },
      "geometry": {
        "type": "Point",
        "coordinates": [
          -52.006930007246375,
          -24.101395249985966
        ]
      }
    },
    {
      "type": "Feature",
      "properties": {
        "municipality": "Espigão Alto do Iguaçu",
        "state": "PR",
        "crop": "Fumo (em folha)",
        "hectares": 53.0,
        "production": 53.0,
        "year": 2023,
        "region": "Sul",
        "ibge_code": "4107546"
      },
      "geometry": {
        "type": "Point",
        "coordinates": [
          -51.373166795393495,
          -24.372877043380452
        ]
      }
    },
    {
      "type": "Feature",
      "properties": {
        "municipality": "Fazenda Rio Grande",
        "state": "PR",
        "crop": "Fumo (em folha)",
        "hectares": 7.0,
        "production": 7.0,
        "year": 2023,
        "region": "Sul",
        "ibge_code": "4107652"
      },
      "geometry": {
        "type": "Point",
        "coordinates": [
          -51.510732079385456,
          -25.403698770366795
        ]
      }
    },
    {
      "type": "Feature",
      "properties": {
        "municipality": "Fernandes Pinheiro",
        "state": "PR",
        "crop": "Fumo (em folha)",
        "hectares": 397.0,
        "production": 397.0,
        "year": 2023,
        "region": "Sul",
        "ibge_code": "4107736"
      },
      "geometry": {
        "type": "Point",
        "coordinates": [
          -51.08074262281275,
          -25.137297159343085
        ]
      }
    },
    {
      "type": "Feature",
      "properties": {
        "municipality": "Flor da Serra do Sul",
        "state": "PR",
        "crop": "Fumo (em folha)",
        "hectares": 39.0,
        "production": 39.0,
        "year": 2023,
        "region": "Sul",
        "ibge_code": "4107850"
      },
      "geometry": {
        "type": "Point",
        "coordinates": [
          -52.20616826411123,
          -24.24938626341732
        ]
      }
    },
    {
      "type": "Feature",
      "properties": {
        "municipality": "Formosa do Oeste",
        "state": "PR",
        "crop": "Fumo (em folha)",
        "hectares": 26.0,
        "production": 26.0,
        "year": 2023,
        "region": "Sul",
        "ibge_code": "4108205"
      },
      "geometry": {
        "type": "Point",
        "coordinates": [
          -51.492009395505335,
          -24.996665556572662
        ]
      }
    },
    {
      "type": "Feature",
      "properties": {
        "municipality": "Francisco Beltrão",
        "state": "PR",
        "crop": "Fumo (em folha)",
        "hectares": 2.0,
        "production": 2.0,
        "year": 2023,
        "region": "Sul",
        "ibge_code": "4108403"
      },
      "geometry": {
        "type": "Point",
        "coordinates": [
          -52.091338056516925,
          -25.79294177899794
        ]
      }
    },
    {
      "type": "Feature",
      "properties": {
        "municipality": "Goioerê",
        "state": "PR",
        "crop": "Fumo (em folha)",
        "hectares": 5.0,
        "production": 5.0,
        "year": 2023,
        "region": "Sul",
        "ibge_code": "4108601"
      },
      "geometry": {
        "type": "Point",
        "coordinates": [
          -51.76731425521419,
          -24.909579981153286
        ]
      }
    },
    {
      "type": "Feature",
      "properties": {
        "municipality": "Goioxim",
        "state": "PR",
        "crop": "Fumo (em folha)",
        "hectares": 155.0,
        "production": 155.0,
        "year": 2023,
        "region": "Sul",
        "ibge_code": "4108650"
      },
      "geometry": {
        "type": "Point",
        "coordinates": [
          -51.454613446666386,
          -24.630998612824463
        ]
      }
    },
    {
      "type": "Feature",
      "properties": {
        "municipality": "Guamiranga",
        "state": "PR",
        "crop": "Fumo (em folha)",
        "hectares": 3000.0,
        "production": 3000.0,
        "year": 2023,
        "region": "Sul",
        "ibge_code": "4108957"
      },
      "geometry": {
        "type": "Point",
        "coordinates": [
          -51.64633530216167,
          -25.698096725881076
        ]
      }
    },
    {
      "type": "Feature",
      "properties": {
        "municipality": "Guarapuava",
        "state": "PR",
        "crop": "Fumo (em folha)",
        "hectares": 10.0,
        "production": 10.0,
        "year": 2023,
        "region": "Sul",
        "ibge_code": "4109401"
      },
      "geometry": {
        "type": "Point",
        "coordinates": [
          -51.238220139218434,
          -25.400236080661283
        ]
      }
    },
    {
      "type": "Feature",
      "properties": {
        "municipality": "Honório Serpa",
        "state": "PR",
        "crop": "Fumo (em folha)",
        "hectares": 19.0,
        "production": 19.0,
        "year": 2023,
        "region": "Sul",
        "ibge_code": "4109658"
      },
      "geometry": {
        "type": "Point",
        "coordinates": [
          -52.21685505201186,
          -24.32510827962011
        ]
      }
    },
    {
      "type": "Feature",
      "properties": {
        "municipality": "Ibema",
        "state": "PR",
        "crop": "Fumo (em folha)",
        "hectares": 2.0,
        "production": 2.0,
        "year": 2023,
        "region": "Sul",
        "ibge_code": "4109757"
      },
      "geometry": {
        "type": "Point",
        "coordinates": [
          -52.21576017791762,
          -24.188953595772535
        ]
      }
    },
    {
      "type": "Feature",
      "properties": {
        "municipality": "Iguatu",
        "state": "PR",
        "crop": "Fumo (em folha)",
        "hectares": 230.0,
        "production": 230.0,
        "year": 2023,
        "region": "Sul",
        "ibge_code": "4110052"
      },
      "geometry": {
        "type": "Point",
        "coordinates": [
          -51.454613446666386,
          -24.630998612824463
        ]
      }
    },
    {
      "type": "Feature",
      "properties": {
        "municipality": "Imbituva",
        "state": "PR",
        "crop": "Fumo (em folha)",
        "hectares": 3800.0,
        "production": 3800.0,
        "year": 2023,
        "region": "Sul",
        "ibge_code": "4110102"
      },
      "geometry": {
        "type": "Point",
        "coordinates": [
          -50.4887221959319,
          -25.599031860221547
        ]
      }
    },
    {
      "type": "Feature",
      "properties": {
        "municipality": "Ipiranga",
        "state": "PR",
        "crop": "Fumo (em folha)",
        "hectares": 5200.0,
        "production": 5200.0,
        "year": 2023,
        "region": "Sul",
        "ibge_code": "4110508"
      },
      "geometry": {
        "type": "Point",
        "coordinates": [
          -50.63622562632207,
          -25.82512501192528
        ]
      }
    },
    {
      "type": "Feature",
      "properties": {
        "municipality": "Irati",
        "state": "PR",
        "crop": "Fumo (em folha)",
        "hectares": 4500.0,
        "production": 4500.0,
        "year": 2023,
        "region": "Sul",
        "ibge_code": "4110706"
      },
      "geometry": {
        "type": "Point",
        "coordinates": [
          -50.81486355637029,
          -24.36246769978391
        ]
      }
    },
    {
      "type": "Feature",
      "properties": {
        "municipality": "Iretama",
        "state": "PR",
        "crop": "Fumo (em folha)",
        "hectares": 4.0,
        "production": 4.0,
        "year": 2023,
        "region": "Sul",
        "ibge_code": "4110805"
      },
      "geometry": {
        "type": "Point",
        "coordinates": [
          -51.65490953584427,
          -24.21141066703455
        ]
      }
    },
    {
      "type": "Feature",
      "properties": {
        "municipality": "Itaipulândia",
        "state": "PR",
        "crop": "Fumo (em folha)",
        "hectares": 330.0,
        "production": 330.0,
        "year": 2023,
        "region": "Sul",
        "ibge_code": "4110953"
      },
      "geometry": {
        "type": "Point",
        "coordinates": [
          -51.45378436368998,
          -24.09047687930321
        ]
      }
    },
    {
      "type": "Feature",
      "properties": {
        "municipality": "Ivaí",
        "state": "PR",
        "crop": "Fumo (em folha)",
        "hectares": 2250.0,
        "production": 2250.0,
        "year": 2023,
        "region": "Sul",
        "ibge_code": "4111407"
      },
      "geometry": {
        "type": "Point",
        "coordinates": [
          -51.969943684803,
          -23.937071724679814
        ]
      }
    },
    {
      "type": "Feature",
      "properties": {
        "municipality": "Janiópolis",
        "state": "PR",
        "crop": "Fumo (em folha)",
        "hectares": 3.0,
        "production": 3.0,
        "year": 2023,
        "region": "Sul",
        "ibge_code": "4112207"
      },
      "geometry": {
        "type": "Point",
        "coordinates": [
          -51.90183396624022,
          -25.42577423095132
        ]
      }
    },
    {
      "type": "Feature",
      "properties": {
        "municipality": "Jesuítas",
        "state": "PR",
        "crop": "Fumo (em folha)",
        "hectares": 10.0,
        "production": 10.0,
        "year": 2023,
        "region": "Sul",
        "ibge_code": "4112751"
      },
      "geometry": {
        "type": "Point",
        "coordinates": [
          -50.801936220869884,
          -25.09572979358967
        ]
      }
    },
    {
      "type": "Feature",
      "properties": {
        "municipality": "Lapa",
        "state": "PR",
        "crop": "Fumo (em folha)",
        "hectares": 610.0,
        "production": 610.0,
        "year": 2023,
        "region": "Sul",
        "ibge_code": "4113205"
      },
      "geometry": {
        "type": "Point",
        "coordinates": [
          -51.89787260513806,
          -24.701920965597537
        ]
      }
    },
    {
      "type": "Feature",
      "properties": {
        "municipality": "Laranjeiras do Sul",
        "state": "PR",
        "crop": "Fumo (em folha)",
        "hectares": 259.0,
        "production": 259.0,
        "year": 2023,
        "region": "Sul",
        "ibge_code": "4113304"
      },
      "geometry": {
        "type": "Point",
        "coordinates": [
          -50.54455170687514,
          -25.747071763578713
        ]
      }
    },
    {
      "type": "Feature",
      "properties": {
        "municipality": "Lindoeste",
        "state": "PR",
        "crop": "Fumo (em folha)",
        "hectares": 3.0,
        "production": 3.0,
        "year": 2023,
        "region": "Sul",
        "ibge_code": "4113452"
      },
      "geometry": {
        "type": "Point",
        "coordinates": [
          -52.090580867118895,
          -24.266833645795863
        ]
      }
    },
    {
      "type": "Feature",
      "properties": {
        "municipality": "Lunardelli",
        "state": "PR",
        "crop": "Fumo (em folha)",
        "hectares": 33.0,
        "production": 33.0,
        "year": 2023,
        "region": "Sul",
        "ibge_code": "4113759"
      },
      "geometry": {
        "type": "Point",
        "coordinates": [
          -51.81162171924842,
          -25.030760894194003
        ]
      }
    },
    {
      "type": "Feature",
      "properties": {
        "municipality": "Mallet",
        "state": "PR",
        "crop": "Fumo (em folha)",
        "hectares": 1760.0,
        "production": 1760.0,
        "year": 2023,
        "region": "Sul",
        "ibge_code": "4113908"
      },
      "geometry": {
        "type": "Point",
        "coordinates": [
          -51.76731425521419,
          -24.909579981153286
        ]
      }
    },
    {
      "type": "Feature",
      "properties": {
        "municipality": "Mandirituba",
        "state": "PR",
        "crop": "Fumo (em folha)",
        "hectares": 110.0,
        "production": 110.0,
        "year": 2023,
        "region": "Sul",
        "ibge_code": "4114302"
      },
      "geometry": {
        "type": "Point",
        "coordinates": [
          -50.57359771216959,
          -24.44280139250369
        ]
      }
    },
    {
      "type": "Feature",
      "properties": {
        "municipality": "Manfrinópolis",
        "state": "PR",
        "crop": "Fumo (em folha)",
        "hectares": 3.0,
        "production": 3.0,
        "year": 2023,
        "region": "Sul",
        "ibge_code": "4114351"
      },
      "geometry": {
        "type": "Point",
        "coordinates": [
          -51.357446083487865,
          -25.277885439429678
        ]
      }
    },
    {
      "type": "Feature",
      "properties": {
        "municipality": "Mangueirinha",
        "state": "PR",
        "crop": "Fumo (em folha)",
        "hectares": 15.0,
        "production": 15.0,
        "year": 2023,
        "region": "Sul",
        "ibge_code": "4114401"
      },
      "geometry": {
        "type": "Point",
        "coordinates": [
          -51.510732079385456,
          -25.403698770366795
        ]
      }
    },
    {
      "type": "Feature",
      "properties": {
        "municipality": "Marechal Cândido Rondon",
        "state": "PR",
        "crop": "Fumo (em folha)",
        "hectares": 140.0,
        "production": 140.0,
        "year": 2023,
        "region": "Sul",
        "ibge_code": "4114609"
      },
      "geometry": {
        "type": "Point",
        "coordinates": [
          -50.70883735745486,
          -24.480052529501652
        ]
      }
    },
    {
      "type": "Feature",
      "properties": {
        "municipality": "Marilândia do Sul",
        "state": "PR",
        "crop": "Fumo (em folha)",
        "hectares": 120.0,
        "production": 120.0,
        "year": 2023,
        "region": "Sul",
        "ibge_code": "4114906"
      },
      "geometry": {
        "type": "Point",
        "coordinates": [
          -51.50058742976618,
          -25.506327330215235
        ]
      }
    },
    {
      "type": "Feature",
      "properties": {
        "municipality": "Marmeleiro",
        "state": "PR",
        "crop": "Fumo (em folha)",
        "hectares": 28.0,
        "production": 28.0,
        "year": 2023,
        "region": "Sul",
        "ibge_code": "4115408"
      },
      "geometry": {
        "type": "Point",
        "coordinates": [
          -51.340549424278734,
          -25.8241704162861
        ]
      }
    },
    {
      "type": "Feature",
      "properties": {
        "municipality": "Marquinho",
        "state": "PR",
        "crop": "Fumo (em folha)",
        "hectares": 11.0,
        "production": 11.0,
        "year": 2023,
        "region": "Sul",
        "ibge_code": "4115457"
      },
      "geometry": {
        "type": "Point",
        "coordinates": [
          -51.71278847841699,
          -24.012077049318105
        ]
      }
    },
    {
      "type": "Feature",
      "properties": {
        "municipality": "Marumbi",
        "state": "PR",
        "crop": "Fumo (em folha)",
        "hectares": 5.0,
        "production": 5.0,
        "year": 2023,
        "region": "Sul",
        "ibge_code": "4115507"
      },
      "geometry": {
        "type": "Point",
        "coordinates": [
          -51.510732079385456,
          -25.403698770366795
        ]
      }
    },
    {
      "type": "Feature",
      "properties": {
        "municipality": "Matelândia",
        "state": "PR",
        "crop": "Fumo (em folha)",
        "hectares": 21.0,
        "production": 21.0,
        "year": 2023,
        "region": "Sul",
        "ibge_code": "4115606"
      },
      "geometry": {
        "type": "Point",
        "coordinates": [
          -50.74779360973116,
          -24.33236526183401
        ]
      }
    },
    {
      "type": "Feature",
      "properties": {
        "municipality": "Mato Rico",
        "state": "PR",
        "crop": "Fumo (em folha)",
        "hectares": 7.0,
        "production": 7.0,
        "year": 2023,
        "region": "Sul",
        "ibge_code": "4115739"
      },
      "geometry": {
        "type": "Point",
        "coordinates": [
          -52.30235402513438,
          -25.84297919779511
        ]
      }
    },
    {
      "type": "Feature",
      "properties": {
        "municipality": "Medianeira",
        "state": "PR",
        "crop": "Fumo (em folha)",
        "hectares": 75.0,
        "production": 75.0,
        "year": 2023,
        "region": "Sul",
        "ibge_code": "4115804"
      },
      "geometry": {
        "type": "Point",
        "coordinates": [
          -52.27114066020871,
          -23.944729705739036
        ]
      }
    },
    {
      "type": "Feature",
      "properties": {
        "municipality": "Mercedes",
        "state": "PR",
        "crop": "Fumo (em folha)",
        "hectares": 115.0,
        "production": 115.0,
        "year": 2023,
        "region": "Sul",
        "ibge_code": "4115853"
      },
      "geometry": {
        "type": "Point",
        "coordinates": [
          -51.21621223413501,
          -24.897285366638265
        ]
      }
    },
    {
      "type": "Feature",
      "properties": {
        "municipality": "Missal",
        "state": "PR",
        "crop": "Fumo (em folha)",
        "hectares": 93.0,
        "production": 93.0,
        "year": 2023,
        "region": "Sul",
        "ibge_code": "4116059"
      },
      "geometry": {
        "type": "Point",
        "coordinates": [
          -52.3442117528275,
          -24.686297221228934
        ]
      }
    },
    {
      "type": "Feature",
      "properties": {
        "municipality": "Moreira Sales",
        "state": "PR",
        "crop": "Fumo (em folha)",
        "hectares": 4.0,
        "production": 4.0,
        "year": 2023,
        "region": "Sul",
        "ibge_code": "4116109"
      },
      "geometry": {
        "type": "Point",
        "coordinates": [
          -50.96072721177462,
          -25.768354777078542
        ]
      }
    },
    {
      "type": "Feature",
      "properties": {
        "municipality": "Nova Aurora",
        "state": "PR",
        "crop": "Fumo (em folha)",
        "hectares": 5.0,
        "production": 5.0,
        "year": 2023,
        "region": "Sul",
        "ibge_code": "4116703"
      },
      "geometry": {
        "type": "Point",
        "coordinates": [
          -51.65490953584427,
          -24.21141066703455
        ]
      }
    },
    {
      "type": "Feature",
      "properties": {
        "municipality": "Nova Laranjeiras",
        "state": "PR",
        "crop": "Fumo (em folha)",
        "hectares": 26.0,
        "production": 26.0,
        "year": 2023,
        "region": "Sul",
        "ibge_code": "4117057"
      },
      "geometry": {
        "type": "Point",
        "coordinates": [
          -52.229882907362025,
          -25.099387026795604
        ]
      }
    },
    {
      "type": "Feature",
      "properties": {
        "municipality": "Nova Prata do Iguaçu",
        "state": "PR",
        "crop": "Fumo (em folha)",
        "hectares": 34.0,
        "production": 34.0,
        "year": 2023,
        "region": "Sul",
        "ibge_code": "4117255"
      },
      "geometry": {
        "type": "Point",
        "coordinates": [
          -50.572676418964505,
          -24.43013773919958
        ]
      }
    },
    {
      "type": "Feature",
      "properties": {
        "municipality": "Novo Itacolomi",
        "state": "PR",
        "crop": "Fumo (em folha)",
        "hectares": 40.0,
        "production": 40.0,
        "year": 2023,
        "region": "Sul",
        "ibge_code": "4117297"
      },
      "geometry": {
        "type": "Point",
        "coordinates": [
          -51.68304000241561,
          -23.935492617606442
        ]
      }
    },
    {
      "type": "Feature",
      "properties": {
        "municipality": "Ortigueira",
        "state": "PR",
        "crop": "Fumo (em folha)",
        "hectares": 5.0,
        "production": 5.0,
        "year": 2023,
        "region": "Sul",
        "ibge_code": "4117305"
      },
      "geometry": {
        "type": "Point",
        "coordinates": [
          -51.68978506851128,
          -24.926061953155056
        ]
      }
    },
    {
      "type": "Feature",
      "properties": {
        "municipality": "Ouro Verde do Oeste",
        "state": "PR",
        "crop": "Fumo (em folha)",
        "hectares": 9.0,
        "production": 9.0,
        "year": 2023,
        "region": "Sul",
        "ibge_code": "4117453"
      },
      "geometry": {
        "type": "Point",
        "coordinates": [
          -51.4500959606196,
          -25.608704835266625
        ]
      }
    },
    {
      "type": "Feature",
      "properties": {
        "municipality": "Palmeira",
        "state": "PR",
        "crop": "Fumo (em folha)",
        "hectares": 4550.0,
        "production": 4550.0,
        "year": 2023,
        "region": "Sul",
        "ibge_code": "4117701"
      },
      "geometry": {
        "type": "Point",
        "coordinates": [
          -51.6255625206871,
          -24.73158484760864
        ]
      }
    },
    {
      "type": "Feature",
      "properties": {
        "municipality": "Paula Freitas",
        "state": "PR",
        "crop": "Fumo (em folha)",
        "hectares": 700.0,
        "production": 700.0,
        "year": 2023,
        "region": "Sul",
        "ibge_code": "4118600"
      },
      "geometry": {
        "type": "Point",
        "coordinates": [
          -50.83964205525845,
          -25.335075226414148
        ]
      }
    },
    {
      "type": "Feature",
      "properties": {
        "municipality": "Paulo Frontin",
        "state": "PR",
        "crop": "Fumo (em folha)",
        "hectares": 2100.0,
        "production": 2100.0,
        "year": 2023,
        "region": "Sul",
        "ibge_code": "4118709"
      },
      "geometry": {
        "type": "Point",
        "coordinates": [
          -51.63292119003692,
          -24.573506739129854
        ]
      }
    },
    {
      "type": "Feature",
      "properties": {
        "municipality": "Pérola d'Oeste",
        "state": "PR",
        "crop": "Fumo (em folha)",
        "hectares": 129.0,
        "production": 129.0,
        "year": 2023,
        "region": "Sul",
        "ibge_code": "4119004"
      },
      "geometry": {
        "type": "Point",
        "coordinates": [
          -51.77802873078047,
          -25.085567533906612
        ]
      }
    },
    {
      "type": "Feature",
      "properties": {
        "municipality": "Piên",
        "state": "PR",
        "crop": "Fumo (em folha)",
        "hectares": 2478.0,
        "production": 2478.0,
        "year": 2023,
        "region": "Sul",
        "ibge_code": "4119103"
      },
      "geometry": {
        "type": "Point",
        "coordinates": [
          -51.45006438921829,
          -25.190725021101695
        ]
      }
    },
    {
      "type": "Feature",
      "properties": {
        "municipality": "Pinhal de São Bento",
        "state": "PR",
        "crop": "Fumo (em folha)",
        "hectares": 41.0,
        "production": 41.0,
        "year": 2023,
        "region": "Sul",
        "ibge_code": "4119251"
      },
      "geometry": {
        "type": "Point",
        "coordinates": [
          -51.37138557317077,
          -25.19956360160913
        ]
      }
    },
    {
      "type": "Feature",
      "properties": {
        "municipality": "Pinhão",
        "state": "PR",
        "crop": "Fumo (em folha)",
        "hectares": 18.0,
        "production": 18.0,
        "year": 2023,
        "region": "Sul",
        "ibge_code": "4119301"
      },
      "geometry": {
        "type": "Point",
        "coordinates": [
          -52.00429579245138,
          -25.147328469976284
        ]
      }
    },
    {
      "type": "Feature",
      "properties": {
        "municipality": "Pitanga",
        "state": "PR",
        "crop": "Fumo (em folha)",
        "hectares": 14.0,
        "production": 14.0,
        "year": 2023,
        "region": "Sul",
        "ibge_code": "4119608"
      },
      "geometry": {
        "type": "Point",
        "coordinates": [
          -51.822407112720555,
          -24.81503687078838
        ]
      }
    },
    {
      "type": "Feature",
      "properties": {
        "municipality": "Planalto",
        "state": "PR",
        "crop": "Fumo (em folha)",
        "hectares": 75.0,
        "production": 75.0,
        "year": 2023,
        "region": "Sul",
        "ibge_code": "4119806"
      },
      "geometry": {
        "type": "Point",
        "coordinates": [
          -51.16886942584755,
          -25.596857587225834
        ]
      }
    },
    {
      "type": "Feature",
      "properties": {
        "municipality": "Ponta Grossa",
        "state": "PR",
        "crop": "Fumo (em folha)",
        "hectares": 11.0,
        "production": 11.0,
        "year": 2023,
        "region": "Sul",
        "ibge_code": "4119905"
      },
      "geometry": {
        "type": "Point",
        "coordinates": [
          -50.83068141753443,
          -24.213114855884015
        ]
      }
    },
    {
      "type": "Feature",
      "properties": {
        "municipality": "Porto Barreiro",
        "state": "PR",
        "crop": "Fumo (em folha)",
        "hectares": 194.0,
        "production": 194.0,
        "year": 2023,
        "region": "Sul",
        "ibge_code": "4120150"
      },
      "geometry": {
        "type": "Point",
        "coordinates": [
          -50.96086444711162,
          -25.165040965876653
        ]
      }
    },
    {
      "type": "Feature",
      "properties": {
        "municipality": "Prudentópolis",
        "state": "PR",
        "crop": "Fumo (em folha)",
        "hectares": 4870.0,
        "production": 4870.0,
        "year": 2023,
        "region": "Sul",
        "ibge_code": "4120606"
      },
      "geometry": {
        "type": "Point",
        "coordinates": [
          -51.868452553854915,
          -24.898126862482794
        ]
      }
    },
    {
      "type": "Feature",
      "properties": {
        "municipality": "Quedas do Iguaçu",
        "state": "PR",
        "crop": "Fumo (em folha)",
        "hectares": 36.0,
        "production": 36.0,
        "year": 2023,
        "region": "Sul",
        "ibge_code": "4120903"
      },
      "geometry": {
        "type": "Point",
        "coordinates": [
          -52.14205540102064,
          -24.514492082218993
        ]
      }
    },
    {
      "type": "Feature",
      "properties": {
        "municipality": "Quitandinha",
        "state": "PR",
        "crop": "Fumo (em folha)",
        "hectares": 2163.0,
        "production": 2163.0,
        "year": 2023,
        "region": "Sul",
        "ibge_code": "4121208"
      },
      "geometry": {
        "type": "Point",
        "coordinates": [
          -51.140361891362225,
          -24.94088347554131
        ]
      }
    },
    {
      "type": "Feature",
      "properties": {
        "municipality": "Realeza",
        "state": "PR",
        "crop": "Fumo (em folha)",
        "hectares": 54.0,
        "production": 54.0,
        "year": 2023,
        "region": "Sul",
        "ibge_code": "4121406"
      },
      "geometry": {
        "type": "Point",
        "coordinates": [
          -52.149477319822466,
          -24.79169236826293
        ]
      }
    },
    {
      "type": "Feature",
      "properties": {
        "municipality": "Rebouças",
        "state": "PR",
        "crop": "Fumo (em folha)",
        "hectares": 2100.0,
        "production": 2100.0,
        "year": 2023,
        "region": "Sul",
        "ibge_code": "4121505"
      },
      "geometry": {
        "type": "Point",
        "coordinates": [
          -51.949165945269904,
          -25.175703262391696
        ]
      }
    },
    {
      "type": "Feature",
      "properties": {
        "municipality": "Renascença",
        "state": "PR",
        "crop": "Fumo (em folha)",
        "hectares": 3.0,
        "production": 3.0,
        "year": 2023,
        "region": "Sul",
        "ibge_code": "4121604"
      },
      "geometry": {
        "type": "Point",
        "coordinates": [
          -51.748987711874925,
          -24.294969261766546
        ]
      }
    },
    {
      "type": "Feature",
      "properties": {
        "municipality": "Reserva",
        "state": "PR",
        "crop": "Fumo (em folha)",
        "hectares": 8.0,
        "production": 8.0,
        "year": 2023,
        "region": "Sul",
        "ibge_code": "4121703"
      },
      "geometry": {
        "type": "Point",
        "coordinates": [
          -50.687271926273105,
          -24.900887660399174
        ]
      }
    },
    {
      "type": "Feature",
      "properties": {
        "municipality": "Rio Azul",
        "state": "PR",
        "crop": "Fumo (em folha)",
        "hectares": 7050.0,
        "production": 7050.0,
        "year": 2023,
        "region": "Sul",
        "ibge_code": "4122008"
      },
      "geometry": {
        "type": "Point",
        "coordinates": [
          -51.70177748941396,
          -25.602527676333438
        ]
      }
    },
    {
      "type": "Feature",
      "properties": {
        "municipality": "Rio Bom",
        "state": "PR",
        "crop": "Fumo (em folha)",
        "hectares": 100.0,
        "production": 100.0,
        "year": 2023,
        "region": "Sul",
        "ibge_code": "4122107"
      },
      "geometry": {
        "type": "Point",
        "coordinates": [
          -51.14986257326457,
          -24.55412992762352
        ]
      }
    },
    {
      "type": "Feature",
      "properties": {
        "municipality": "Rio Bonito do Iguaçu",
        "state": "PR",
        "crop": "Fumo (em folha)",
        "hectares": 186.0,
        "production": 186.0,
        "year": 2023,
        "region": "Sul",
        "ibge_code": "4122156"
      },
      "geometry": {
        "type": "Point",
        "coordinates": [
          -51.6255625206871,
          -24.73158484760864
        ]
      }
    },
    {
      "type": "Feature",
      "properties": {
        "municipality": "Rio Negro",
        "state": "PR",
        "crop": "Fumo (em folha)",
        "hectares": 1900.0,
        "production": 1900.0,
        "year": 2023,
        "region": "Sul",
        "ibge_code": "4122305"
      },
      "geometry": {
        "type": "Point",
        "coordinates": [
          -51.24467221045082,
          -24.748046521314716
        ]
      }
    },
    {
      "type": "Feature",
      "properties": {
        "municipality": "Salgado Filho",
        "state": "PR",
        "crop": "Fumo (em folha)",
        "hectares": 31.0,
        "production": 31.0,
        "year": 2023,
        "region": "Sul",
        "ibge_code": "4122800"
      },
      "geometry": {
        "type": "Point",
        "coordinates": [
          -50.78741844576264,
          -24.849232180575015
        ]
      }
    },
    {
      "type": "Feature",
      "properties": {
        "municipality": "Salto do Lontra",
        "state": "PR",
        "crop": "Fumo (em folha)",
        "hectares": 59.0,
        "production": 59.0,
        "year": 2023,
        "region": "Sul",
        "ibge_code": "4123006"
      },
      "geometry": {
        "type": "Point",
        "coordinates": [
          -51.92983975850099,
          -25.557810686332267
        ]
      }
    },
    {
      "type": "Feature",
      "properties": {
        "municipality": "Santa Helena",
        "state": "PR",
        "crop": "Fumo (em folha)",
        "hectares": 77.0,
        "production": 77.0,
        "year": 2023,
        "region": "Sul",
        "ibge_code": "4123501"
      },
      "geometry": {
        "type": "Point",
        "coordinates": [
          -50.744945733787716,
          -24.408965445126448
        ]
      }
    },
    {
      "type": "Feature",
      "properties": {
        "municipality": "Santa Izabel do Oeste",
        "state": "PR",
        "crop": "Fumo (em folha)",
        "hectares": 57.0,
        "production": 57.0,
        "year": 2023,
        "region": "Sul",
        "ibge_code": "4123808"
      },
      "geometry": {
        "type": "Point",
        "coordinates": [
          -52.225027387781374,
          -25.435542188645833
        ]
      }
    },
    {
      "type": "Feature",
      "properties": {
        "municipality": "Santo Antônio do Sudoeste",
        "state": "PR",
        "crop": "Fumo (em folha)",
        "hectares": 28.0,
        "production": 28.0,
        "year": 2023,
        "region": "Sul",
        "ibge_code": "4124400"
      },
      "geometry": {
        "type": "Point",
        "coordinates": [
          -51.86183261407629,
          -25.175736775664827
        ]
      }
    },
    {
      "type": "Feature",
      "properties": {
        "municipality": "São João do Triunfo",
        "state": "PR",
        "crop": "Fumo (em folha)",
        "hectares": 9650.0,
        "production": 9650.0,
        "year": 2023,
        "region": "Sul",
        "ibge_code": "4125100"
      },
      "geometry": {
        "type": "Point",
        "coordinates": [
          -51.320410878260056,
          -25.24716393889961
        ]
      }
    },
    {
      "type": "Feature",
      "properties": {
        "municipality": "São Jorge d'Oeste",
        "state": "PR",
        "crop": "Fumo (em folha)",
        "hectares": 37.0,
        "production": 37.0,
        "year": 2023,
        "region": "Sul",
        "ibge_code": "4125209"
      },
      "geometry": {
        "type": "Point",
        "coordinates": [
          -52.09373218589343,
          -23.946398659787924
        ]
      }
    },
    {
      "type": "Feature",
      "properties": {
        "municipality": "São José das Palmeiras",
        "state": "PR",
        "crop": "Fumo (em folha)",
        "hectares": 3.0,
        "production": 3.0,
        "year": 2023,
        "region": "Sul",
        "ibge_code": "4125456"
      },
      "geometry": {
        "type": "Point",
        "coordinates": [
          -51.351673873815855,
          -24.358643268889086
        ]
      }
    },
    {
      "type": "Feature",
      "properties": {
        "municipality": "São Mateus do Sul",
        "state": "PR",
        "crop": "Fumo (em folha)",
        "hectares": 2900.0,
        "production": 2900.0,
        "year": 2023,
        "region": "Sul",
        "ibge_code": "4125605"
      },
      "geometry": {
        "type": "Point",
        "coordinates": [
          -50.56255724287319,
          -24.09035359674158
        ]
      }
    },
    {
      "type": "Feature",
      "properties": {
        "municipality": "São Miguel do Iguaçu",
        "state": "PR",
        "crop": "Fumo (em folha)",
        "hectares": 156.0,
        "production": 156.0,
        "year": 2023,
        "region": "Sul",
        "ibge_code": "4125704"
      },
      "geometry": {
        "type": "Point",
        "coordinates": [
          -50.727307998245536,
          -23.96489684280687
        ]
      }
    },
    {
      "type": "Feature",
      "properties": {
        "municipality": "São Pedro do Iguaçu",
        "state": "PR",
        "crop": "Fumo (em folha)",
        "hectares": 30.0,
        "production": 30.0,
        "year": 2023,
        "region": "Sul",
        "ibge_code": "4125753"
      },
      "geometry": {
        "type": "Point",
        "coordinates": [
          -51.14986257326457,
          -24.55412992762352
        ]
      }
    },
    {
      "type": "Feature",
      "properties": {
        "municipality": "Serranópolis do Iguaçu",
        "state": "PR",
        "crop": "Fumo (em folha)",
        "hectares": 142.0,
        "production": 142.0,
        "year": 2023,
        "region": "Sul",
        "ibge_code": "4126355"
      },
      "geometry": {
        "type": "Point",
        "coordinates": [
          -51.35956792043871,
          -24.56241701273005
        ]
      }
    },
    {
      "type": "Feature",
      "properties": {
        "municipality": "Teixeira Soares",
        "state": "PR",
        "crop": "Fumo (em folha)",
        "hectares": 900.0,
        "production": 900.0,
        "year": 2023,
        "region": "Sul",
        "ibge_code": "4127007"
      },
      "geometry": {
        "type": "Point",
        "coordinates": [
          -52.20616826411123,
          -24.24938626341732
        ]
      }
    },
    {
      "type": "Feature",
      "properties": {
        "municipality": "Tibagi",
        "state": "PR",
        "crop": "Fumo (em folha)",
        "hectares": 280.0,
        "production": 280.0,
        "year": 2023,
        "region": "Sul",
        "ibge_code": "4127502"
      },
      "geometry": {
        "type": "Point",
        "coordinates": [
          -51.17223462006731,
          -24.477363951876967
        ]
      }
    },
    {
      "type": "Feature",
      "properties": {
        "municipality": "Tijucas do Sul",
        "state": "PR",
        "crop": "Fumo (em folha)",
        "hectares": 180.0,
        "production": 180.0,
        "year": 2023,
        "region": "Sul",
        "ibge_code": "4127601"
      },
      "geometry": {
        "type": "Point",
        "coordinates": [
          -51.532066822501015,
          -25.686841991005164
        ]
      }
    },
    {
      "type": "Feature",
      "properties": {
        "municipality": "Três Barras do Paraná",
        "state": "PR",
        "crop": "Fumo (em folha)",
        "hectares": 700.0,
        "production": 700.0,
        "year": 2023,
        "region": "Sul",
        "ibge_code": "4127858"
      },
      "geometry": {
        "type": "Point",
        "coordinates": [
          -52.25152519388054,
          -25.85073658201682
        ]
      }
    },
    {
      "type": "Feature",
      "properties": {
        "municipality": "Ubiratã",
        "state": "PR",
        "crop": "Fumo (em folha)",
        "hectares": 10.0,
        "production": 10.0,
        "year": 2023,
        "region": "Sul",
        "ibge_code": "4128005"
      },
      "geometry": {
        "type": "Point",
        "coordinates": [
          -51.51323005867878,
          -24.062292387139983
        ]
      }
    },
    {
      "type": "Feature",
      "properties": {
        "municipality": "União da Vitória",
        "state": "PR",
        "crop": "Fumo (em folha)",
        "hectares": 20.0,
        "production": 20.0,
        "year": 2023,
        "region": "Sul",
        "ibge_code": "4128203"
      },
      "geometry": {
        "type": "Point",
        "coordinates": [
          -52.217594783840866,
          -24.529190878824046
        ]
      }
    },
    {
      "type": "Feature",
      "properties": {
        "municipality": "Vera Cruz do Oeste",
        "state": "PR",
        "crop": "Fumo (em folha)",
        "hectares": 12.0,
        "production": 12.0,
        "year": 2023,
        "region": "Sul",
        "ibge_code": "4128559"
      },
      "geometry": {
        "type": "Point",
        "coordinates": [
          -51.71636039864061,
          -24.478743810826323
        ]
      }
    },
    {
      "type": "Feature",
      "properties": {
        "municipality": "Verê",
        "state": "PR",
        "crop": "Fumo (em folha)",
        "hectares": 25.0,
        "production": 25.0,
        "year": 2023,
        "region": "Sul",
        "ibge_code": "4128609"
      },
      "geometry": {
        "type": "Point",
        "coordinates": [
          -50.75097227572641,
          -24.014991735361797
        ]
      }
    },
    {
      "type": "Feature",
      "properties": {
        "municipality": "Virmond",
        "state": "PR",
        "crop": "Fumo (em folha)",
        "hectares": 588.0,
        "production": 588.0,
        "year": 2023,
        "region": "Sul",
        "ibge_code": "4128658"
      },
      "geometry": {
        "type": "Point",
        "coordinates": [
          -50.71304079814284,
          -25.6443848678938
        ]
      }
    },
    {
      "type": "Feature",
      "properties": {
        "municipality": "Abdon Batista",
        "state": "SC",
        "crop": "Fumo (em folha)",
        "hectares": 294.0,
        "production": 294.0,
        "year": 2023,
        "region": "Sul",
        "ibge_code": "4200051"
      },
      "geometry": {
        "type": "Point",
        "coordinates": [
          -51.176824098650876,
          -27.500940030970384
        ]
      }
    },
    {
      "type": "Feature",
      "properties": {
        "municipality": "Abelardo Luz",
        "state": "SC",
        "crop": "Fumo (em folha)",
        "hectares": 300.0,
        "production": 300.0,
        "year": 2023,
        "region": "Sul",
        "ibge_code": "4200101"
      },
      "geometry": {
        "type": "Point",
        "coordinates": [
          -49.71781809922866,
          -27.144910788712355
        ]
      }
    },
    {
      "type": "Feature",
      "properties": {
        "municipality": "Agrolândia",
        "state": "SC",
        "crop": "Fumo (em folha)",
        "hectares": 450.0,
        "production": 450.0,
        "year": 2023,
        "region": "Sul",
        "ibge_code": "4200200"
      },
      "geometry": {
        "type": "Point",
        "coordinates": [
          -50.47300953584427,
          -26.56051066703455
        ]
      }
    },
    {
      "type": "Feature",
      "properties": {
        "municipality": "Agronômica",
        "state": "SC",
        "crop": "Fumo (em folha)",
        "hectares": 920.0,
        "production": 920.0,
        "year": 2023,
        "region": "Sul",
        "ibge_code": "4200309"
      },
      "geometry": {
        "type": "Point",
        "coordinates": [
          -50.16713348932367,
          -27.800620778129773
        ]
      }
    },
    {
      "type": "Feature",
      "properties": {
        "municipality": "Águas de Chapecó",
        "state": "SC",
        "crop": "Fumo (em folha)",
        "hectares": 550.0,
        "production": 550.0,
        "year": 2023,
        "region": "Sul",
        "ibge_code": "4200507"
      },
      "geometry": {
        "type": "Point",
        "coordinates": [
          -50.50820137433332,
          -27.207733080068966
        ]
      }
    },
    {
      "type": "Feature",
      "properties": {
        "municipality": "Águas Frias",
        "state": "SC",
        "crop": "Fumo (em folha)",
        "hectares": 80.0,
        "production": 80.0,
        "year": 2023,
        "region": "Sul",
        "ibge_code": "4200556"
      },
      "geometry": {
        "type": "Point",
        "coordinates": [
          -49.681698121506074,
          -26.323737816484005
        ]
      }
    },
    {
      "type": "Feature",
      "properties": {
        "municipality": "Alfredo Wagner",
        "state": "SC",
        "crop": "Fumo (em folha)",
        "hectares": 694.0,
        "production": 694.0,
        "year": 2023,
        "region": "Sul",
        "ibge_code": "4200705"
      },
      "geometry": {
        "type": "Point",
        "coordinates": [
          -49.70840261152073,
          -26.952567979473955
        ]
      }
    },
    {
      "type": "Feature",
      "properties": {
        "municipality": "Anchieta",
        "state": "SC",
        "crop": "Fumo (em folha)",
        "hectares": 20.0,
        "production": 20.0,
        "year": 2023,
        "region": "Sul",
        "ibge_code": "4200804"
      },
      "geometry": {
        "type": "Point",
        "coordinates": [
          -50.265611727538456,
          -27.630722207086855
        ]
      }
    },
    {
      "type": "Feature",
      "properties": {
        "municipality": "Angelina",
        "state": "SC",
        "crop": "Fumo (em folha)",
        "hectares": 350.0,
        "production": 350.0,
        "year": 2023,
        "region": "Sul",
        "ibge_code": "4200903"
      },
      "geometry": {
        "type": "Point",
        "coordinates": [
          -50.71993396624022,
          -27.77487423095132
        ]
      }
    },
    {
      "type": "Feature",
      "properties": {
        "municipality": "Anita Garibaldi",
        "state": "SC",
        "crop": "Fumo (em folha)",
        "hectares": 20.0,
        "production": 20.0,
        "year": 2023,
        "region": "Sul",
        "ibge_code": "4201000"
      },
      "geometry": {
        "type": "Point",
        "coordinates": [
          -50.30904599097195,
          -27.95096148979174
        ]
      }
    },
    {
      "type": "Feature",
      "properties": {
        "municipality": "Anitápolis",
        "state": "SC",
        "crop": "Fumo (em folha)",
        "hectares": 30.0,
        "production": 30.0,
        "year": 2023,
        "region": "Sul",
        "ibge_code": "4201109"
      },
      "geometry": {
        "type": "Point",
        "coordinates": [
          -50.14421980846063,
          -27.624364569240985
        ]
      }
    },
    {
      "type": "Feature",
      "properties": {
        "municipality": "Apiúna",
        "state": "SC",
        "crop": "Fumo (em folha)",
        "hectares": 272.0,
        "production": 272.0,
        "year": 2023,
        "region": "Sul",
        "ibge_code": "4201257"
      },
      "geometry": {
        "type": "Point",
        "coordinates": [
          -50.73959994498661,
          -26.712726157271934
        ]
      }
    },
    {
      "type": "Feature",
      "properties": {
        "municipality": "Araranguá",
        "state": "SC",
        "crop": "Fumo (em folha)",
        "hectares": 900.0,
        "production": 900.0,
        "year": 2023,
        "region": "Sul",
        "ibge_code": "4201406"
      },
      "geometry": {
        "type": "Point",
        "coordinates": [
          -49.68223536676947,
          -26.497968039344038
        ]
      }
    },
    {
      "type": "Feature",
      "properties": {
        "municipality": "Armazém",
        "state": "SC",
        "crop": "Fumo (em folha)",
        "hectares": 260.0,
        "production": 260.0,
        "year": 2023,
        "region": "Sul",
        "ibge_code": "4201505"
      },
      "geometry": {
        "type": "Point",
        "coordinates": [
          -50.60655725993869,
          -27.79010252645475
        ]
      }
    },
    {
      "type": "Feature",
      "properties": {
        "municipality": "Arroio Trinta",
        "state": "SC",
        "crop": "Fumo (em folha)",
        "hectares": 2.0,
        "production": 2.0,
        "year": 2023,
        "region": "Sul",
        "ibge_code": "4201604"
      },
      "geometry": {
        "type": "Point",
        "coordinates": [
          -49.55063056443912,
          -28.18223269172884
        ]
      }
    },
    {
      "type": "Feature",
      "properties": {
        "municipality": "Atalanta",
        "state": "SC",
        "crop": "Fumo (em folha)",
        "hectares": 580.0,
        "production": 580.0,
        "year": 2023,
        "region": "Sul",
        "ibge_code": "4201802"
      },
      "geometry": {
        "type": "Point",
        "coordinates": [
          -50.39128555574233,
          -27.93554799285502
        ]
      }
    },
    {
      "type": "Feature",
      "properties": {
        "municipality": "Aurora",
        "state": "SC",
        "crop": "Fumo (em folha)",
        "hectares": 850.0,
        "production": 850.0,
        "year": 2023,
        "region": "Sul",
        "ibge_code": "4201901"
      },
      "geometry": {
        "type": "Point",
        "coordinates": [
          -49.69335063154067,
          -26.578910500859198
        ]
      }
    },
    {
      "type": "Feature",
      "properties": {
        "municipality": "Balneário Gaivota",
        "state": "SC",
        "crop": "Fumo (em folha)",
        "hectares": 100.0,
        "production": 100.0,
        "year": 2023,
        "region": "Sul",
        "ibge_code": "4202073"
      },
      "geometry": {
        "type": "Point",
        "coordinates": [
          -49.90793717009833,
          -28.141351602483493
        ]
      }
    },
    {
      "type": "Feature",
      "properties": {
        "municipality": "Bandeirante",
        "state": "SC",
        "crop": "Fumo (em folha)",
        "hectares": 10.0,
        "production": 10.0,
        "year": 2023,
        "region": "Sul",
        "ibge_code": "4202081"
      },
      "geometry": {
        "type": "Point",
        "coordinates": [
          -50.84092211226799,
          -27.140188376304053
        ]
      }
    },
    {
      "type": "Feature",
      "properties": {
        "municipality": "Barra Bonita",
        "state": "SC",
        "crop": "Fumo (em folha)",
        "hectares": 60.0,
        "production": 60.0,
        "year": 2023,
        "region": "Sul",
        "ibge_code": "4202099"
      },
      "geometry": {
        "type": "Point",
        "coordinates": [
          -49.64878141753443,
          -26.562214855884015
        ]
      }
    },
    {
      "type": "Feature",
      "properties": {
        "municipality": "Bela Vista do Toldo",
        "state": "SC",
        "crop": "Fumo (em folha)",
        "hectares": 3000.0,
        "production": 3000.0,
        "year": 2023,
        "region": "Sul",
        "ibge_code": "4202131"
      },
      "geometry": {
        "type": "Point",
        "coordinates": [
          -51.08516312361242,
          -27.85563704693976
        ]
      }
    },
    {
      "type": "Feature",
      "properties": {
        "municipality": "Belmonte",
        "state": "SC",
        "crop": "Fumo (em folha)",
        "hectares": 200.0,
        "production": 200.0,
        "year": 2023,
        "region": "Sul",
        "ibge_code": "4202156"
      },
      "geometry": {
        "type": "Point",
        "coordinates": [
          -49.872924656229785,
          -26.998519137106918
        ]
      }
    },
    {
      "type": "Feature",
      "properties": {
        "municipality": "Bocaina do Sul",
        "state": "SC",
        "crop": "Fumo (em folha)",
        "hectares": 15.0,
        "production": 15.0,
        "year": 2023,
        "region": "Sul",
        "ibge_code": "4202438"
      },
      "geometry": {
        "type": "Point",
        "coordinates": [
          -50.03431223413501,
          -27.246385366638265
        ]
      }
    },
    {
      "type": "Feature",
      "properties": {
        "municipality": "Bom Jesus",
        "state": "SC",
        "crop": "Fumo (em folha)",
        "hectares": 2.0,
        "production": 2.0,
        "year": 2023,
        "region": "Sul",
        "ibge_code": "4202537"
      },
      "geometry": {
        "type": "Point",
        "coordinates": [
          -49.77910238938425,
          -27.209423181044475
        ]
      }
    },
    {
      "type": "Feature",
      "properties": {
        "municipality": "Bom Jesus do Oeste",
        "state": "SC",
        "crop": "Fumo (em folha)",
        "hectares": 150.0,
        "production": 150.0,
        "year": 2023,
        "region": "Sul",
        "ibge_code": "4202578"
      },
      "geometry": {
        "type": "Point",
        "coordinates": [
          -51.0567191542582,
          -27.405826503352717
        ]
      }
    },
    {
      "type": "Feature",
      "properties": {
        "municipality": "Bom Retiro",
        "state": "SC",
        "crop": "Fumo (em folha)",
        "hectares": 80.0,
        "production": 80.0,
        "year": 2023,
        "region": "Sul",
        "ibge_code": "4202602"
      },
      "geometry": {
        "type": "Point",
        "coordinates": [
          -49.745083601018486,
          -26.887765321543114
        ]
      }
    },
    {
      "type": "Feature",
      "properties": {
        "municipality": "Botuverá",
        "state": "SC",
        "crop": "Fumo (em folha)",
        "hectares": 90.0,
        "production": 90.0,
        "year": 2023,
        "region": "Sul",
        "ibge_code": "4202701"
      },
      "geometry": {
        "type": "Point",
        "coordinates": [
          -50.40106558610106,
          -27.827590060770028
        ]
      }
    },
    {
      "type": "Feature",
      "properties": {
        "municipality": "Braço do Norte",
        "state": "SC",
        "crop": "Fumo (em folha)",
        "hectares": 210.0,
        "production": 210.0,
        "year": 2023,
        "region": "Sul",
        "ibge_code": "4202800"
      },
      "geometry": {
        "type": "Point",
        "coordinates": [
          -50.71913352980785,
          -27.1406564760762
        ]
      }
    },
    {
      "type": "Feature",
      "properties": {
        "municipality": "Braço do Trombudo",
        "state": "SC",
        "crop": "Fumo (em folha)",
        "hectares": 15.0,
        "production": 15.0,
        "year": 2023,
        "region": "Sul",
        "ibge_code": "4202859"
      },
      "geometry": {
        "type": "Point",
        "coordinates": [
          -50.279833414938295,
          -27.54180366021028
        ]
      }
    },
    {
      "type": "Feature",
      "properties": {
        "municipality": "Caçador",
        "state": "SC",
        "crop": "Fumo (em folha)",
        "hectares": 4.0,
        "production": 4.0,
        "year": 2023,
        "region": "Sul",
        "ibge_code": "4203006"
      },
      "geometry": {
        "type": "Point",
        "coordinates": [
          -49.69335063154067,
          -26.578910500859198
        ]
      }
    },
    {
      "type": "Feature",
      "properties": {
        "municipality": "Caibi",
        "state": "SC",
        "crop": "Fumo (em folha)",
        "hectares": 150.0,
        "production": 150.0,
        "year": 2023,
        "region": "Sul",
        "ibge_code": "4203105"
      },
      "geometry": {
        "type": "Point",
        "coordinates": [
          -49.52165590125171,
          -27.463216390524874
        ]
      }
    },
    {
      "type": "Feature",
      "properties": {
        "municipality": "Campo Alegre",
        "state": "SC",
        "crop": "Fumo (em folha)",
        "hectares": 350.0,
        "production": 350.0,
        "year": 2023,
        "region": "Sul",
        "ibge_code": "4203303"
      },
      "geometry": {
        "type": "Point",
        "coordinates": [
          -49.83936615156486,
          -27.912401040333606
        ]
      }
    },
    {
      "type": "Feature",
      "properties": {
        "municipality": "Campo Belo do Sul",
        "state": "SC",
        "crop": "Fumo (em folha)",
        "hectares": 10.0,
        "production": 10.0,
        "year": 2023,
        "region": "Sul",
        "ibge_code": "4203402"
      },
      "geometry": {
        "type": "Point",
        "coordinates": [
          -50.01928963934446,
          -26.59958493712082
        ]
      }
    },
    {
      "type": "Feature",
      "properties": {
        "municipality": "Campo Erê",
        "state": "SC",
        "crop": "Fumo (em folha)",
        "hectares": 30.0,
        "production": 30.0,
        "year": 2023,
        "region": "Sul",
        "ibge_code": "4203501"
      },
      "geometry": {
        "type": "Point",
        "coordinates": [
          -50.14421980846063,
          -27.624364569240985
        ]
      }
    },
    {
      "type": "Feature",
      "properties": {
        "municipality": "Campos Novos",
        "state": "SC",
        "crop": "Fumo (em folha)",
        "hectares": 56.0,
        "production": 56.0,
        "year": 2023,
        "region": "Sul",
        "ibge_code": "4203600"
      },
      "geometry": {
        "type": "Point",
        "coordinates": [
          -49.36265170687514,
          -28.096171763578713
        ]
      }
    },
    {
      "type": "Feature",
      "properties": {
        "municipality": "Canoinhas",
        "state": "SC",
        "crop": "Fumo (em folha)",
        "hectares": 6500.0,
        "production": 6500.0,
        "year": 2023,
        "region": "Sul",
        "ibge_code": "4203808"
      },
      "geometry": {
        "type": "Point",
        "coordinates": [
          -50.58541425521419,
          -27.258679981153286
        ]
      }
    },
    {
      "type": "Feature",
      "properties": {
        "municipality": "Caxambu do Sul",
        "state": "SC",
        "crop": "Fumo (em folha)",
        "hectares": 50.0,
        "production": 50.0,
        "year": 2023,
        "region": "Sul",
        "ibge_code": "4204103"
      },