{
  "type": "FeatureCollection",
  "name": "Mamão_production",
  "features": [
    {
      "type": "Feature",
      "properties": {
        "municipality": "Alta Floresta D'Oeste",
        "state": "RO",
        "crop": "Mamão",
        "hectares": 3.0,
        "production": 3.0,
        "year": 2023,
        "region": "Norte",
        "ibge_code": "1100015"
      },
      "geometry": {
        "type": "Point",
        "coordinates": [
          -63.47108362081896,
          -10.656134520148264
        ]
      }
    },
    {
      "type": "Feature",
      "properties": {
        "municipality": "Ariquemes",
        "state": "RO",
        "crop": "Mamão",
        "hectares": 4.0,
        "production": 4.0,
        "year": 2023,
        "region": "Norte",
        "ibge_code": "1100023"
      },
      "geometry": {
        "type": "Point",
        "coordinates": [
          -64.07564461710045,
          -12.465998921071138
        ]
      }
    },
    {
      "type": "Feature",
      "properties": {
        "municipality": "Cacoal",
        "state": "RO",
        "crop": "Mamão",
        "hectares": 100.0,
        "production": 100.0,
        "year": 2023,
        "region": "Norte",
        "ibge_code": "1100049"
      },
      "geometry": {
        "type": "Point",
        "coordinates": [
          -62.79958886846444,
          -12.106099838063882
        ]
      }
    },
    {
      "type": "Feature",
      "properties": {
        "municipality": "Cerejeiras",
        "state": "RO",
        "crop": "Mamão",
        "hectares": 1.0,
        "production": 1.0,
        "year": 2023,
        "region": "Norte",
        "ibge_code": "1100056"
      },
      "geometry": {
        "type": "Point",
        "coordinates": [
          -64.47696670463657,
          -11.617781211289145
        ]
      }
    },
    {
      "type": "Feature",
      "properties": {
        "municipality": "Colorado do Oeste",
        "state": "RO",
        "crop": "Mamão",
        "hectares": 4.0,
        "production": 4.0,
        "year": 2023,
        "region": "Norte",
        "ibge_code": "1100064"
      },
      "geometry": {
        "type": "Point",
        "coordinates": [
          -64.20053708514064,
          -12.378133038890928
        ]
      }
    },
    {
      "type": "Feature",
      "properties": {
        "municipality": "Costa Marques",
        "state": "RO",
        "crop": "Mamão",
        "hectares": 5.0,
        "production": 5.0,
        "year": 2023,
        "region": "Norte",
        "ibge_code": "1100080"
      },
      "geometry": {
        "type": "Point",
        "coordinates": [
          -63.00508478546875,
          -11.14548713243165
        ]
      }
    },
    {
      "type": "Feature",
      "properties": {
        "municipality": "Espigão D'Oeste",
        "state": "RO",
        "crop": "Mamão",
        "hectares": 4.0,
        "production": 4.0,
        "year": 2023,
        "region": "Norte",
        "ibge_code": "1100098"
      },
      "geometry": {
        "type": "Point",
        "coordinates": [
          -62.91591681003188,
          -10.514150067944508
        ]
      }
    },
    {
      "type": "Feature",
      "properties": {
        "municipality": "Guajará-Mirim",
        "state": "RO",
        "crop": "Mamão",
        "hectares": 3.0,
        "production": 3.0,
        "year": 2023,
        "region": "Norte",
        "ibge_code": "1100106"
      },
      "geometry": {
        "type": "Point",
        "coordinates": [
          -63.76515579784139,
          -11.680842345491442
        ]
      }
    },
    {
      "type": "Feature",
      "properties": {
        "municipality": "Ji-Paraná",
        "state": "RO",
        "crop": "Mamão",
        "hectares": 8.0,
        "production": 8.0,
        "year": 2023,
        "region": "Norte",
        "ibge_code": "1100122"
      },
      "geometry": {
        "type": "Point",
        "coordinates": [
          -63.54652753575108,
          -11.014580747632994
        ]
      }
    },
    {
      "type": "Feature",
      "properties": {
        "municipality": "Machadinho D'Oeste",
        "state": "RO",
        "crop": "Mamão",
        "hectares": 2.0,
        "production": 2.0,
        "year": 2023,
        "region": "Norte",
        "ibge_code": "1100130"
      },
      "geometry": {
        "type": "Point",
        "coordinates": [
          -63.35799059545948,
          -11.196820362076354
        ]
      }
    },
    {
      "type": "Feature",
      "properties": {
        "municipality": "Nova Brasilândia D'Oeste",
        "state": "RO",
        "crop": "Mamão",
        "hectares": 3.0,
        "production": 3.0,
        "year": 2023,
        "region": "Norte",
        "ibge_code": "1100148"
      },
      "geometry": {
        "type": "Point",
        "coordinates": [
          -63.36481135333994,
          -11.38568795223679
        ]
      }
    },
    {
      "type": "Feature",
      "properties": {
        "municipality": "Ouro Preto do Oeste",
        "state": "RO",
        "crop": "Mamão",
        "hectares": 1.0,
        "production": 1.0,
        "year": 2023,
        "region": "Norte",
        "ibge_code": "1100155"
      },
      "geometry": {
        "type": "Point",
        "coordinates": [
          -64.41508377555539,
          -12.257183906040966
        ]
      }
    },
    {
      "type": "Feature",
      "properties": {
        "municipality": "Pimenta Bueno",
        "state": "RO",
        "crop": "Mamão",
        "hectares": 3.0,
        "production": 3.0,
        "year": 2023,
        "region": "Norte",
        "ibge_code": "1100189"
      },
      "geometry": {
        "type": "Point",
        "coordinates": [
          -64.31705216245875,
          -12.472782318589406
        ]
      }
    },
    {
      "type": "Feature",
      "properties": {
        "municipality": "Porto Velho",
        "state": "RO",
        "crop": "Mamão",
        "hectares": 33.0,
        "production": 33.0,
        "year": 2023,
        "region": "Norte",
        "ibge_code": "1100205"
      },
      "geometry": {
        "type": "Point",
        "coordinates": [
          -63.63358436368998,
          -10.70297687930321
        ]
      }
    },
    {
      "type": "Feature",
      "properties": {
        "municipality": "Presidente Médici",
        "state": "RO",
        "crop": "Mamão",
        "hectares": 8.0,
        "production": 8.0,
        "year": 2023,
        "region": "Norte",
        "ibge_code": "1100254"
      },
      "geometry": {
        "type": "Point",
        "coordinates": [
          -63.804530540760624,
          -10.637176074592054
        ]
      }
    },
    {
      "type": "Feature",
      "properties": {
        "municipality": "Rolim de Moura",
        "state": "RO",
        "crop": "Mamão",
        "hectares": 23.0,
        "production": 23.0,
        "year": 2023,
        "region": "Norte",
        "ibge_code": "1100288"
      },
      "geometry": {
        "type": "Point",
        "coordinates": [
          -64.27038086711889,
          -10.87933364579586
        ]
      }
    },
    {
      "type": "Feature",
      "properties": {
        "municipality": "Vilhena",
        "state": "RO",
        "crop": "Mamão",
        "hectares": 2.0,
        "production": 2.0,
        "year": 2023,
        "region": "Norte",
        "ibge_code": "1100304"
      },
      "geometry": {
        "type": "Point",
        "coordinates": [
          -63.86284000241561,
          -10.54799261760644
        ]
      }
    },
    {
      "type": "Feature",
      "properties": {
        "municipality": "São Miguel do Guaporé",
        "state": "RO",
        "crop": "Mamão",
        "hectares": 1.0,
        "production": 1.0,
        "year": 2023,
        "region": "Norte",
        "ibge_code": "1100320"
      },
      "geometry": {
        "type": "Point",
        "coordinates": [
          -63.53096235767705,
          -11.646019929768352
        ]
      }
    },
    {
      "type": "Feature",
      "properties": {
        "municipality": "Nova Mamoré",
        "state": "RO",
        "crop": "Mamão",
        "hectares": 10.0,
        "production": 10.0,
        "year": 2023,
        "region": "Norte",
        "ibge_code": "1100338"
      },
      "geometry": {
        "type": "Point",
        "coordinates": [
          -62.836082238306204,
          -11.40668837618645
        ]
      }
    },
    {
      "type": "Feature",
      "properties": {
        "municipality": "Alto Alegre dos Parecis",
        "state": "RO",
        "crop": "Mamão",
        "hectares": 4.0,
        "production": 4.0,
        "year": 2023,
        "region": "Norte",
        "ibge_code": "1100379"
      },
      "geometry": {
        "type": "Point",
        "coordinates": [
          -63.599844517858365,
          -10.990922536568295
        ]
      }
    },
    {
      "type": "Feature",
      "properties": {
        "municipality": "Alto Paraíso",
        "state": "RO",
        "crop": "Mamão",
        "hectares": 7.0,
        "production": 7.0,
        "year": 2023,
        "region": "Norte",
        "ibge_code": "1100403"
      },
      "geometry": {
        "type": "Point",
        "coordinates": [
          -64.3043165745713,
          -11.69446871532617
        ]
      }
    },
    {
      "type": "Feature",
      "properties": {
        "municipality": "Buritis",
        "state": "RO",
        "crop": "Mamão",
        "hectares": 4.0,
        "production": 4.0,
        "year": 2023,
        "region": "Norte",
        "ibge_code": "1100452"
      },
      "geometry": {
        "type": "Point",
        "coordinates": [
          -64.18659542109238,
          -10.653153199456273
        ]
      }
    },
    {
      "type": "Feature",
      "properties": {
        "municipality": "Cacaulândia",
        "state": "RO",
        "crop": "Mamão",
        "hectares": 2.0,
        "production": 2.0,
        "year": 2023,
        "region": "Norte",
        "ibge_code": "1100601"
      },
      "geometry": {
        "type": "Point",
        "coordinates": [
          -62.643838963814304,
          -10.665928757355275
        ]
      }
    },
    {
      "type": "Feature",
      "properties": {
        "municipality": "Campo Novo de Rondônia",
        "state": "RO",
        "crop": "Mamão",
        "hectares": 7.0,
        "production": 7.0,
        "year": 2023,
        "region": "Norte",
        "ibge_code": "1100700"
      },
      "geometry": {
        "type": "Point",
        "coordinates": [
          -64.10129994498661,
          -10.976126157271931
        ]
      }
    },
    {
      "type": "Feature",
      "properties": {
        "municipality": "Candeias do Jamari",
        "state": "RO",
        "crop": "Mamão",
        "hectares": 8.0,
        "production": 8.0,
        "year": 2023,
        "region": "Norte",
        "ibge_code": "1100809"
      },
      "geometry": {
        "type": "Point",
        "coordinates": [
          -62.784453531868145,
          -11.272358836389603
        ]
      }
    },
    {
      "type": "Feature",
      "properties": {
        "municipality": "Castanheiras",
        "state": "RO",
        "crop": "Mamão",
        "hectares": 2.0,
        "production": 2.0,
        "year": 2023,
        "region": "Norte",
        "ibge_code": "1100908"
      },
      "geometry": {
        "type": "Point",
        "coordinates": [
          -63.949668293084805,
          -11.678104859961499
        ]
      }
    },
    {
      "type": "Feature",
      "properties": {
        "municipality": "Chupinguaia",
        "state": "RO",
        "crop": "Mamão",
        "hectares": 3.0,
        "production": 3.0,
        "year": 2023,
        "region": "Norte",
        "ibge_code": "1100924"
      },
      "geometry": {
        "type": "Point",
        "coordinates": [
          -62.759677440502905,
          -12.190954971005938
        ]
      }
    },
    {
      "type": "Feature",
      "properties": {
        "municipality": "Cujubim",
        "state": "RO",
        "crop": "Mamão",
        "hectares": 2.0,
        "production": 2.0,
        "year": 2023,
        "region": "Norte",
        "ibge_code": "1100940"
      },
      "geometry": {
        "type": "Point",
        "coordinates": [
          -62.66580633387573,
          -11.981285168630647
        ]
      }
    },
    {
      "type": "Feature",
      "properties": {
        "municipality": "Ministro Andreazza",
        "state": "RO",
        "crop": "Mamão",
        "hectares": 15.0,
        "production": 15.0,
        "year": 2023,
        "region": "Norte",
        "ibge_code": "1101203"
      },
      "geometry": {
        "type": "Point",
        "coordinates": [
          -63.292873460236265,
          -12.264365780150893
        ]
      }
    },
    {
      "type": "Feature",
      "properties": {
        "municipality": "Mirante da Serra",
        "state": "RO",
        "crop": "Mamão",
        "hectares": 2.0,
        "production": 2.0,
        "year": 2023,
        "region": "Norte",
        "ibge_code": "1101302"
      },
      "geometry": {
        "type": "Point",
        "coordinates": [
          -63.48499549300005,
          -11.961857622275188
        ]
      }
    },
    {
      "type": "Feature",
      "properties": {
        "municipality": "Monte Negro",
        "state": "RO",
        "crop": "Mamão",
        "hectares": 6.0,
        "production": 6.0,
        "year": 2023,
        "region": "Norte",
        "ibge_code": "1101401"
      },
      "geometry": {
        "type": "Point",
        "coordinates": [
          -63.62561435364165,
          -12.316551245877804
        ]
      }
    },
    {
      "type": "Feature",
      "properties": {
        "municipality": "Primavera de Rondônia",
        "state": "RO",
        "crop": "Mamão",
        "hectares": 3.0,
        "production": 3.0,
        "year": 2023,
        "region": "Norte",
        "ibge_code": "1101476"
      },
      "geometry": {
        "type": "Point",
        "coordinates": [
          -64.44617177332965,
          -10.875916926893682
        ]
      }
    },
    {
      "type": "Feature",
      "properties": {
        "municipality": "São Felipe D'Oeste",
        "state": "RO",
        "crop": "Mamão",
        "hectares": 4.0,
        "production": 4.0,
        "year": 2023,
        "region": "Norte",
        "ibge_code": "1101484"
      },
      "geometry": {
        "type": "Point",
        "coordinates": [
          -63.023236007096536,
          -11.741252601805476
        ]
      }
    },
    {
      "type": "Feature",
      "properties": {
        "municipality": "Urupá",
        "state": "RO",
        "crop": "Mamão",
        "hectares": 2.0,
        "production": 2.0,
        "year": 2023,
        "region": "Norte",
        "ibge_code": "1101708"
      },
      "geometry": {
        "type": "Point",
        "coordinates": [
          -63.89118028388784,
          -11.310308429127343
        ]
      }
    },
    {
      "type": "Feature",
      "properties": {
        "municipality": "Vale do Paraíso",
        "state": "RO",
        "crop": "Mamão",
        "hectares": 2.0,
        "production": 2.0,
        "year": 2023,
        "region": "Norte",
        "ibge_code": "1101807"
      },
      "geometry": {
        "type": "Point",
        "coordinates": [
          -64.3959981009997,
          -10.511338329591068
        ]
      }
    },
    {
      "type": "Feature",
      "properties": {
        "municipality": "Acrelândia",
        "state": "AC",
        "crop": "Mamão",
        "hectares": 30.0,
        "production": 30.0,
        "year": 2023,
        "region": "Norte",
        "ibge_code": "1200013"
      },
      "geometry": {
        "type": "Point",
        "coordinates": [
          -70.59514436812134,
          -8.117808694532357
        ]
      }
    },
    {
      "type": "Feature",
      "properties": {
        "municipality": "Assis Brasil",
        "state": "AC",
        "crop": "Mamão",
        "hectares": 4.0,
        "production": 4.0,
        "year": 2023,
        "region": "Norte",
        "ibge_code": "1200054"
      },
      "geometry": {
        "type": "Point",
        "coordinates": [
          -69.82344697390286,
          -10.02142877421514
        ]
      }
    },
    {
      "type": "Feature",
      "properties": {
        "municipality": "Brasiléia",
        "state": "AC",
        "crop": "Mamão",
        "hectares": 10.0,
        "production": 10.0,
        "year": 2023,
        "region": "Norte",
        "ibge_code": "1200104"
      },
      "geometry": {
        "type": "Point",
        "coordinates": [
          -70.209389668062,
          -8.161718776310932
        ]
      }
    },
    {
      "type": "Feature",
      "properties": {
        "municipality": "Bujari",
        "state": "AC",
        "crop": "Mamão",
        "hectares": 11.0,
        "production": 11.0,
        "year": 2023,
        "region": "Norte",
        "ibge_code": "1200138"
      },
      "geometry": {
        "type": "Point",
        "coordinates": [
          -70.18073127393497,
          -9.762759540198658
        ]
      }
    },
    {
      "type": "Feature",
      "properties": {
        "municipality": "Capixaba",
        "state": "AC",
        "crop": "Mamão",
        "hectares": 15.0,
        "production": 15.0,
        "year": 2023,
        "region": "Norte",
        "ibge_code": "1200179"
      },
      "geometry": {
        "type": "Point",
        "coordinates": [
          -70.47982488555012,
          -9.061306731853383
        ]
      }
    },
    {
      "type": "Feature",
      "properties": {
        "municipality": "Cruzeiro do Sul",
        "state": "AC",
        "crop": "Mamão",
        "hectares": 16.0,
        "production": 16.0,
        "year": 2023,
        "region": "Norte",
        "ibge_code": "1200203"
      },
      "geometry": {
        "type": "Point",
        "coordinates": [
          -70.0298775641068,
          -9.104297642283615
        ]
      }
    },
    {
      "type": "Feature",
      "properties": {
        "municipality": "Epitaciolândia",
        "state": "AC",
        "crop": "Mamão",
        "hectares": 9.0,
        "production": 9.0,
        "year": 2023,
        "region": "Norte",
        "ibge_code": "1200252"
      },
      "geometry": {
        "type": "Point",
        "coordinates": [
          -70.0674822383062,
          -8.92478837618645
        ]
      }
    },
    {
      "type": "Feature",
      "properties": {
        "municipality": "Feijó",
        "state": "AC",
        "crop": "Mamão",
        "hectares": 14.0,
        "production": 14.0,
        "year": 2023,
        "region": "Norte",
        "ibge_code": "1200302"
      },
      "geometry": {
        "type": "Point",
        "coordinates": [
          -70.00511042723109,
          -8.60073080746991
        ]
      }
    },
    {
      "type": "Feature",
      "properties": {
        "municipality": "Jordão",
        "state": "AC",
        "crop": "Mamão",
        "hectares": 5.0,
        "production": 5.0,
        "year": 2023,
        "region": "Norte",
        "ibge_code": "1200328"
      },
      "geometry": {
        "type": "Point",
        "coordinates": [
          -71.25393440125423,
          -9.958154710265145
        ]
      }
    },
    {
      "type": "Feature",
      "properties": {
        "municipality": "Mâncio Lima",
        "state": "AC",
        "crop": "Mamão",
        "hectares": 12.0,
        "production": 12.0,
        "year": 2023,
        "region": "Norte",
        "ibge_code": "1200336"
      },
      "geometry": {
        "type": "Point",
        "coordinates": [
          -69.85428861893537,
          -9.741325872091588
        ]
      }
    },
    {
      "type": "Feature",
      "properties": {
        "municipality": "Manoel Urbano",
        "state": "AC",
        "crop": "Mamão",
        "hectares": 6.0,
        "production": 6.0,
        "year": 2023,
        "region": "Norte",
        "ibge_code": "1200344"
      },
      "geometry": {
        "type": "Point",
        "coordinates": [
          -70.9566286019316,
          -9.028427181569803
        ]
      }
    },
    {
      "type": "Feature",
      "properties": {
        "municipality": "Marechal Thaumaturgo",
        "state": "AC",
        "crop": "Mamão",
        "hectares": 4.0,
        "production": 4.0,
        "year": 2023,
        "region": "Norte",
        "ibge_code": "1200351"
      },
      "geometry": {
        "type": "Point",
        "coordinates": [
          -70.47386957647166,
          -9.011846666100318
        ]
      }
    },
    {
      "type": "Feature",
      "properties": {
        "municipality": "Plácido de Castro",
        "state": "AC",
        "crop": "Mamão",
        "hectares": 12.0,
        "production": 12.0,
        "year": 2023,
        "region": "Norte",
        "ibge_code": "1200385"
      },
      "geometry": {
        "type": "Point",
        "coordinates": [
          -70.44148401407092,
          -9.505783016569053
        ]
      }
    },
    {
      "type": "Feature",
      "properties": {
        "municipality": "Porto Walter",
        "state": "AC",
        "crop": "Mamão",
        "hectares": 2.0,
        "production": 2.0,
        "year": 2023,
        "region": "Norte",
        "ibge_code": "1200393"
      },
      "geometry": {
        "type": "Point",
        "coordinates": [
          -70.89884329255284,
          -9.848863656828206
        ]
      }
    },
    {
      "type": "Feature",
      "properties": {
        "municipality": "Rio Branco",
        "state": "AC",
        "crop": "Mamão",
        "hectares": 14.0,
        "production": 14.0,
        "year": 2023,
        "region": "Norte",
        "ibge_code": "1200401"
      },
      "geometry": {
        "type": "Point",
        "coordinates": [
          -69.961295582124,
          -9.428658517488996
        ]
      }
    },
    {
      "type": "Feature",
      "properties": {
        "municipality": "Rodrigues Alves",
        "state": "AC",
        "crop": "Mamão",
        "hectares": 3.0,
        "production": 3.0,
        "year": 2023,
        "region": "Norte",
        "ibge_code": "1200427"
      },
      "geometry": {
        "type": "Point",
        "coordinates": [
          -70.61238963934446,
          -8.381084937120821
        ]
      }
    },
    {
      "type": "Feature",
      "properties": {
        "municipality": "Santa Rosa do Purus",
        "state": "AC",
        "crop": "Mamão",
        "hectares": 8.0,
        "production": 8.0,
        "year": 2023,
        "region": "Norte",
        "ibge_code": "1200435"
      },
      "geometry": {
        "type": "Point",
        "coordinates": [
          -71.60137584075909,
          -8.861916188365523
        ]
      }
    },
    {
      "type": "Feature",
      "properties": {
        "municipality": "Senador Guiomard",
        "state": "AC",
        "crop": "Mamão",
        "hectares": 18.0,
        "production": 18.0,
        "year": 2023,
        "region": "Norte",
        "ibge_code": "1200450"
      },
      "geometry": {
        "type": "Point",
        "coordinates": [
          -70.43474447329871,
          -8.769959231713251
        ]
      }
    },
    {
      "type": "Feature",
      "properties": {
        "municipality": "Sena Madureira",
        "state": "AC",
        "crop": "Mamão",
        "hectares": 18.0,
        "production": 18.0,
        "year": 2023,
        "region": "Norte",
        "ibge_code": "1200500"
      },
      "geometry": {
        "type": "Point",
        "coordinates": [
          -71.60889164058379,
          -9.389671870349403
        ]
      }
    },
    {
      "type": "Feature",
      "properties": {
        "municipality": "Tarauacá",
        "state": "AC",
        "crop": "Mamão",
        "hectares": 20.0,
        "production": 20.0,
        "year": 2023,
        "region": "Norte",
        "ibge_code": "1200609"
      },
      "geometry": {
        "type": "Point",
        "coordinates": [
          -70.98312296206888,
          -9.402428125806555
        ]
      }
    },
    {
      "type": "Feature",
      "properties": {
        "municipality": "Xapuri",
        "state": "AC",
        "crop": "Mamão",
        "hectares": 9.0,
        "production": 9.0,
        "year": 2023,
        "region": "Norte",
        "ibge_code": "1200708"
      },
      "geometry": {
        "type": "Point",
        "coordinates": [
          -70.82535088926788,
          -8.544098482681997
        ]
      }
    },
    {
      "type": "Feature",
      "properties": {
        "municipality": "Porto Acre",
        "state": "AC",
        "crop": "Mamão",
        "hectares": 29.0,
        "production": 29.0,
        "year": 2023,
        "region": "Norte",
        "ibge_code": "1200807"
      },
      "geometry": {
        "type": "Point",
        "coordinates": [
          -70.2144387294905,
          -8.114400206944513
        ]
      }
    },
    {
      "type": "Feature",
      "properties": {
        "municipality": "Amaturá",
        "state": "AM",
        "crop": "Mamão",
        "hectares": 1.0,
        "production": 1.0,
        "year": 2023,
        "region": "Norte",
        "ibge_code": "1300060"
      },
      "geometry": {
        "type": "Point",
        "coordinates": [
          -62.02924205138022,
          -5.401733922788264
        ]
      }
    },
    {
      "type": "Feature",
      "properties": {
        "municipality": "Anamã",
        "state": "AM",
        "crop": "Mamão",
        "hectares": 38.0,
        "production": 38.0,
        "year": 2023,
        "region": "Norte",
        "ibge_code": "1300086"
      },
      "geometry": {
        "type": "Point",
        "coordinates": [
          -61.058035415247204,
          -5.815647303301946
        ]
      }
    },
    {
      "type": "Feature",
      "properties": {
        "municipality": "Anori",
        "state": "AM",
        "crop": "Mamão",
        "hectares": 4.0,
        "production": 4.0,
        "year": 2023,
        "region": "Norte",
        "ibge_code": "1300102"
      },
      "geometry": {
        "type": "Point",
        "coordinates": [
          -61.0488649125767,
          -4.366224824726519
        ]
      }
    },
    {
      "type": "Feature",
      "properties": {
        "municipality": "Apuí",
        "state": "AM",
        "crop": "Mamão",
        "hectares": 6.0,
        "production": 6.0,
        "year": 2023,
        "region": "Norte",
        "ibge_code": "1300144"
      },
      "geometry": {
        "type": "Point",
        "coordinates": [
          -61.335645397067836,
          -5.5718255041336375
        ]
      }
    },
    {
      "type": "Feature",
      "properties": {
        "municipality": "Atalaia do Norte",
        "state": "AM",
        "crop": "Mamão",
        "hectares": 1.0,
        "production": 1.0,
        "year": 2023,
        "region": "Norte",
        "ibge_code": "1300201"
      },
      "geometry": {
        "type": "Point",
        "coordinates": [
          -62.55579500012854,
          -5.370093010783706
        ]
      }
    },
    {
      "type": "Feature",
      "properties": {
        "municipality": "Autazes",
        "state": "AM",
        "crop": "Mamão",
        "hectares": 15.0,
        "production": 15.0,
        "year": 2023,
        "region": "Norte",
        "ibge_code": "1300300"
      },
      "geometry": {
        "type": "Point",
        "coordinates": [
          -61.37797728782578,
          -4.606648346399459
        ]
      }
    },
    {
      "type": "Feature",
      "properties": {
        "municipality": "Barreirinha",
        "state": "AM",
        "crop": "Mamão",
        "hectares": 2.0,
        "production": 2.0,
        "year": 2023,
        "region": "Norte",
        "ibge_code": "1300508"
      },
      "geometry": {
        "type": "Point",
        "coordinates": [
          -60.95412670011488,
          -4.457926977202023
        ]
      }
    },
    {
      "type": "Feature",
      "properties": {
        "municipality": "Benjamin Constant",
        "state": "AM",
        "crop": "Mamão",
        "hectares": 30.0,
        "production": 30.0,
        "year": 2023,
        "region": "Norte",
        "ibge_code": "1300607"
      },
      "geometry": {
        "type": "Point",
        "coordinates": [
          -61.715515284539926,
          -5.64257954518688
        ]
      }
    },
    {
      "type": "Feature",
      "properties": {
        "municipality": "Boa Vista do Ramos",
        "state": "AM",
        "crop": "Mamão",
        "hectares": 2.0,
        "production": 2.0,
        "year": 2023,
        "region": "Norte",
        "ibge_code": "1300680"
      },
      "geometry": {
        "type": "Point",
        "coordinates": [
          -61.845049457259265,
          -5.1162960608015355
        ]
      }
    },
    {
      "type": "Feature",
      "properties": {
        "municipality": "Boca do Acre",
        "state": "AM",
        "crop": "Mamão",
        "hectares": 4.0,
        "production": 4.0,
        "year": 2023,
        "region": "Norte",
        "ibge_code": "1300706"
      },
      "geometry": {
        "type": "Point",
        "coordinates": [
          -62.020784233882914,
          -5.307865361819012
        ]
      }
    },
    {
      "type": "Feature",
      "properties": {
        "municipality": "Carauari",
        "state": "AM",
        "crop": "Mamão",
        "hectares": 1.0,
        "production": 1.0,
        "year": 2023,
        "region": "Norte",
        "ibge_code": "1301001"
      },
      "geometry": {
        "type": "Point",
        "coordinates": [
          -62.23989208901886,
          -5.618969623235571
        ]
      }
    },
    {
      "type": "Feature",
      "properties": {
        "municipality": "Careiro",
        "state": "AM",
        "crop": "Mamão",
        "hectares": 8.0,
        "production": 8.0,
        "year": 2023,
        "region": "Norte",
        "ibge_code": "1301100"
      },
      "geometry": {
        "type": "Point",
        "coordinates": [
          -62.88917761849975,
          -4.665031187166753
        ]
      }
    },
    {
      "type": "Feature",
      "properties": {
        "municipality": "Careiro da Várzea",
        "state": "AM",
        "crop": "Mamão",
        "hectares": 6.0,
        "production": 6.0,
        "year": 2023,
        "region": "Norte",
        "ibge_code": "1301159"
      },
      "geometry": {
        "type": "Point",
        "coordinates": [
          -60.99367491248807,
          -5.419949334486633
        ]
      }
    },
    {
      "type": "Feature",
      "properties": {
        "municipality": "Coari",
        "state": "AM",
        "crop": "Mamão",
        "hectares": 12.0,
        "production": 12.0,
        "year": 2023,
        "region": "Norte",
        "ibge_code": "1301209"
      },
      "geometry": {
        "type": "Point",
        "coordinates": [
          -61.10958304687498,
          -5.937360154160725
        ]
      }
    },
    {
      "type": "Feature",
      "properties": {
        "municipality": "Codajás",
        "state": "AM",
        "crop": "Mamão",
        "hectares": 10.0,
        "production": 10.0,
        "year": 2023,
        "region": "Norte",
        "ibge_code": "1301308"
      },
      "geometry": {
        "type": "Point",
        "coordinates": [
          -62.14335139129463,
          -3.969810080263935
        ]
      }
    },
    {
      "type": "Feature",
      "properties": {
        "municipality": "Eirunepé",
        "state": "AM",
        "crop": "Mamão",
        "hectares": 5.0,
        "production": 5.0,
        "year": 2023,
        "region": "Norte",
        "ibge_code": "1301407"
      },
      "geometry": {
        "type": "Point",
        "coordinates": [
          -61.88222457322698,
          -5.2452325059246725
        ]
      }
    },
    {
      "type": "Feature",
      "properties": {
        "municipality": "Envira",
        "state": "AM",
        "crop": "Mamão",
        "hectares": 2.0,
        "production": 2.0,
        "year": 2023,
        "region": "Norte",
        "ibge_code": "1301506"
      },
      "geometry": {
        "type": "Point",
        "coordinates": [
          -61.913727535751086,
          -4.469780747632994
        ]
      }
    },
    {
      "type": "Feature",
      "properties": {
        "municipality": "Guajará",
        "state": "AM",
        "crop": "Mamão",
        "hectares": 1.0,
        "production": 1.0,
        "year": 2023,
        "region": "Norte",
        "ibge_code": "1301654"
      },
      "geometry": {
        "type": "Point",
        "coordinates": [
          -61.45135724995553,
          -4.910026983168274
        ]
      }
    },
    {
      "type": "Feature",
      "properties": {
        "municipality": "Ipixuna",
        "state": "AM",
        "crop": "Mamão",
        "hectares": 30.0,
        "production": 30.0,
        "year": 2023,
        "region": "Norte",
        "ibge_code": "1301803"
      },
      "geometry": {
        "type": "Point",
        "coordinates": [
          -61.68237443818982,
          -5.925609108980069
        ]
      }
    },
    {
      "type": "Feature",
      "properties": {
        "municipality": "Iranduba",
        "state": "AM",
        "crop": "Mamão",
        "hectares": 40.0,
        "production": 40.0,
        "year": 2023,
        "region": "Norte",
        "ibge_code": "1301852"
      },
      "geometry": {
        "type": "Point",
        "coordinates": [
          -62.214520732381644,
          -5.288514282600855
        ]
      }
    },
    {
      "type": "Feature",
      "properties": {
        "municipality": "Itacoatiara",
        "state": "AM",
        "crop": "Mamão",
        "hectares": 85.0,
        "production": 85.0,
        "year": 2023,
        "region": "Norte",
        "ibge_code": "1301902"
      },
      "geometry": {
        "type": "Point",
        "coordinates": [
          -62.84025948338317,
          -4.5577557238158155
        ]
      }
    },
    {
      "type": "Feature",
      "properties": {
        "municipality": "Itamarati",
        "state": "AM",
        "crop": "Mamão",
        "hectares": 3.0,
        "production": 3.0,
        "year": 2023,
        "region": "Norte",
        "ibge_code": "1301951"
      },
      "geometry": {
        "type": "Point",
        "coordinates": [
          -62.50680409394203,
          -5.656607434313416
        ]
      }
    },
    {
      "type": "Feature",
      "properties": {
        "municipality": "Itapiranga",
        "state": "AM",
        "crop": "Mamão",
        "hectares": 4.0,
        "production": 4.0,
        "year": 2023,
        "region": "Norte",
        "ibge_code": "1302009"
      },
      "geometry": {
        "type": "Point",
        "coordinates": [
          -61.577284014070926,
          -5.442883016569052
        ]
      }
    },
    {
      "type": "Feature",
      "properties": {
        "municipality": "Manacapuru",
        "state": "AM",
        "crop": "Mamão",
        "hectares": 240.0,
        "production": 240.0,
        "year": 2023,
        "region": "Norte",
        "ibge_code": "1302504"
      },
      "geometry": {
        "type": "Point",
        "coordinates": [
          -62.687089496109195,
          -4.135109972986614
        ]
      }
    },
    {
      "type": "Feature",
      "properties": {
        "municipality": "Manaquiri",
        "state": "AM",
        "crop": "Mamão",
        "hectares": 5.0,
        "production": 5.0,
        "year": 2023,
        "region": "Norte",
        "ibge_code": "1302553"
      },
      "geometry": {
        "type": "Point",
        "coordinates": [
          -61.157381682101665,
          -4.313285516071824
        ]
      }
    },
    {
      "type": "Feature",
      "properties": {
        "municipality": "Manaus",
        "state": "AM",
        "crop": "Mamão",
        "hectares": 44.0,
        "production": 44.0,
        "year": 2023,
        "region": "Norte",
        "ibge_code": "1302603"
      },
      "geometry": {
        "type": "Point",
        "coordinates": [
          -61.316766095329115,
          -5.633565333549862
        ]
      }
    },
    {
      "type": "Feature",
      "properties": {
        "municipality": "Maués",
        "state": "AM",
        "crop": "Mamão",
        "hectares": 6.0,
        "production": 6.0,
        "year": 2023,
        "region": "Norte",
        "ibge_code": "1302900"
      },
      "geometry": {
        "type": "Point",
        "coordinates": [
          -61.59904061686728,
          -5.672420387530199
        ]
      }
    },
    {
      "type": "Feature",
      "properties": {
        "municipality": "Nhamundá",
        "state": "AM",
        "crop": "Mamão",
        "hectares": 2.0,
        "production": 2.0,
        "year": 2023,
        "region": "Norte",
        "ibge_code": "1303007"
      },
      "geometry": {
        "type": "Point",
        "coordinates": [
          -62.66706281984721,
          -4.044481240365454
        ]
      }
    },
    {
      "type": "Feature",
      "properties": {
        "municipality": "Nova Olinda do Norte",
        "state": "AM",
        "crop": "Mamão",
        "hectares": 9.0,
        "production": 9.0,
        "year": 2023,
        "region": "Norte",
        "ibge_code": "1303106"
      },
      "geometry": {
        "type": "Point",
        "coordinates": [
          -62.152908945828344,
          -5.548975300097762
        ]
      }
    },
    {
      "type": "Feature",
      "properties": {
        "municipality": "Novo Airão",
        "state": "AM",
        "crop": "Mamão",
        "hectares": 10.0,
        "production": 10.0,
        "year": 2023,
        "region": "Norte",
        "ibge_code": "1303205"
      },
      "geometry": {
        "type": "Point",
        "coordinates": [
          -61.12059771216959,
          -4.51050139250369
        ]
      }
    },
    {
      "type": "Feature",
      "properties": {
        "municipality": "Novo Aripuanã",
        "state": "AM",
        "crop": "Mamão",
        "hectares": 5.0,
        "production": 5.0,
        "year": 2023,
        "region": "Norte",
        "ibge_code": "1303304"
      },
      "geometry": {
        "type": "Point",
        "coordinates": [
          -61.14294350318315,
          -4.930293713857386
        ]
      }
    },
    {
      "type": "Feature",
      "properties": {
        "municipality": "Parintins",
        "state": "AM",
        "crop": "Mamão",
        "hectares": 3.0,
        "production": 3.0,
        "year": 2023,
        "region": "Norte",
        "ibge_code": "1303403"
      },
      "geometry": {
        "type": "Point",
        "coordinates": [
          -62.144124969345334,
          -4.21341751361353
        ]
      }
    },
    {
      "type": "Feature",
      "properties": {
        "municipality": "Presidente Figueiredo",
        "state": "AM",
        "crop": "Mamão",
        "hectares": 24.0,
        "production": 24.0,
        "year": 2023,
        "region": "Norte",
        "ibge_code": "1303536"
      },
      "geometry": {
        "type": "Point",
        "coordinates": [
          -61.64787402771335,
          -5.232137664628209
        ]
      }
    },
    {
      "type": "Feature",
      "properties": {
        "municipality": "Rio Preto da Eva",
        "state": "AM",
        "crop": "Mamão",
        "hectares": 50.0,
        "production": 50.0,
        "year": 2023,
        "region": "Norte",
        "ibge_code": "1303569"
      },
      "geometry": {
        "type": "Point",
        "coordinates": [
          -61.24790941269896,
          -4.331096704084077
        ]
      }
    },
    {
      "type": "Feature",
      "properties": {
        "municipality": "Santo Antônio do Içá",
        "state": "AM",
        "crop": "Mamão",
        "hectares": 10.0,
        "production": 10.0,
        "year": 2023,
        "region": "Norte",
        "ibge_code": "1303700"
      },
      "geometry": {
        "type": "Point",
        "coordinates": [
          -61.22424128138704,
          -4.213126215743218
        ]
      }
    },
    {
      "type": "Feature",
      "properties": {
        "municipality": "São Gabriel da Cachoeira",
        "state": "AM",
        "crop": "Mamão",
        "hectares": 3.0,
        "production": 3.0,
        "year": 2023,
        "region": "Norte",
        "ibge_code": "1303809"
      },
      "geometry": {
        "type": "Point",
        "coordinates": [
          -61.415520486526475,
          -4.511140273890207
        ]
      }
    },
    {
      "type": "Feature",
      "properties": {
        "municipality": "São Paulo de Olivença",
        "state": "AM",
        "crop": "Mamão",
        "hectares": 2.0,
        "production": 2.0,
        "year": 2023,
        "region": "Norte",
        "ibge_code": "1303908"
      },
      "geometry": {
        "type": "Point",
        "coordinates": [
          -62.480898753788594,
          -5.0567682693018865
        ]
      }
    },
    {
      "type": "Feature",
      "properties": {
        "municipality": "São Sebastião do Uatumã",
        "state": "AM",
        "crop": "Mamão",
        "hectares": 8.0,
        "production": 8.0,
        "year": 2023,
        "region": "Norte",
        "ibge_code": "1303957"
      },
      "geometry": {
        "type": "Point",
        "coordinates": [
          -61.51498240889321,
          -4.780719239254255
        ]
      }
    },
    {
      "type": "Feature",
      "properties": {
        "municipality": "Tabatinga",
        "state": "AM",
        "crop": "Mamão",
        "hectares": 3.0,
        "production": 3.0,
        "year": 2023,
        "region": "Norte",
        "ibge_code": "1304062"
      },
      "geometry": {
        "type": "Point",
        "coordinates": [
          -61.89060642620482,
          -5.463229848391632
        ]
      }
    },
    {
      "type": "Feature",
      "properties": {
        "municipality": "Tapauá",
        "state": "AM",
        "crop": "Mamão",
        "hectares": 5.0,
        "production": 5.0,
        "year": 2023,
        "region": "Norte",
        "ibge_code": "1304104"
      },
      "geometry": {
        "type": "Point",
        "coordinates": [
          -61.26375099117262,
          -4.323738493599267
        ]
      }
    },
    {
      "type": "Feature",
      "properties": {
        "municipality": "Tonantins",
        "state": "AM",
        "crop": "Mamão",
        "hectares": 1.0,
        "production": 1.0,
        "year": 2023,
        "region": "Norte",
        "ibge_code": "1304237"
      },
      "geometry": {
        "type": "Point",
        "coordinates": [
          -61.800540921567375,
          -4.531623520651133
        ]
      }
    },
    {
      "type": "Feature",
      "properties": {
        "municipality": "Urucurituba",
        "state": "AM",
        "crop": "Mamão",
        "hectares": 8.0,
        "production": 8.0,
        "year": 2023,
        "region": "Norte",
        "ibge_code": "1304401"
      },
      "geometry": {
        "type": "Point",
        "coordinates": [
          -61.54438536195706,
          -5.177636594590044
        ]
      }
    },
    {
      "type": "Feature",
      "properties": {
        "municipality": "Amajari",
        "state": "RR",
        "crop": "Mamão",
        "hectares": 5.0,
        "production": 5.0,
        "year": 2023,
        "region": "Norte",
        "ibge_code": "1400027"
      },
      "geometry": {
        "type": "Point",
        "coordinates": [
          -61.8431152795287,
          3.364440856436163
        ]
      }
    },
    {
      "type": "Feature",
      "properties": {
        "municipality": "Alto Alegre",
        "state": "RR",
        "crop": "Mamão",
        "hectares": 22.0,
        "production": 22.0,
        "year": 2023,
        "region": "Norte",
        "ibge_code": "1400050"
      },
      "geometry": {
        "type": "Point",
        "coordinates": [
          -62.34111047300532,
          3.5838033765824266
        ]
      }
    },
    {
      "type": "Feature",
      "properties": {
        "municipality": "Boa Vista",
        "state": "RR",
        "crop": "Mamão",
        "hectares": 110.0,
        "production": 110.0,
        "year": 2023,
        "region": "Norte",
        "ibge_code": "1400100"
      },
      "geometry": {
        "type": "Point",
        "coordinates": [
          -62.384720478672236,
          2.150675757125021
        ]
      }
    },
    {
      "type": "Feature",
      "properties": {
        "municipality": "Cantá",
        "state": "RR",
        "crop": "Mamão",
        "hectares": 30.0,
        "production": 30.0,
        "year": 2023,
        "region": "Norte",
        "ibge_code": "1400175"
      },
      "geometry": {
        "type": "Point",
        "coordinates": [
          -61.442926879670615,
          2.5357162802759055
        ]
      }
    },
    {
      "type": "Feature",
      "properties": {
        "municipality": "Caracaraí",
        "state": "RR",
        "crop": "Mamão",
        "hectares": 10.0,
        "production": 10.0,
        "year": 2023,
        "region": "Norte",
        "ibge_code": "1400209"
      },
      "geometry": {
        "type": "Point",
        "coordinates": [
          -62.03386792043871,
          3.0683829872699473
        ]
      }
    },
    {
      "type": "Feature",
      "properties": {
        "municipality": "Caroebe",
        "state": "RR",
        "crop": "Mamão",
        "hectares": 5.0,
        "production": 5.0,
        "year": 2023,
        "region": "Norte",
        "ibge_code": "1400233"
      },
      "geometry": {
        "type": "Point",
        "coordinates": [
          -62.72621484291481,
          2.795896390900272
        ]
      }
    },
    {
      "type": "Feature",
      "properties": {
        "municipality": "Iracema",
        "state": "RR",
        "crop": "Mamão",
        "hectares": 2.0,
        "production": 2.0,
        "year": 2023,
        "region": "Norte",
        "ibge_code": "1400282"
      },
      "geometry": {
        "type": "Point",
        "coordinates": [
          -61.77209760296311,
          2.2440406181298265
        ]
      }
    },
    {
      "type": "Feature",
      "properties": {
        "municipality": "Mucajaí",
        "state": "RR",
        "crop": "Mamão",
        "hectares": 25.0,
        "production": 25.0,
        "year": 2023,
        "region": "Norte",
        "ibge_code": "1400308"
      },
      "geometry": {
        "type": "Point",
        "coordinates": [
          -61.499584785468755,
          3.097812867568348
        ]
      }
    },
    {
      "type": "Feature",
      "properties": {
        "municipality": "Pacaraima",
        "state": "RR",
        "crop": "Mamão",
        "hectares": 10.0,
        "production": 10.0,
        "year": 2023,
        "region": "Norte",
        "ibge_code": "1400456"
      },
      "geometry": {
        "type": "Point",
        "coordinates": [
          -62.138750766377065,
          2.455022410922658
        ]
      }
    },
    {
      "type": "Feature",
      "properties": {
        "municipality": "Rorainópolis",
        "state": "RR",
        "crop": "Mamão",
        "hectares": 8.0,
        "production": 8.0,
        "year": 2023,
        "region": "Norte",
        "ibge_code": "1400472"
      },
      "geometry": {
        "type": "Point",
        "coordinates": [
          -61.1344557879898,
          2.9792301969685298
        ]
      }
    },
    {
      "type": "Feature",
      "properties": {
        "municipality": "São João da Baliza",
        "state": "RR",
        "crop": "Mamão",
        "hectares": 3.0,
        "production": 3.0,
        "year": 2023,
        "region": "Norte",
        "ibge_code": "1400506"
      },
      "geometry": {
        "type": "Point",
        "coordinates": [
          -62.976621765346934,
          1.9665425235172518
        ]
      }
    },
    {
      "type": "Feature",
      "properties": {
        "municipality": "Uiramutã",
        "state": "RR",
        "crop": "Mamão",
        "hectares": 2.0,
        "production": 2.0,
        "year": 2023,
        "region": "Norte",
        "ibge_code": "1400704"
      },
      "geometry": {
        "type": "Point",
        "coordinates": [
          -61.838899367146624,
          2.1569619587417144
        ]
      }
    },
    {
      "type": "Feature",
      "properties": {
        "municipality": "Alenquer",
        "state": "PA",
        "crop": "Mamão",
        "hectares": 15.0,
        "production": 15.0,
        "year": 2023,
        "region": "Norte",
        "ibge_code": "1500404"
      },
      "geometry": {
        "type": "Point",
        "coordinates": [
          -52.39063875190689,
          -3.679611225503399
        ]
      }
    },
    {
      "type": "Feature",
      "properties": {
        "municipality": "Almeirim",
        "state": "PA",
        "crop": "Mamão",
        "hectares": 21.0,
        "production": 21.0,
        "year": 2023,
        "region": "Norte",
        "ibge_code": "1500503"
      },
      "geometry": {
        "type": "Point",
        "coordinates": [
          -52.06633462735893,
          -4.2875946606979305
        ]
      }
    },
    {
      "type": "Feature",
      "properties": {
        "municipality": "Altamira",
        "state": "PA",
        "crop": "Mamão",
        "hectares": 8.0,
        "production": 8.0,
        "year": 2023,
        "region": "Norte",
        "ibge_code": "1500602"
      },
      "geometry": {
        "type": "Point",
        "coordinates": [
          -52.35017657269312,
          -3.3428432995326123
        ]
      }
    },
    {
      "type": "Feature",
      "properties": {
        "municipality": "Barcarena",
        "state": "PA",
        "crop": "Mamão",
        "hectares": 20.0,
        "production": 20.0,
        "year": 2023,
        "region": "Norte",
        "ibge_code": "1501303"
      },
      "geometry": {
        "type": "Point",
        "coordinates": [
          -51.97537821166217,
          -3.4217981004219293
        ]
      }
    },
    {
      "type": "Feature",
      "properties": {
        "municipality": "Brasil Novo",
        "state": "PA",
        "crop": "Mamão",
        "hectares": 15.0,
        "production": 15.0,
        "year": 2023,
        "region": "Norte",
        "ibge_code": "1501725"
      },
      "geometry": {
        "type": "Point",
        "coordinates": [
          -53.26105411318223,
          -3.0830437091043796
        ]
      }
    },
    {
      "type": "Feature",
      "properties": {
        "municipality": "Breu Branco",
        "state": "PA",
        "crop": "Mamão",
        "hectares": 22.0,
        "production": 22.0,
        "year": 2023,
        "region": "Norte",
        "ibge_code": "1501782"
      },
      "geometry": {
        "type": "Point",
        "coordinates": [
          -52.230490595459486,
          -3.403120362076355
        ]
      }
    },
    {
      "type": "Feature",
      "properties": {
        "municipality": "Canaã dos Carajás",
        "state": "PA",
        "crop": "Mamão",
        "hectares": 20.0,
        "production": 20.0,
        "year": 2023,
        "region": "Norte",
        "ibge_code": "1502152"
      },
      "geometry": {
        "type": "Point",
        "coordinates": [
          -52.80719026467396,
          -3.69587377581997
        ]
      }
    },
    {
      "type": "Feature",
      "properties": {
        "municipality": "Capanema",
        "state": "PA",
        "crop": "Mamão",
        "hectares": 8.0,
        "production": 8.0,
        "year": 2023,
        "region": "Norte",
        "ibge_code": "1502202"
      },
      "geometry": {
        "type": "Point",
        "coordinates": [
          -52.97980372418071,
          -2.8319318192983087
        ]
      }
    },
    {
      "type": "Feature",
      "properties": {
        "municipality": "Castanhal",
        "state": "PA",
        "crop": "Mamão",
        "hectares": 20.0,
        "production": 20.0,
        "year": 2023,
        "region": "Norte",
        "ibge_code": "1502400"
      },
      "geometry": {
        "type": "Point",
        "coordinates": [
          -51.59915240796179,
          -4.611658031666888
        ]
      }
    },
    {
      "type": "Feature",
      "properties": {
        "municipality": "Concórdia do Pará",
        "state": "PA",
        "crop": "Mamão",
        "hectares": 15.0,
        "production": 15.0,
        "year": 2023,
        "region": "Norte",
        "ibge_code": "1502756"
      },
      "geometry": {
        "type": "Point",
        "coordinates": [
          -52.01330238938425,
          -3.6791231810444742
        ]
      }
    },
    {
      "type": "Feature",
      "properties": {
        "municipality": "Cumaru do Norte",
        "state": "PA",
        "crop": "Mamão",
        "hectares": 12.0,
        "production": 12.0,
        "year": 2023,
        "region": "Norte",
        "ibge_code": "1502764"
      },
      "geometry": {
        "type": "Point",
        "coordinates": [
          -52.1772400442915,
          -3.6053920594176097
        ]
      }
    },
    {
      "type": "Feature",
      "properties": {
        "municipality": "Curuçá",
        "state": "PA",
        "crop": "Mamão",
        "hectares": 40.0,
        "production": 40.0,
        "year": 2023,
        "region": "Norte",
        "ibge_code": "1502905"
      },
      "geometry": {
        "type": "Point",
        "coordinates": [
          -52.877190046261624,
          -4.348427837313711
        ]
      }
    },
    {
      "type": "Feature",
      "properties": {
        "municipality": "Gurupá",
        "state": "PA",
        "crop": "Mamão",
        "hectares": 27.0,
        "production": 27.0,
        "year": 2023,
        "region": "Norte",
        "ibge_code": "1503101"
      },
      "geometry": {
        "type": "Point",
        "coordinates": [
          -51.96973112964595,
          -4.384845490766613
        ]
      }
    },
    {
      "type": "Feature",
      "properties": {
        "municipality": "Igarapé-Açu",
        "state": "PA",
        "crop": "Mamão",
        "hectares": 100.0,
        "production": 100.0,
        "year": 2023,
        "region": "Norte",
        "ibge_code": "1503200"
      },
      "geometry": {
        "type": "Point",
        "coordinates": [
          -52.5324917613051,
          -3.7542416376115364
        ]
      }
    },
    {
      "type": "Feature",
      "properties": {
        "municipality": "Inhangapi",
        "state": "PA",
        "crop": "Mamão",
        "hectares": 10.0,
        "production": 10.0,
        "year": 2023,
        "region": "Norte",
        "ibge_code": "1503408"
      },
      "geometry": {
        "type": "Point",
        "coordinates": [
          -51.9853682465155,
          -3.395124982227255
        ]
      }
    },
    {
      "type": "Feature",
      "properties": {
        "municipality": "Itaituba",
        "state": "PA",
        "crop": "Mamão",
        "hectares": 5.0,
        "production": 5.0,
        "year": 2023,
        "region": "Norte",
        "ibge_code": "1503606"
      },
      "geometry": {
        "type": "Point",
        "coordinates": [
          -51.84811027495047,
          -2.9321150601668453
        ]
      }
    },
    {
      "type": "Feature",
      "properties": {
        "municipality": "Itupiranga",
        "state": "PA",
        "crop": "Mamão",
        "hectares": 3.0,
        "production": 3.0,
        "year": 2023,
        "region": "Norte",
        "ibge_code": "1503705"
      },
      "geometry": {
        "type": "Point",
        "coordinates": [
          -51.85956574919465,
          -4.365653795840394
        ]
      }
    },
    {
      "type": "Feature",
      "properties": {
        "municipality": "Marabá",
        "state": "PA",
        "crop": "Mamão",
        "hectares": 20.0,
        "production": 20.0,
        "year": 2023,
        "region": "Norte",
        "ibge_code": "1504208"
      },
      "geometry": {
        "type": "Point",
        "coordinates": [
          -51.64645369203947,
          -3.7997607020460635
        ]
      }
    },
    {
      "type": "Feature",
      "properties": {
        "municipality": "Maracanã",
        "state": "PA",
        "crop": "Mamão",
        "hectares": 25.0,
        "production": 25.0,
        "year": 2023,
        "region": "Norte",
        "ibge_code": "1504307"
      },
      "geometry": {
        "type": "Point",
        "coordinates": [
          -51.577034352288194,
          -4.290657924063412
        ]
      }
    },
    {
      "type": "Feature",
      "properties": {
        "municipality": "Marapanim",
        "state": "PA",
        "crop": "Mamão",
        "hectares": 20.0,
        "production": 20.0,
        "year": 2023,
        "region": "Norte",
        "ibge_code": "1504406"
      },
      "geometry": {
        "type": "Point",
        "coordinates": [
          -51.48835511859021,
          -3.919474192837907
        ]
      }
    },
    {
      "type": "Feature",
      "properties": {
        "municipality": "Medicilândia",
        "state": "PA",
        "crop": "Mamão",
        "hectares": 12.0,
        "production": 12.0,
        "year": 2023,
        "region": "Norte",
        "ibge_code": "1504455"
      },
      "geometry": {
        "type": "Point",
        "coordinates": [
          -53.24584206117708,
          -3.3954749754700404
        ]
      }
    },
    {
      "type": "Feature",
      "properties": {
        "municipality": "Moju",
        "state": "PA",
        "crop": "Mamão",
        "hectares": 50.0,
        "production": 50.0,
        "year": 2023,
        "region": "Norte",
        "ibge_code": "1504703"
      },
      "geometry": {
        "type": "Point",
        "coordinates": [
          -52.387524573226976,
          -3.9963325059246735
        ]
      }
    },
    {
      "type": "Feature",
      "properties": {
        "municipality": "Mojuí dos Campos",
        "state": "PA",
        "crop": "Mamão",
        "hectares": 25.0,
        "production": 25.0,
        "year": 2023,
        "region": "Norte",
        "ibge_code": "1504752"
      },
      "geometry": {
        "type": "Point",
        "coordinates": [
          -51.83976401325876,
          -4.308630562748136
        ]
      }
    },
    {
      "type": "Feature",
      "properties": {
        "municipality": "Monte Alegre",
        "state": "PA",
        "crop": "Mamão",
        "hectares": 30.0,
        "production": 30.0,
        "year": 2023,
        "region": "Norte",
        "ibge_code": "1504802"
      },
      "geometry": {
        "type": "Point",
        "coordinates": [
          -53.0767883117854,
          -3.3428924084353797
        ]
      }
    },
    {
      "type": "Feature",
      "properties": {
        "municipality": "Nova Timboteua",
        "state": "PA",
        "crop": "Mamão",
        "hectares": 25.0,
        "production": 25.0,
        "year": 2023,
        "region": "Norte",
        "ibge_code": "1505007"
      },
      "geometry": {
        "type": "Point",
        "coordinates": [
          -51.592656639884595,
          -2.756629916679742
        ]
      }
    },
    {
      "type": "Feature",
      "properties": {
        "municipality": "Novo Progresso",
        "state": "PA",
        "crop": "Mamão",
        "hectares": 3.0,
        "production": 3.0,
        "year": 2023,
        "region": "Norte",
        "ibge_code": "1505031"
      },
      "geometry": {
        "type": "Point",
        "coordinates": [
          -51.65695353186815,
          -3.4786588363896054
        ]
      }
    },
    {
      "type": "Feature",
      "properties": {
        "municipality": "Óbidos",
        "state": "PA",
        "crop": "Mamão",
        "hectares": 5.0,
        "production": 5.0,
        "year": 2023,
        "region": "Norte",
        "ibge_code": "1505106"
      },
      "geometry": {
        "type": "Point",
        "coordinates": [
          -51.561440603180586,
          -2.9438472690194444
        ]
      }
    },
    {
      "type": "Feature",
      "properties": {
        "municipality": "Ourém",
        "state": "PA",
        "crop": "Mamão",
        "hectares": 15.0,
        "production": 15.0,
        "year": 2023,
        "region": "Norte",
        "ibge_code": "1505403"
      },
      "geometry": {
        "type": "Point",
        "coordinates": [
          -52.49213866879741,
          -3.9889544501718497
        ]
      }
    },
    {
      "type": "Feature",
      "properties": {
        "municipality": "Paragominas",
        "state": "PA",
        "crop": "Mamão",
        "hectares": 19.0,
        "production": 19.0,
        "year": 2023,
        "region": "Norte",
        "ibge_code": "1505502"
      },
      "geometry": {
        "type": "Point",
        "coordinates": [
          -52.47650420295389,
          -4.493659525833589
        ]
      }
    },
    {
      "type": "Feature",
      "properties": {
        "municipality": "Parauapebas",
        "state": "PA",
        "crop": "Mamão",
        "hectares": 75.0,
        "production": 75.0,
        "year": 2023,
        "region": "Norte",
        "ibge_code": "1505536"
      },
      "geometry": {
        "type": "Point",
        "coordinates": [
          -51.761137357454864,
          -3.2988525295016515
        ]
      }
    },
    {
      "type": "Feature",
      "properties": {
        "municipality": "Peixe-Boi",
        "state": "PA",
        "crop": "Mamão",
        "hectares": 5.0,
        "production": 5.0,
        "year": 2023,
        "region": "Norte",
        "ibge_code": "1505601"
      },
      "geometry": {
        "type": "Point",
        "coordinates": [
          -52.00196516762357,
          -3.2459183227027775
        ]
      }
    },
    {
      "type": "Feature",
      "properties": {
        "municipality": "Porto de Moz",
        "state": "PA",
        "crop": "Mamão",
        "hectares": 6.0,
        "production": 6.0,
        "year": 2023,
        "region": "Norte",
        "ibge_code": "1505908"
      },
      "geometry": {
        "type": "Point",
        "coordinates": [
          -53.12246581835773,
          -3.599622146188791
        ]
      }
    },
    {
      "type": "Feature",
      "properties": {
        "municipality": "Prainha",
        "state": "PA",
        "crop": "Mamão",
        "hectares": 12.0,
        "production": 12.0,
        "year": 2023,
        "region": "Norte",
        "ibge_code": "1506005"
      },
      "geometry": {
        "type": "Point",
        "coordinates": [
          -52.48439087495176,
          -4.359864713765683
        ]
      }
    },
    {
      "type": "Feature",
      "properties": {
        "municipality": "Primavera",
        "state": "PA",
        "crop": "Mamão",
        "hectares": 3.0,
        "production": 3.0,
        "year": 2023,
        "region": "Norte",
        "ibge_code": "1506104"
      },
      "geometry": {
        "type": "Point",
        "coordinates": [
          -52.19645957803804,
          -3.3470461721052946
        ]
      }
    },
    {
      "type": "Feature",
      "properties": {
        "municipality": "Redenção",
        "state": "PA",
        "crop": "Mamão",
        "hectares": 35.0,
        "production": 35.0,
        "year": 2023,
        "region": "Norte",
        "ibge_code": "1506138"
      },
      "geometry": {
        "type": "Point",
        "coordinates": [
          -52.74564200554793,
          -2.8798412294877753
        ]
      }
    },
    {
      "type": "Feature",
      "properties": {
        "municipality": "Santa Izabel do Pará",
        "state": "PA",
        "crop": "Mamão",
        "hectares": 10.0,
        "production": 10.0,
        "year": 2023,
        "region": "Norte",
        "ibge_code": "1506500"
      },
      "geometry": {
        "type": "Point",
        "coordinates": [
          -52.72165136754407,
          -2.759642764466747
        ]
      }
    },
    {
      "type": "Feature",
      "properties": {
        "municipality": "Santarém",
        "state": "PA",
        "crop": "Mamão",
        "hectares": 20.0,
        "production": 20.0,
        "year": 2023,
        "region": "Norte",
        "ibge_code": "1506807"
      },
      "geometry": {
        "type": "Point",
        "coordinates": [
          -53.25557114812373,
          -3.6502389890628244
        ]
      }
    },
    {
      "type": "Feature",
      "properties": {
        "municipality": "Santarém Novo",
        "state": "PA",
        "crop": "Mamão",
        "hectares": 5.0,
        "production": 5.0,
        "year": 2023,
        "region": "Norte",
        "ibge_code": "1506906"
      },
      "geometry": {
        "type": "Point",
        "coordinates": [
          -52.543245990971954,
          -4.42066148979174
        ]
      }
    },
    {
      "type": "Feature",
      "properties": {
        "municipality": "Santo Antônio do Tauá",
        "state": "PA",
        "crop": "Mamão",
        "hectares": 200.0,
        "production": 200.0,
        "year": 2023,
        "region": "Norte",
        "ibge_code": "1507003"
      },
      "geometry": {
        "type": "Point",
        "coordinates": [
          -52.069074480620415,
          -4.322369164586477
        ]
      }
    },
    {
      "type": "Feature",
      "properties": {
        "municipality": "São João da Ponta",
        "state": "PA",
        "crop": "Mamão",
        "hectares": 3.0,
        "production": 3.0,
        "year": 2023,
        "region": "Norte",
        "ibge_code": "1507466"
      },
      "geometry": {
        "type": "Point",
        "coordinates": [
          -52.85437271284029,
          -3.965327625504477
        ]
      }
    },
    {
      "type": "Feature",
      "properties": {
        "municipality": "São João do Araguaia",
        "state": "PA",
        "crop": "Mamão",
        "hectares": 7.0,
        "production": 7.0,
        "year": 2023,
        "region": "Norte",
        "ibge_code": "1507508"
      },
      "geometry": {
        "type": "Point",
        "coordinates": [
          -53.24956584870191,
          -4.662679935446753
        ]
      }
    },
    {
      "type": "Feature",
      "properties": {
        "municipality": "Tailândia",
        "state": "PA",
        "crop": "Mamão",
        "hectares": 50.0,
        "production": 50.0,
        "year": 2023,
        "region": "Norte",
        "ibge_code": "1507953"
      },
      "geometry": {
        "type": "Point",
        "coordinates": [
          -52.08640200397083,
          -2.9183917480072203
        ]
      }
    },
    {
      "type": "Feature",
      "properties": {
        "municipality": "Vitória do Xingu",
        "state": "PA",
        "crop": "Mamão",
        "hectares": 10.0,
        "production": 10.0,
        "year": 2023,
        "region": "Norte",
        "ibge_code": "1508357"
      },
      "geometry": {
        "type": "Point",
        "coordinates": [
          -51.755855901251714,
          -3.9329163905248743
        ]
      }
    },
    {
      "type": "Feature",
      "properties": {
        "municipality": "Amapá",
        "state": "AP",
        "crop": "Mamão",
        "hectares": 25.0,
        "production": 25.0,
        "year": 2023,
        "region": "Norte",
        "ibge_code": "1600105"
      },
      "geometry": {
        "type": "Point",
        "coordinates": [
          -52.68882092251334,
          0.7247927612205398
        ]
      }
    },
    {
      "type": "Feature",
      "properties": {
        "municipality": "Macapá",
        "state": "AP",
        "crop": "Mamão",
        "hectares": 20.0,
        "production": 20.0,
        "year": 2023,
        "region": "Norte",
        "ibge_code": "1600303"
      },
      "geometry": {
        "type": "Point",
        "coordinates": [
          -51.00548886846444,
          0.814000161936117
        ]
      }
    },
    {
      "type": "Feature",
      "properties": {
        "municipality": "Oiapoque",
        "state": "AP",
        "crop": "Mamão",
        "hectares": 10.0,
        "production": 10.0,
        "year": 2023,
        "region": "Norte",
        "ibge_code": "1600501"
      },
      "geometry": {
        "type": "Point",
        "coordinates": [
          -52.254152553854915,
          1.4094731375172047
        ]
      }
    },
    {
      "type": "Feature",
      "properties": {
        "municipality": "Porto Grande",
        "state": "AP",
        "crop": "Mamão",
        "hectares": 15.0,
        "production": 15.0,
        "year": 2023,
        "region": "Norte",
        "ibge_code": "1600535"
      },
      "geometry": {
        "type": "Point",
        "coordinates": [
          -51.458100945484624,
          1.5812725408154198
        ]
      }
    },
    {
      "type": "Feature",
      "properties": {
        "municipality": "Aragominas",
        "state": "TO",
        "crop": "Mamão",
        "hectares": 2.0,
        "production": 2.0,
        "year": 2023,
        "region": "Norte",
        "ibge_code": "1701309"
      },
      "geometry": {
        "type": "Point",
        "coordinates": [
          -47.53362562632208,
          -11.10722501192528
        ]
      }
    },
    {
      "type": "Feature",
      "properties": {
        "municipality": "Araguatins",
        "state": "TO",
        "crop": "Mamão",
        "hectares": 3.0,
        "production": 3.0,
        "year": 2023,
        "region": "Norte",
        "ibge_code": "1702208"
      },
      "geometry": {
        "type": "Point",
        "coordinates": [
          -49.20052092251334,
          -10.86490723877946
        ]
      }
    },
    {
      "type": "Feature",
      "properties": {
        "municipality": "Augustinópolis",
        "state": "TO",
        "crop": "Mamão",
        "hectares": 3.0,
        "production": 3.0,
        "year": 2023,
        "region": "Norte",
        "ibge_code": "1702554"
      },
      "geometry": {
        "type": "Point",
        "coordinates": [
          -48.13562013921844,
          -10.682336080661283
        ]
      }
    },
    {
      "type": "Feature",
      "properties": {
        "municipality": "Carrasco Bonito",
        "state": "TO",
        "crop": "Mamão",
        "hectares": 2.0,
        "production": 2.0,
        "year": 2023,
        "region": "Norte",
        "ibge_code": "1703891"
      },
      "geometry": {
        "type": "Point",
        "coordinates": [
          -48.093360581409726,
          -10.66760436636211
        ]
      }
    },
    {
      "type": "Feature",
      "properties": {
        "municipality": "Colinas do Tocantins",
        "state": "TO",
        "crop": "Mamão",
        "hectares": 2.0,
        "production": 2.0,
        "year": 2023,
        "region": "Norte",
        "ibge_code": "1705508"
      },
      "geometry": {
        "type": "Point",
        "coordinates": [
          -47.34155089391452,
          -9.779877897813636
        ]
      }
    },
    {
      "type": "Feature",
      "properties": {
        "municipality": "Itaguatins",
        "state": "TO",
        "crop": "Mamão",
        "hectares": 2.0,
        "production": 2.0,
        "year": 2023,
        "region": "Norte",
        "ibge_code": "1710706"
      },
      "geometry": {
        "type": "Point",
        "coordinates": [
          -47.33652753350399,
          -10.584088143699747
        ]
      }
    },
    {
      "type": "Feature",
      "properties": {
        "municipality": "Itapiratins",
        "state": "TO",
        "crop": "Mamão",
        "hectares": 1.0,
        "production": 1.0,
        "year": 2023,
        "region": "Norte",
        "ibge_code": "1710904"
      },
      "geometry": {
        "type": "Point",
        "coordinates": [
          -47.31321953934971,
          -9.635197304082169
        ]
      }
    },
    {
      "type": "Feature",
      "properties": {
        "municipality": "Nova Olinda",
        "state": "TO",
        "crop": "Mamão",
        "hectares": 1.0,
        "production": 1.0,
        "year": 2023,
        "region": "Norte",
        "ibge_code": "1714880"
      },
      "geometry": {
        "type": "Point",
        "coordinates": [
          -48.73041058307983,
          -10.290408333619416
        ]
      }
    },
    {
      "type": "Feature",
      "properties": {
        "municipality": "Porto Nacional",
        "state": "TO",
        "crop": "Mamão",
        "hectares": 14.0,
        "production": 14.0,
        "year": 2023,
        "region": "Norte",
        "ibge_code": "1718204"
      },
      "geometry": {
        "type": "Point",
        "coordinates": [
          -47.396932870873115,
          -10.9946202914613
        ]
      }
    },
    {
      "type": "Feature",
      "properties": {
        "municipality": "Sítio Novo do Tocantins",
        "state": "TO",
        "crop": "Mamão",
        "hectares": 2.0,
        "production": 2.0,
        "year": 2023,
        "region": "Norte",
        "ibge_code": "1720804"
      },
      "geometry": {
        "type": "Point",
        "coordinates": [
          -49.21745402393395,
          -9.549556707700297
        ]
      }
    },
    {
      "type": "Feature",
      "properties": {
        "municipality": "Amarante do Maranhão",
        "state": "MA",
        "crop": "Mamão",
        "hectares": 1.0,
        "production": 1.0,
        "year": 2023,
        "region": "Nordeste",
        "ibge_code": "2100600"
      },
      "geometry": {
        "type": "Point",
        "coordinates": [
          -46.038444911454214,
          -5.400148140915154
        ]
      }
    },
    {
      "type": "Feature",
      "properties": {
        "municipality": "Dom Pedro",
        "state": "MA",
        "crop": "Mamão",
        "hectares": 102.0,
        "production": 102.0,
        "year": 2023,
        "region": "Nordeste",
        "ibge_code": "2103802"
      },
      "geometry": {
        "type": "Point",
        "coordinates": [
          -44.37718844401365,
          -4.11116949674811
        ]
      }
    },
    {
      "type": "Feature",
      "properties": {
        "municipality": "Governador Edison Lobão",
        "state": "MA",
        "crop": "Mamão",
        "hectares": 4.0,
        "production": 4.0,
        "year": 2023,
        "region": "Nordeste",
        "ibge_code": "2104552"
      },
      "geometry": {
        "type": "Point",
        "coordinates": [
          -44.85225788701966,
          -4.662101103516406
        ]
      }
    },
    {
      "type": "Feature",
      "properties": {
        "municipality": "Grajaú",
        "state": "MA",
        "crop": "Mamão",
        "hectares": 3.0,
        "production": 3.0,
        "year": 2023,
        "region": "Nordeste",
        "ibge_code": "2104800"
      },
      "geometry": {
        "type": "Point",
        "coordinates": [
          -45.17373386194669,
          -4.924479860267583
        ]
      }
    },
    {
      "type": "Feature",
      "properties": {
        "municipality": "Lajeado Novo",
        "state": "MA",
        "crop": "Mamão",
        "hectares": 1.0,
        "production": 1.0,
        "year": 2023,
        "region": "Nordeste",
        "ibge_code": "2105989"
      },
      "geometry": {
        "type": "Point",
        "coordinates": [
          -45.223776404055634,
          -5.138860743309673
        ]
      }
    },
    {
      "type": "Feature",
      "properties": {
        "municipality": "Porto Franco",
        "state": "MA",
        "crop": "Mamão",
        "hectares": 3.0,
        "production": 3.0,
        "year": 2023,
        "region": "Nordeste",
        "ibge_code": "2109007"
      },
      "geometry": {
        "type": "Point",
        "coordinates": [
          -44.75063097548234,
          -5.749481599477188
        ]
      }
    },
    {
      "type": "Feature",
      "properties": {
        "municipality": "Ribamar Fiquene",
        "state": "MA",
        "crop": "Mamão",
        "hectares": 3.0,
        "production": 3.0,
        "year": 2023,
        "region": "Nordeste",
        "ibge_code": "2109551"
      },
      "geometry": {
        "type": "Point",
        "coordinates": [
          -46.23183258835876,
          -4.447642241292965
        ]
      }
    },
    {
      "type": "Feature",
      "properties": {
        "municipality": "Guadalupe",
        "state": "PI",
        "crop": "Mamão",
        "hectares": 25.0,
        "production": 25.0,
        "year": 2023,
        "region": "Nordeste",
        "ibge_code": "2204501"
      },
      "geometry": {
        "type": "Point",
        "coordinates": [
          -42.132010274950474,
          -7.777015060166845
        ]
      }
    },
    {
      "type": "Feature",
      "properties": {
        "municipality": "Parnaíba",
        "state": "PI",
        "crop": "Mamão",
        "hectares": 3.0,
        "production": 3.0,
        "year": 2023,
        "region": "Nordeste",
        "ibge_code": "2207702"
      },
      "geometry": {
        "type": "Point",
        "coordinates": [
          -42.63801918443553,
          -9.477774047219935
        ]
      }
    },
    {
      "type": "Feature",
      "properties": {
        "municipality": "Picos",
        "state": "PI",
        "crop": "Mamão",
        "hectares": 5.0,
        "production": 5.0,
        "year": 2023,
        "region": "Nordeste",
        "ibge_code": "2208007"
      },
      "geometry": {
        "type": "Point",
        "coordinates": [
          -43.003720732381645,
          -8.884514282600856
        ]
      }
    },
    {
      "type": "Feature",
      "properties": {
        "municipality": "Abaiara",
        "state": "CE",
        "crop": "Mamão",
        "hectares": 1.0,
        "production": 1.0,
        "year": 2023,
        "region": "Nordeste",
        "ibge_code": "2300101"
      },
      "geometry": {
        "type": "Point",
        "coordinates": [
          -38.73466355637029,
          -4.96766769978391
        ]
      }
    },
    {
      "type": "Feature",
      "properties": {
        "municipality": "Acaraú",
        "state": "CE",
        "crop": "Mamão",
        "hectares": 79.0,
        "production": 79.0,
        "year": 2023,
        "region": "Nordeste",
        "ibge_code": "2300200"
      },
      "geometry": {
        "type": "Point",
        "coordinates": [
          -39.91509473530818,
          -5.003817467553433
        ]
      }
    },
    {
      "type": "Feature",
      "properties": {
        "municipality": "Alcântaras",
        "state": "CE",
        "crop": "Mamão",
        "hectares": 4.0,
        "production": 4.0,
        "year": 2023,
        "region": "Nordeste",
        "ibge_code": "2300507"
      },
      "geometry": {
        "type": "Point",
        "coordinates": [
          -39.46522860193161,
          -5.503027181569804
        ]
      }
    },
    {
      "type": "Feature",
      "properties": {
        "municipality": "Apuiarés",
        "state": "CE",
        "crop": "Mamão",
        "hectares": 14.0,
        "production": 14.0,
        "year": 2023,
        "region": "Nordeste",
        "ibge_code": "2300903"
      },
      "geometry": {
        "type": "Point",
        "coordinates": [
          -39.64535744996065,
          -5.3682108083228846
        ]
      }
    },
    {
      "type": "Feature",
      "properties": {
        "municipality": "Aquiraz",
        "state": "CE",
        "crop": "Mamão",
        "hectares": 8.0,
        "production": 8.0,
        "year": 2023,
        "region": "Nordeste",
        "ibge_code": "2301000"
      },
      "geometry": {
        "type": "Point",
        "coordinates": [
          -39.2929667953935,
          -4.978077043380451
        ]
      }
    },
    {
      "type": "Feature",
      "properties": {
        "municipality": "Aracati",
        "state": "CE",
        "crop": "Mamão",
        "hectares": 20.0,
        "production": 20.0,
        "year": 2023,
        "region": "Nordeste",
        "ibge_code": "2301109"
      },
      "geometry": {
        "type": "Point",
        "coordinates": [
          -40.226784606941216,
          -5.101125630193709
        ]
      }
    },
    {
      "type": "Feature",
      "properties": {
        "municipality": "Aracoiaba",
        "state": "CE",
        "crop": "Mamão",
        "hectares": 10.0,
        "production": 10.0,
        "year": 2023,
        "region": "Nordeste",
        "ibge_code": "2301208"
      },
      "geometry": {
        "type": "Point",
        "coordinates": [
          -38.69263710114393,
          -4.751331092532188
        ]
      }
    },
    {
      "type": "Feature",
      "properties": {
        "municipality": "Assaré",
        "state": "CE",
        "crop": "Mamão",
        "hectares": 4.0,
        "production": 4.0,
        "year": 2023,
        "region": "Nordeste",
        "ibge_code": "2301604"
      },
      "geometry": {
        "type": "Point",
        "coordinates": [
          -39.2072165397052,
          -5.509425128041131
        ]
      }
    },
    {
      "type": "Feature",
      "properties": {
        "municipality": "Aurora",
        "state": "CE",
        "crop": "Mamão",
        "hectares": 3.0,
        "production": 3.0,
        "year": 2023,
        "region": "Nordeste",
        "ibge_code": "2301703"
      },
      "geometry": {
        "type": "Point",
        "coordinates": [
          -38.79505063154067,
          -4.835010500859198
        ]
      }
    },
    {
      "type": "Feature",
      "properties": {
        "municipality": "Barbalha",
        "state": "CE",
        "crop": "Mamão",
        "hectares": 15.0,
        "production": 15.0,
        "year": 2023,
        "region": "Nordeste",
        "ibge_code": "2301901"
      },
      "geometry": {
        "type": "Point",
        "coordinates": [
          -39.429407653309575,
          -6.039731820996939
        ]
      }
    },
    {
      "type": "Feature",
      "properties": {
        "municipality": "Barro",
        "state": "CE",
        "crop": "Mamão",
        "hectares": 2.0,
        "production": 2.0,
        "year": 2023,
        "region": "Nordeste",
        "ibge_code": "2302008"
      },
      "geometry": {
        "type": "Point",
        "coordinates": [
          -38.54827016393726,
          -5.374814485844609
        ]
      }
    },
    {
      "type": "Feature",
      "properties": {
        "municipality": "Bela Cruz",
        "state": "CE",
        "crop": "Mamão",
        "hectares": 8.0,
        "production": 8.0,
        "year": 2023,
        "region": "Nordeste",
        "ibge_code": "2302305"
      },
      "geometry": {
        "type": "Point",
        "coordinates": [
          -38.38742538291511,
          -5.001994928243528
        ]
      }
    },
    {
      "type": "Feature",
      "properties": {
        "municipality": "Boa Viagem",
        "state": "CE",
        "crop": "Mamão",
        "hectares": 3.0,
        "production": 3.0,
        "year": 2023,
        "region": "Nordeste",
        "ibge_code": "2302404"
      },
      "geometry": {
        "type": "Point",
        "coordinates": [
          -40.07511024931068,
          -4.700215321254589
        ]
      }
    },
    {
      "type": "Feature",
      "properties": {
        "municipality": "Brejo Santo",
        "state": "CE",
        "crop": "Mamão",
        "hectares": 12.0,
        "production": 12.0,
        "year": 2023,
        "region": "Nordeste",
        "ibge_code": "2302503"
      },
      "geometry": {
        "type": "Point",
        "coordinates": [
          -39.89289680335442,
          -6.462805043332061
        ]
      }
    },
    {
      "type": "Feature",
      "properties": {
        "municipality": "Camocim",
        "state": "CE",
        "crop": "Mamão",
        "hectares": 8.0,
        "production": 8.0,
        "year": 2023,
        "region": "Nordeste",
        "ibge_code": "2302602"
      },
      "geometry": {
        "type": "Point",
        "coordinates": [
          -40.14074120467018,
          -4.906671262479917
        ]
      }
    },
    {
      "type": "Feature",
      "properties": {
        "municipality": "Canindé",
        "state": "CE",
        "crop": "Mamão",
        "hectares": 5.0,
        "production": 5.0,
        "year": 2023,
        "region": "Nordeste",
        "ibge_code": "2302800"
      },
      "geometry": {
        "type": "Point",
        "coordinates": [
          -39.909152002037835,
          -5.336885670132087
        ]
      }
    },
    {
      "type": "Feature",
      "properties": {
        "municipality": "Caridade",
        "state": "CE",
        "crop": "Mamão",
        "hectares": 3.0,
        "production": 3.0,
        "year": 2023,
        "region": "Nordeste",
        "ibge_code": "2303006"
      },
      "geometry": {
        "type": "Point",
        "coordinates": [
          -40.307616070783475,
          -5.4807912394950264
        ]
      }
    },
    {
      "type": "Feature",
      "properties": {
        "municipality": "Cariré",
        "state": "CE",
        "crop": "Mamão",
        "hectares": 75.0,
        "production": 75.0,
        "year": 2023,
        "region": "Nordeste",
        "ibge_code": "2303105"
      },
      "geometry": {
        "type": "Point",
        "coordinates": [
          -38.94106615156486,
          -6.168501040333604
        ]
      }
    },
    {
      "type": "Feature",
      "properties": {
        "municipality": "Caririaçu",
        "state": "CE",
        "crop": "Mamão",
        "hectares": 3.0,
        "production": 3.0,
        "year": 2023,
        "region": "Nordeste",
        "ibge_code": "2303204"
      },
      "geometry": {
        "type": "Point",
        "coordinates": [
          -40.0636654501673,
          -6.413305885597737
        ]
      }
    },
    {
      "type": "Feature",
      "properties": {
        "municipality": "Carnaubal",
        "state": "CE",
        "crop": "Mamão",
        "hectares": 5.0,
        "production": 5.0,
        "year": 2023,
        "region": "Nordeste",
        "ibge_code": "2303402"
      },
      "geometry": {
        "type": "Point",
        "coordinates": [
          -39.31631911275053,
          -5.938769052854024
        ]
      }
    },
    {
      "type": "Feature",
      "properties": {
        "municipality": "Choró",
        "state": "CE",
        "crop": "Mamão",
        "hectares": 5.0,
        "production": 5.0,
        "year": 2023,
        "region": "Nordeste",
        "ibge_code": "2303931"
      },
      "geometry": {
        "type": "Point",
        "coordinates": [
          -40.13521315630334,
          -6.091059105157897
        ]
      }
    },
    {
      "type": "Feature",
      "properties": {
        "municipality": "Chorozinho",
        "state": "CE",
        "crop": "Mamão",
        "hectares": 7.0,
        "production": 7.0,
        "year": 2023,
        "region": "Nordeste",
        "ibge_code": "2303956"
      },
      "geometry": {
        "type": "Point",
        "coordinates": [
          -38.48235724287319,
          -4.695553596741577
        ]
      }
    },
    {
      "type": "Feature",
      "properties": {
        "municipality": "Coreaú",
        "state": "CE",
        "crop": "Mamão",
        "hectares": 7.0,
        "production": 7.0,
        "year": 2023,
        "region": "Nordeste",
        "ibge_code": "2304004"
      },
      "geometry": {
        "type": "Point",
        "coordinates": [
          -38.66474573378772,
          -5.014165445126448
        ]
      }
    },
    {
      "type": "Feature",
      "properties": {
        "municipality": "Crato",
        "state": "CE",
        "crop": "Mamão",
        "hectares": 6.0,
        "production": 6.0,
        "year": 2023,
        "region": "Nordeste",
        "ibge_code": "2304202"
      },
      "geometry": {
        "type": "Point",
        "coordinates": [
          -39.219310200990265,
          -5.40110882612946
        ]
      }
    },
    {
      "type": "Feature",
      "properties": {
        "municipality": "Croatá",
        "state": "CE",
        "crop": "Mamão",
        "hectares": 10.0,
        "production": 10.0,
        "year": 2023,
        "region": "Nordeste",
        "ibge_code": "2304236"
      },
      "geometry": {
        "type": "Point",
        "coordinates": [
          -39.32188321195784,
          -5.004120149284881
        ]
      }
    },
    {
      "type": "Feature",
      "properties": {
        "municipality": "Eusébio",
        "state": "CE",
        "crop": "Mamão",
        "hectares": 1.0,
        "production": 1.0,
        "year": 2023,
        "region": "Nordeste",
        "ibge_code": "2304285"
      },
      "geometry": {
        "type": "Point",
        "coordinates": [
          -38.54827016393726,
          -5.374814485844609
        ]
      }
    },
    {
      "type": "Feature",
      "properties": {
        "municipality": "Farias Brito",
        "state": "CE",
        "crop": "Mamão",
        "hectares": 2.0,
        "production": 2.0,
        "year": 2023,
        "region": "Nordeste",
        "ibge_code": "2304301"
      },
      "geometry": {
        "type": "Point",
        "coordinates": [
          -40.01431384552595,
          -6.022075625354872
        ]
      }
    },
    {
      "type": "Feature",
      "properties": {
        "municipality": "Forquilha",
        "state": "CE",
        "crop": "Mamão",
        "hectares": 2.0,
        "production": 2.0,
        "year": 2023,
        "region": "Nordeste",
        "ibge_code": "2304350"
      },
      "geometry": {
        "type": "Point",
        "coordinates": [
          -40.135560177917625,
          -4.794153595772534
        ]
      }
    },
    {
      "type": "Feature",
      "properties": {
        "municipality": "Frecheirinha",
        "state": "CE",
        "crop": "Mamão",
        "hectares": 11.0,
        "production": 11.0,
        "year": 2023,
        "region": "Nordeste",
        "ibge_code": "2304509"
      },
      "geometry": {
        "type": "Point",
        "coordinates": [
          -40.14074120467018,
          -4.906671262479917
        ]
      }
    },
    {
      "type": "Feature",
      "properties": {
        "municipality": "General Sampaio",
        "state": "CE",
        "crop": "Mamão",
        "hectares": 5.0,
        "production": 5.0,
        "year": 2023,
        "region": "Nordeste",
        "ibge_code": "2304608"
      },
      "geometry": {
        "type": "Point",
        "coordinates": [
          -40.222121765346934,
          -6.269457476482748
        ]
      }
    },
    {
      "type": "Feature",
      "properties": {
        "municipality": "Graça",
        "state": "CE",
        "crop": "Mamão",
        "hectares": 8.0,
        "production": 8.0,
        "year": 2023,
        "region": "Nordeste",
        "ibge_code": "2304657"
      },
      "geometry": {
        "type": "Point",
        "coordinates": [
          -39.49172296206888,
          -5.8770281258065555
        ]
      }
    },
    {
      "type": "Feature",
      "properties": {
        "municipality": "Granjeiro",
        "state": "CE",
        "crop": "Mamão",
        "hectares": 3.0,
        "production": 3.0,
        "year": 2023,
        "region": "Nordeste",
        "ibge_code": "2304806"
      },
      "geometry": {
        "type": "Point",
        "coordinates": [
          -40.16758604431639,
          -4.877254228119114
        ]
      }
    },
    {
      "type": "Feature",
      "properties": {
        "municipality": "Guaiúba",
        "state": "CE",
        "crop": "Mamão",
        "hectares": 20.0,
        "production": 20.0,
        "year": 2023,
        "region": "Nordeste",
        "ibge_code": "2304954"
      },
      "geometry": {
        "type": "Point",
        "coordinates": [
          -38.50534972734781,
          -5.757211379750627
        ]
      }
    },
    {
      "type": "Feature",
      "properties": {
        "municipality": "Guaraciaba do Norte",
        "state": "CE",
        "crop": "Mamão",
        "hectares": 20.0,
        "production": 20.0,
        "year": 2023,
        "region": "Nordeste",
        "ibge_code": "2305001"
      },
      "geometry": {
        "type": "Point",
        "coordinates": [
          -38.692491069294796,
          -5.8358424418373716
        ]
      }
    },
    {
      "type": "Feature",
      "properties": {
        "municipality": "Hidrolândia",
        "state": "CE",
        "crop": "Mamão",
        "hectares": 2.0,
        "production": 2.0,
        "year": 2023,
        "region": "Nordeste",
        "ibge_code": "2305209"
      },
      "geometry": {
        "type": "Point",
        "coordinates": [
          -40.222365897842415,
          -6.327384878989982
        ]
      }
    },
    {
      "type": "Feature",
      "properties": {
        "municipality": "Ibiapina",
        "state": "CE",
        "crop": "Mamão",
        "hectares": 13.0,
        "production": 13.0,
        "year": 2023,
        "region": "Nordeste",
        "ibge_code": "2305308"
      },
      "geometry": {
        "type": "Point",
        "coordinates": [
          -39.46522860193161,
          -5.503027181569804
        ]
      }
    },
    {
      "type": "Feature",
      "properties": {
        "municipality": "Icapuí",
        "state": "CE",
        "crop": "Mamão",
        "hectares": 20.0,
        "production": 20.0,
        "year": 2023,
        "region": "Nordeste",
        "ibge_code": "2305357"
      },
      "geometry": {
        "type": "Point",
        "coordinates": [
          -39.219933861946686,
          -5.461979860267584
        ]
      }
    },
    {
      "type": "Feature",
      "properties": {
        "municipality": "Iguatu",
        "state": "CE",
        "crop": "Mamão",
        "hectares": 10.0,
        "production": 10.0,
        "year": 2023,
        "region": "Nordeste",
        "ibge_code": "2305506"
      },
      "geometry": {
        "type": "Point",
        "coordinates": [
          -39.37441344666639,
          -5.236198612824464
        ]
      }
    },
    {
      "type": "Feature",
      "properties": {
        "municipality": "Ipu",
        "state": "CE",
        "crop": "Mamão",
        "hectares": 70.0,
        "production": 70.0,
        "year": 2023,
        "region": "Nordeste",
        "ibge_code": "2305803"
      },
      "geometry": {
        "type": "Point",
        "coordinates": [
          -38.53958886846444,
          -6.098799838063883
        ]
      }
    },
    {
      "type": "Feature",
      "properties": {
        "municipality": "Ipueiras",
        "state": "CE",
        "crop": "Mamão",
        "hectares": 20.0,
        "production": 20.0,
        "year": 2023,
        "region": "Nordeste",
        "ibge_code": "2305902"
      },
      "geometry": {
        "type": "Point",
        "coordinates": [
          -38.576082238306206,
          -5.399388376186451
        ]
      }
    },
    {
      "type": "Feature",
      "properties": {
        "municipality": "Irauçuba",
        "state": "CE",
        "crop": "Mamão",
        "hectares": 4.0,
        "production": 4.0,
        "year": 2023,
        "region": "Nordeste",
        "ibge_code": "2306108"
      },
      "geometry": {
        "type": "Point",
        "coordinates": [
          -38.474381897761404,
          -5.260071664377341
        ]
      }
    },
    {
      "type": "Feature",
      "properties": {
        "municipality": "Itaitinga",
        "state": "CE",
        "crop": "Mamão",
        "hectares": 5.0,
        "production": 5.0,
        "year": 2023,
        "region": "Nordeste",
        "ibge_code": "2306256"
      },
      "geometry": {
        "type": "Point",
        "coordinates": [
          -40.27852409865088,
          -5.7570400309703835
        ]
      }
    },
    {
      "type": "Feature",
      "properties": {
        "municipality": "Itapajé",
        "state": "CE",
        "crop": "Mamão",
        "hectares": 5.0,
        "production": 5.0,
        "year": 2023,
        "region": "Nordeste",
        "ibge_code": "2306306"
      },
      "geometry": {
        "type": "Point",
        "coordinates": [
          -39.36986438921829,
          -5.795925021101696
        ]
      }
    },
    {
      "type": "Feature",
      "properties": {
        "municipality": "Itatira",
        "state": "CE",
        "crop": "Mamão",
        "hectares": 2.0,
        "production": 2.0,
        "year": 2023,
        "region": "Nordeste",
        "ibge_code": "2306603"
      },
      "geometry": {
        "type": "Point",
        "coordinates": [
          -38.92815135472589,
          -6.42129632132524
        ]
      }
    },
    {
      "type": "Feature",
      "properties": {
        "municipality": "Jaguaretama",
        "state": "CE",
        "crop": "Mamão",
        "hectares": 2.0,
        "production": 2.0,
        "year": 2023,
        "region": "Nordeste",
        "ibge_code": "2306702"
      },
      "geometry": {
        "type": "Point",
        "coordinates": [
          -39.17334092156737,
          -5.069123520651133
        ]
      }
    },
    {
      "type": "Feature",
      "properties": {
        "municipality": "Jaguaribara",
        "state": "CE",
        "crop": "Mamão",
        "hectares": 2.0,
        "production": 2.0,
        "year": 2023,
        "region": "Nordeste",
        "ibge_code": "2306801"
      },
      "geometry": {
        "type": "Point",
        "coordinates": [
          -38.83702602147854,
          -5.252596610220596
        ]
      }
    },
    {
      "type": "Feature",
      "properties": {
        "municipality": "Jaguaribe",
        "state": "CE",
        "crop": "Mamão",
        "hectares": 4.0,
        "production": 4.0,
        "year": 2023,
        "region": "Nordeste",
        "ibge_code": "2306900"
      },
      "geometry": {
        "type": "Point",
        "coordinates": [
          -39.81564461710045,
          -6.458698921071139
        ]
      }
    },
    {
      "type": "Feature",
      "properties": {
        "municipality": "Jaguaruana",
        "state": "CE",
        "crop": "Mamão",
        "hectares": 45.0,
        "production": 45.0,
        "year": 2023,
        "region": "Nordeste",
        "ibge_code": "2307007"
      },
      "geometry": {
        "type": "Point",
        "coordinates": [
          -38.4553194068053,
          -6.050029050305348
        ]
      }
    },
    {
      "type": "Feature",
      "properties": {
        "municipality": "Jati",
        "state": "CE",
        "crop": "Mamão",
        "hectares": 5.0,
        "production": 5.0,
        "year": 2023,
        "region": "Nordeste",
        "ibge_code": "2307205"
      },
      "geometry": {
        "type": "Point",
        "coordinates": [
          -38.55115265745218,
          -6.41864162372427
        ]
      }
    },
    {
      "type": "Feature",
      "properties": {
        "municipality": "Juazeiro do Norte",
        "state": "CE",
        "crop": "Mamão",
        "hectares": 8.0,
        "production": 8.0,
        "year": 2023,
        "region": "Nordeste",
        "ibge_code": "2307304"
      },
      "geometry": {
        "type": "Point",
        "coordinates": [
          -38.870007873443086,
          -6.274081994719129
        ]
      }
    },
    {
      "type": "Feature",
      "properties": {
        "municipality": "Jucás",
        "state": "CE",
        "crop": "Mamão",
        "hectares": 2.0,
        "production": 2.0,
        "year": 2023,
        "region": "Nordeste",
        "ibge_code": "2307403"
      },