{
  "type": "FeatureCollection",
  "name": "Soja (em grão)_production",
  "features": [
    {
      "type": "Feature",
      "properties": {
        "municipality": "Alta Floresta D'Oeste",
        "state": "RO",
        "crop": "Soja (em grão)",
        "hectares": 1318.0,
        "production": 1318.0,
        "year": 2023,
        "region": "Norte",
        "ibge_code": "1100015"
      },
      "geometry": {
        "type": "Point",
        "coordinates": [
          -63.47108362081896,
          -10.656134520148264
        ]
      }
    },
    {
      "type": "Feature",
      "properties": {
        "municipality": "Ariquemes",
        "state": "RO",
        "crop": "Soja (em grão)",
        "hectares": 13106.0,
        "production": 13106.0,
        "year": 2023,
        "region": "Norte",
        "ibge_code": "1100023"
      },
      "geometry": {
        "type": "Point",
        "coordinates": [
          -64.07564461710045,
          -12.465998921071138
        ]
      }
    },
    {
      "type": "Feature",
      "properties": {
        "municipality": "Cabixi",
        "state": "RO",
        "crop": "Soja (em grão)",
        "hectares": 30781.0,
        "production": 30781.0,
        "year": 2023,
        "region": "Norte",
        "ibge_code": "1100031"
      },
      "geometry": {
        "type": "Point",
        "coordinates": [
          -63.09702602147854,
          -11.259896610220595
        ]
      }
    },
    {
      "type": "Feature",
      "properties": {
        "municipality": "Cacoal",
        "state": "RO",
        "crop": "Soja (em grão)",
        "hectares": 4561.0,
        "production": 4561.0,
        "year": 2023,
        "region": "Norte",
        "ibge_code": "1100049"
      },
      "geometry": {
        "type": "Point",
        "coordinates": [
          -62.79958886846444,
          -12.106099838063882
        ]
      }
    },
    {
      "type": "Feature",
      "properties": {
        "municipality": "Cerejeiras",
        "state": "RO",
        "crop": "Soja (em grão)",
        "hectares": 35121.0,
        "production": 35121.0,
        "year": 2023,
        "region": "Norte",
        "ibge_code": "1100056"
      },
      "geometry": {
        "type": "Point",
        "coordinates": [
          -64.47696670463657,
          -11.617781211289145
        ]
      }
    },
    {
      "type": "Feature",
      "properties": {
        "municipality": "Colorado do Oeste",
        "state": "RO",
        "crop": "Soja (em grão)",
        "hectares": 2702.0,
        "production": 2702.0,
        "year": 2023,
        "region": "Norte",
        "ibge_code": "1100064"
      },
      "geometry": {
        "type": "Point",
        "coordinates": [
          -64.20053708514064,
          -12.378133038890928
        ]
      }
    },
    {
      "type": "Feature",
      "properties": {
        "municipality": "Corumbiara",
        "state": "RO",
        "crop": "Soja (em grão)",
        "hectares": 47557.0,
        "production": 47557.0,
        "year": 2023,
        "region": "Norte",
        "ibge_code": "1100072"
      },
      "geometry": {
        "type": "Point",
        "coordinates": [
          -63.15845788701966,
          -11.206901103516405
        ]
      }
    },
    {
      "type": "Feature",
      "properties": {
        "municipality": "Costa Marques",
        "state": "RO",
        "crop": "Soja (em grão)",
        "hectares": 3200.0,
        "production": 3200.0,
        "year": 2023,
        "region": "Norte",
        "ibge_code": "1100080"
      },
      "geometry": {
        "type": "Point",
        "coordinates": [
          -63.00508478546875,
          -11.14548713243165
        ]
      }
    },
    {
      "type": "Feature",
      "properties": {
        "municipality": "Espigão D'Oeste",
        "state": "RO",
        "crop": "Soja (em grão)",
        "hectares": 1550.0,
        "production": 1550.0,
        "year": 2023,
        "region": "Norte",
        "ibge_code": "1100098"
      },
      "geometry": {
        "type": "Point",
        "coordinates": [
          -62.91591681003188,
          -10.514150067944508
        ]
      }
    },
    {
      "type": "Feature",
      "properties": {
        "municipality": "Guajará-Mirim",
        "state": "RO",
        "crop": "Soja (em grão)",
        "hectares": 5110.0,
        "production": 5110.0,
        "year": 2023,
        "region": "Norte",
        "ibge_code": "1100106"
      },
      "geometry": {
        "type": "Point",
        "coordinates": [
          -63.76515579784139,
          -11.680842345491442
        ]
      }
    },
    {
      "type": "Feature",
      "properties": {
        "municipality": "Jaru",
        "state": "RO",
        "crop": "Soja (em grão)",
        "hectares": 268.0,
        "production": 268.0,
        "year": 2023,
        "region": "Norte",
        "ibge_code": "1100114"
      },
      "geometry": {
        "type": "Point",
        "coordinates": [
          -63.67403057367075,
          -11.493819172459503
        ]
      }
    },
    {
      "type": "Feature",
      "properties": {
        "municipality": "Ji-Paraná",
        "state": "RO",
        "crop": "Soja (em grão)",
        "hectares": 528.0,
        "production": 528.0,
        "year": 2023,
        "region": "Norte",
        "ibge_code": "1100122"
      },
      "geometry": {
        "type": "Point",
        "coordinates": [
          -63.54652753575108,
          -11.014580747632994
        ]
      }
    },
    {
      "type": "Feature",
      "properties": {
        "municipality": "Machadinho D'Oeste",
        "state": "RO",
        "crop": "Soja (em grão)",
        "hectares": 18821.0,
        "production": 18821.0,
        "year": 2023,
        "region": "Norte",
        "ibge_code": "1100130"
      },
      "geometry": {
        "type": "Point",
        "coordinates": [
          -63.35799059545948,
          -11.196820362076354
        ]
      }
    },
    {
      "type": "Feature",
      "properties": {
        "municipality": "Nova Brasilândia D'Oeste",
        "state": "RO",
        "crop": "Soja (em grão)",
        "hectares": 1587.0,
        "production": 1587.0,
        "year": 2023,
        "region": "Norte",
        "ibge_code": "1100148"
      },
      "geometry": {
        "type": "Point",
        "coordinates": [
          -63.36481135333994,
          -11.38568795223679
        ]
      }
    },
    {
      "type": "Feature",
      "properties": {
        "municipality": "Ouro Preto do Oeste",
        "state": "RO",
        "crop": "Soja (em grão)",
        "hectares": 2714.0,
        "production": 2714.0,
        "year": 2023,
        "region": "Norte",
        "ibge_code": "1100155"
      },
      "geometry": {
        "type": "Point",
        "coordinates": [
          -64.41508377555539,
          -12.257183906040966
        ]
      }
    },
    {
      "type": "Feature",
      "properties": {
        "municipality": "Pimenta Bueno",
        "state": "RO",
        "crop": "Soja (em grão)",
        "hectares": 3214.0,
        "production": 3214.0,
        "year": 2023,
        "region": "Norte",
        "ibge_code": "1100189"
      },
      "geometry": {
        "type": "Point",
        "coordinates": [
          -64.31705216245875,
          -12.472782318589406
        ]
      }
    },
    {
      "type": "Feature",
      "properties": {
        "municipality": "Porto Velho",
        "state": "RO",
        "crop": "Soja (em grão)",
        "hectares": 52336.0,
        "production": 52336.0,
        "year": 2023,
        "region": "Norte",
        "ibge_code": "1100205"
      },
      "geometry": {
        "type": "Point",
        "coordinates": [
          -63.63358436368998,
          -10.70297687930321
        ]
      }
    },
    {
      "type": "Feature",
      "properties": {
        "municipality": "Rio Crespo",
        "state": "RO",
        "crop": "Soja (em grão)",
        "hectares": 32571.0,
        "production": 32571.0,
        "year": 2023,
        "region": "Norte",
        "ibge_code": "1100262"
      },
      "geometry": {
        "type": "Point",
        "coordinates": [
          -63.099868249205926,
          -10.866865235465383
        ]
      }
    },
    {
      "type": "Feature",
      "properties": {
        "municipality": "Rolim de Moura",
        "state": "RO",
        "crop": "Soja (em grão)",
        "hectares": 7097.0,
        "production": 7097.0,
        "year": 2023,
        "region": "Norte",
        "ibge_code": "1100288"
      },
      "geometry": {
        "type": "Point",
        "coordinates": [
          -64.27038086711889,
          -10.87933364579586
        ]
      }
    },
    {
      "type": "Feature",
      "properties": {
        "municipality": "Santa Luzia D'Oeste",
        "state": "RO",
        "crop": "Soja (em grão)",
        "hectares": 7223.0,
        "production": 7223.0,
        "year": 2023,
        "region": "Norte",
        "ibge_code": "1100296"
      },
      "geometry": {
        "type": "Point",
        "coordinates": [
          -62.58344991353287,
          -10.696014596018466
        ]
      }
    },
    {
      "type": "Feature",
      "properties": {
        "municipality": "Vilhena",
        "state": "RO",
        "crop": "Soja (em grão)",
        "hectares": 43211.0,
        "production": 43211.0,
        "year": 2023,
        "region": "Norte",
        "ibge_code": "1100304"
      },
      "geometry": {
        "type": "Point",
        "coordinates": [
          -63.86284000241561,
          -10.54799261760644
        ]
      }
    },
    {
      "type": "Feature",
      "properties": {
        "municipality": "São Miguel do Guaporé",
        "state": "RO",
        "crop": "Soja (em grão)",
        "hectares": 26239.0,
        "production": 26239.0,
        "year": 2023,
        "region": "Norte",
        "ibge_code": "1100320"
      },
      "geometry": {
        "type": "Point",
        "coordinates": [
          -63.53096235767705,
          -11.646019929768352
        ]
      }
    },
    {
      "type": "Feature",
      "properties": {
        "municipality": "Nova Mamoré",
        "state": "RO",
        "crop": "Soja (em grão)",
        "hectares": 8693.0,
        "production": 8693.0,
        "year": 2023,
        "region": "Norte",
        "ibge_code": "1100338"
      },
      "geometry": {
        "type": "Point",
        "coordinates": [
          -62.836082238306204,
          -11.40668837618645
        ]
      }
    },
    {
      "type": "Feature",
      "properties": {
        "municipality": "Alvorada D'Oeste",
        "state": "RO",
        "crop": "Soja (em grão)",
        "hectares": 830.0,
        "production": 830.0,
        "year": 2023,
        "region": "Norte",
        "ibge_code": "1100346"
      },
      "geometry": {
        "type": "Point",
        "coordinates": [
          -64.43822496417242,
          -10.976167874931267
        ]
      }
    },
    {
      "type": "Feature",
      "properties": {
        "municipality": "Alto Alegre dos Parecis",
        "state": "RO",
        "crop": "Soja (em grão)",
        "hectares": 3485.0,
        "production": 3485.0,
        "year": 2023,
        "region": "Norte",
        "ibge_code": "1100379"
      },
      "geometry": {
        "type": "Point",
        "coordinates": [
          -63.599844517858365,
          -10.990922536568295
        ]
      }
    },
    {
      "type": "Feature",
      "properties": {
        "municipality": "Alto Paraíso",
        "state": "RO",
        "crop": "Soja (em grão)",
        "hectares": 23138.0,
        "production": 23138.0,
        "year": 2023,
        "region": "Norte",
        "ibge_code": "1100403"
      },
      "geometry": {
        "type": "Point",
        "coordinates": [
          -64.3043165745713,
          -11.69446871532617
        ]
      }
    },
    {
      "type": "Feature",
      "properties": {
        "municipality": "Buritis",
        "state": "RO",
        "crop": "Soja (em grão)",
        "hectares": 1100.0,
        "production": 1100.0,
        "year": 2023,
        "region": "Norte",
        "ibge_code": "1100452"
      },
      "geometry": {
        "type": "Point",
        "coordinates": [
          -64.18659542109238,
          -10.653153199456273
        ]
      }
    },
    {
      "type": "Feature",
      "properties": {
        "municipality": "Novo Horizonte do Oeste",
        "state": "RO",
        "crop": "Soja (em grão)",
        "hectares": 2053.0,
        "production": 2053.0,
        "year": 2023,
        "region": "Norte",
        "ibge_code": "1100502"
      },
      "geometry": {
        "type": "Point",
        "coordinates": [
          -64.35162650273675,
          -11.429762581176158
        ]
      }
    },
    {
      "type": "Feature",
      "properties": {
        "municipality": "Campo Novo de Rondônia",
        "state": "RO",
        "crop": "Soja (em grão)",
        "hectares": 500.0,
        "production": 500.0,
        "year": 2023,
        "region": "Norte",
        "ibge_code": "1100700"
      },
      "geometry": {
        "type": "Point",
        "coordinates": [
          -64.10129994498661,
          -10.976126157271931
        ]
      }
    },
    {
      "type": "Feature",
      "properties": {
        "municipality": "Candeias do Jamari",
        "state": "RO",
        "crop": "Soja (em grão)",
        "hectares": 45541.0,
        "production": 45541.0,
        "year": 2023,
        "region": "Norte",
        "ibge_code": "1100809"
      },
      "geometry": {
        "type": "Point",
        "coordinates": [
          -62.784453531868145,
          -11.272358836389603
        ]
      }
    },
    {
      "type": "Feature",
      "properties": {
        "municipality": "Castanheiras",
        "state": "RO",
        "crop": "Soja (em grão)",
        "hectares": 5000.0,
        "production": 5000.0,
        "year": 2023,
        "region": "Norte",
        "ibge_code": "1100908"
      },
      "geometry": {
        "type": "Point",
        "coordinates": [
          -63.949668293084805,
          -11.678104859961499
        ]
      }
    },
    {
      "type": "Feature",
      "properties": {
        "municipality": "Chupinguaia",
        "state": "RO",
        "crop": "Soja (em grão)",
        "hectares": 37262.0,
        "production": 37262.0,
        "year": 2023,
        "region": "Norte",
        "ibge_code": "1100924"
      },
      "geometry": {
        "type": "Point",
        "coordinates": [
          -62.759677440502905,
          -12.190954971005938
        ]
      }
    },
    {
      "type": "Feature",
      "properties": {
        "municipality": "Cujubim",
        "state": "RO",
        "crop": "Soja (em grão)",
        "hectares": 22814.0,
        "production": 22814.0,
        "year": 2023,
        "region": "Norte",
        "ibge_code": "1100940"
      },
      "geometry": {
        "type": "Point",
        "coordinates": [
          -62.66580633387573,
          -11.981285168630647
        ]
      }
    },
    {
      "type": "Feature",
      "properties": {
        "municipality": "Itapuã do Oeste",
        "state": "RO",
        "crop": "Soja (em grão)",
        "hectares": 23260.0,
        "production": 23260.0,
        "year": 2023,
        "region": "Norte",
        "ibge_code": "1101104"
      },
      "geometry": {
        "type": "Point",
        "coordinates": [
          -63.776151391294626,
          -10.514610080263935
        ]
      }
    },
    {
      "type": "Feature",
      "properties": {
        "municipality": "Mirante da Serra",
        "state": "RO",
        "crop": "Soja (em grão)",
        "hectares": 1025.0,
        "production": 1025.0,
        "year": 2023,
        "region": "Norte",
        "ibge_code": "1101302"
      },
      "geometry": {
        "type": "Point",
        "coordinates": [
          -63.48499549300005,
          -11.961857622275188
        ]
      }
    },
    {
      "type": "Feature",
      "properties": {
        "municipality": "Nova União",
        "state": "RO",
        "crop": "Soja (em grão)",
        "hectares": 126.0,
        "production": 126.0,
        "year": 2023,
        "region": "Norte",
        "ibge_code": "1101435"
      },
      "geometry": {
        "type": "Point",
        "coordinates": [
          -64.0361243430993,
          -10.806849968045134
        ]
      }
    },
    {
      "type": "Feature",
      "properties": {
        "municipality": "Parecis",
        "state": "RO",
        "crop": "Soja (em grão)",
        "hectares": 4720.0,
        "production": 4720.0,
        "year": 2023,
        "region": "Norte",
        "ibge_code": "1101450"
      },
      "geometry": {
        "type": "Point",
        "coordinates": [
          -62.626474912488064,
          -11.964749334486632
        ]
      }
    },
    {
      "type": "Feature",
      "properties": {
        "municipality": "Pimenteiras do Oeste",
        "state": "RO",
        "crop": "Soja (em grão)",
        "hectares": 50000.0,
        "production": 50000.0,
        "year": 2023,
        "region": "Norte",
        "ibge_code": "1101468"
      },
      "geometry": {
        "type": "Point",
        "coordinates": [
          -64.16915200203783,
          -11.344185670132086
        ]
      }
    },
    {
      "type": "Feature",
      "properties": {
        "municipality": "Primavera de Rondônia",
        "state": "RO",
        "crop": "Soja (em grão)",
        "hectares": 252.0,
        "production": 252.0,
        "year": 2023,
        "region": "Norte",
        "ibge_code": "1101476"
      },
      "geometry": {
        "type": "Point",
        "coordinates": [
          -64.44617177332965,
          -10.875916926893682
        ]
      }
    },
    {
      "type": "Feature",
      "properties": {
        "municipality": "São Felipe D'Oeste",
        "state": "RO",
        "crop": "Soja (em grão)",
        "hectares": 2200.0,
        "production": 2200.0,
        "year": 2023,
        "region": "Norte",
        "ibge_code": "1101484"
      },
      "geometry": {
        "type": "Point",
        "coordinates": [
          -63.023236007096536,
          -11.741252601805476
        ]
      }
    },
    {
      "type": "Feature",
      "properties": {
        "municipality": "São Francisco do Guaporé",
        "state": "RO",
        "crop": "Soja (em grão)",
        "hectares": 6600.0,
        "production": 6600.0,
        "year": 2023,
        "region": "Norte",
        "ibge_code": "1101492"
      },
      "geometry": {
        "type": "Point",
        "coordinates": [
          -63.1709646982858,
          -11.581306032908882
        ]
      }
    },
    {
      "type": "Feature",
      "properties": {
        "municipality": "Seringueiras",
        "state": "RO",
        "crop": "Soja (em grão)",
        "hectares": 6309.0,
        "production": 6309.0,
        "year": 2023,
        "region": "Norte",
        "ibge_code": "1101500"
      },
      "geometry": {
        "type": "Point",
        "coordinates": [
          -62.949331273934966,
          -12.244659540198658
        ]
      }
    },
    {
      "type": "Feature",
      "properties": {
        "municipality": "Theobroma",
        "state": "RO",
        "crop": "Soja (em grão)",
        "hectares": 1285.0,
        "production": 1285.0,
        "year": 2023,
        "region": "Norte",
        "ibge_code": "1101609"
      },
      "geometry": {
        "type": "Point",
        "coordinates": [
          -63.215074335219036,
          -10.701467585492956
        ]
      }
    },
    {
      "type": "Feature",
      "properties": {
        "municipality": "Vale do Anari",
        "state": "RO",
        "crop": "Soja (em grão)",
        "hectares": 2255.0,
        "production": 2255.0,
        "year": 2023,
        "region": "Norte",
        "ibge_code": "1101757"
      },
      "geometry": {
        "type": "Point",
        "coordinates": [
          -62.836872625954854,
          -10.585778139610088
        ]
      }
    },
    {
      "type": "Feature",
      "properties": {
        "municipality": "Acrelândia",
        "state": "AC",
        "crop": "Soja (em grão)",
        "hectares": 80.0,
        "production": 80.0,
        "year": 2023,
        "region": "Norte",
        "ibge_code": "1200013"
      },
      "geometry": {
        "type": "Point",
        "coordinates": [
          -70.59514436812134,
          -8.117808694532357
        ]
      }
    },
    {
      "type": "Feature",
      "properties": {
        "municipality": "Capixaba",
        "state": "AC",
        "crop": "Soja (em grão)",
        "hectares": 2500.0,
        "production": 2500.0,
        "year": 2023,
        "region": "Norte",
        "ibge_code": "1200179"
      },
      "geometry": {
        "type": "Point",
        "coordinates": [
          -70.47982488555012,
          -9.061306731853383
        ]
      }
    },
    {
      "type": "Feature",
      "properties": {
        "municipality": "Epitaciolândia",
        "state": "AC",
        "crop": "Soja (em grão)",
        "hectares": 327.0,
        "production": 327.0,
        "year": 2023,
        "region": "Norte",
        "ibge_code": "1200252"
      },
      "geometry": {
        "type": "Point",
        "coordinates": [
          -70.0674822383062,
          -8.92478837618645
        ]
      }
    },
    {
      "type": "Feature",
      "properties": {
        "municipality": "Plácido de Castro",
        "state": "AC",
        "crop": "Soja (em grão)",
        "hectares": 4150.0,
        "production": 4150.0,
        "year": 2023,
        "region": "Norte",
        "ibge_code": "1200385"
      },
      "geometry": {
        "type": "Point",
        "coordinates": [
          -70.44148401407092,
          -9.505783016569053
        ]
      }
    },
    {
      "type": "Feature",
      "properties": {
        "municipality": "Rio Branco",
        "state": "AC",
        "crop": "Soja (em grão)",
        "hectares": 1650.0,
        "production": 1650.0,
        "year": 2023,
        "region": "Norte",
        "ibge_code": "1200401"
      },
      "geometry": {
        "type": "Point",
        "coordinates": [
          -69.961295582124,
          -9.428658517488996
        ]
      }
    },
    {
      "type": "Feature",
      "properties": {
        "municipality": "Senador Guiomard",
        "state": "AC",
        "crop": "Soja (em grão)",
        "hectares": 1440.0,
        "production": 1440.0,
        "year": 2023,
        "region": "Norte",
        "ibge_code": "1200450"
      },
      "geometry": {
        "type": "Point",
        "coordinates": [
          -70.43474447329871,
          -8.769959231713251
        ]
      }
    },
    {
      "type": "Feature",
      "properties": {
        "municipality": "Xapuri",
        "state": "AC",
        "crop": "Soja (em grão)",
        "hectares": 900.0,
        "production": 900.0,
        "year": 2023,
        "region": "Norte",
        "ibge_code": "1200708"
      },
      "geometry": {
        "type": "Point",
        "coordinates": [
          -70.82535088926788,
          -8.544098482681997
        ]
      }
    },
    {
      "type": "Feature",
      "properties": {
        "municipality": "Porto Acre",
        "state": "AC",
        "crop": "Soja (em grão)",
        "hectares": 963.0,
        "production": 963.0,
        "year": 2023,
        "region": "Norte",
        "ibge_code": "1200807"
      },
      "geometry": {
        "type": "Point",
        "coordinates": [
          -70.2144387294905,
          -8.114400206944513
        ]
      }
    },
    {
      "type": "Feature",
      "properties": {
        "municipality": "Boca do Acre",
        "state": "AM",
        "crop": "Soja (em grão)",
        "hectares": 1200.0,
        "production": 1200.0,
        "year": 2023,
        "region": "Norte",
        "ibge_code": "1300706"
      },
      "geometry": {
        "type": "Point",
        "coordinates": [
          -62.020784233882914,
          -5.307865361819012
        ]
      }
    },
    {
      "type": "Feature",
      "properties": {
        "municipality": "Canutama",
        "state": "AM",
        "crop": "Soja (em grão)",
        "hectares": 500.0,
        "production": 500.0,
        "year": 2023,
        "region": "Norte",
        "ibge_code": "1300904"
      },
      "geometry": {
        "type": "Point",
        "coordinates": [
          -62.345727075710016,
          -5.770230199043253
        ]
      }
    },
    {
      "type": "Feature",
      "properties": {
        "municipality": "Humaitá",
        "state": "AM",
        "crop": "Soja (em grão)",
        "hectares": 6537.0,
        "production": 6537.0,
        "year": 2023,
        "region": "Norte",
        "ibge_code": "1301704"
      },
      "geometry": {
        "type": "Point",
        "coordinates": [
          -62.37296554833976,
          -4.169614902211137
        ]
      }
    },
    {
      "type": "Feature",
      "properties": {
        "municipality": "Amajari",
        "state": "RR",
        "crop": "Soja (em grão)",
        "hectares": 250.0,
        "production": 250.0,
        "year": 2023,
        "region": "Norte",
        "ibge_code": "1400027"
      },
      "geometry": {
        "type": "Point",
        "coordinates": [
          -61.8431152795287,
          3.364440856436163
        ]
      }
    },
    {
      "type": "Feature",
      "properties": {
        "municipality": "Alto Alegre",
        "state": "RR",
        "crop": "Soja (em grão)",
        "hectares": 46649.0,
        "production": 46649.0,
        "year": 2023,
        "region": "Norte",
        "ibge_code": "1400050"
      },
      "geometry": {
        "type": "Point",
        "coordinates": [
          -62.34111047300532,
          3.5838033765824266
        ]
      }
    },
    {
      "type": "Feature",
      "properties": {
        "municipality": "Boa Vista",
        "state": "RR",
        "crop": "Soja (em grão)",
        "hectares": 39795.0,
        "production": 39795.0,
        "year": 2023,
        "region": "Norte",
        "ibge_code": "1400100"
      },
      "geometry": {
        "type": "Point",
        "coordinates": [
          -62.384720478672236,
          2.150675757125021
        ]
      }
    },
    {
      "type": "Feature",
      "properties": {
        "municipality": "Bonfim",
        "state": "RR",
        "crop": "Soja (em grão)",
        "hectares": 29555.0,
        "production": 29555.0,
        "year": 2023,
        "region": "Norte",
        "ibge_code": "1400159"
      },
      "geometry": {
        "type": "Point",
        "coordinates": [
          -62.810038231657174,
          2.817353265013386
        ]
      }
    },
    {
      "type": "Feature",
      "properties": {
        "municipality": "Cantá",
        "state": "RR",
        "crop": "Soja (em grão)",
        "hectares": 3313.0,
        "production": 3313.0,
        "year": 2023,
        "region": "Norte",
        "ibge_code": "1400175"
      },
      "geometry": {
        "type": "Point",
        "coordinates": [
          -61.442926879670615,
          2.5357162802759055
        ]
      }
    },
    {
      "type": "Feature",
      "properties": {
        "municipality": "Caracaraí",
        "state": "RR",
        "crop": "Soja (em grão)",
        "hectares": 240.0,
        "production": 240.0,
        "year": 2023,
        "region": "Norte",
        "ibge_code": "1400209"
      },
      "geometry": {
        "type": "Point",
        "coordinates": [
          -62.03386792043871,
          3.0683829872699473
        ]
      }
    },
    {
      "type": "Feature",
      "properties": {
        "municipality": "Iracema",
        "state": "RR",
        "crop": "Soja (em grão)",
        "hectares": 3335.0,
        "production": 3335.0,
        "year": 2023,
        "region": "Norte",
        "ibge_code": "1400282"
      },
      "geometry": {
        "type": "Point",
        "coordinates": [
          -61.77209760296311,
          2.2440406181298265
        ]
      }
    },
    {
      "type": "Feature",
      "properties": {
        "municipality": "Mucajaí",
        "state": "RR",
        "crop": "Soja (em grão)",
        "hectares": 5060.0,
        "production": 5060.0,
        "year": 2023,
        "region": "Norte",
        "ibge_code": "1400308"
      },
      "geometry": {
        "type": "Point",
        "coordinates": [
          -61.499584785468755,
          3.097812867568348
        ]
      }
    },
    {
      "type": "Feature",
      "properties": {
        "municipality": "Abel Figueiredo",
        "state": "PA",
        "crop": "Soja (em grão)",
        "hectares": 5600.0,
        "production": 5600.0,
        "year": 2023,
        "region": "Norte",
        "ibge_code": "1500131"
      },
      "geometry": {
        "type": "Point",
        "coordinates": [
          -51.87500533500761,
          -3.521733579821166
        ]
      }
    },
    {
      "type": "Feature",
      "properties": {
        "municipality": "Água Azul do Norte",
        "state": "PA",
        "crop": "Soja (em grão)",
        "hectares": 600.0,
        "production": 600.0,
        "year": 2023,
        "region": "Norte",
        "ibge_code": "1500347"
      },
      "geometry": {
        "type": "Point",
        "coordinates": [
          -52.15009760296311,
          -4.205559381870174
        ]
      }
    },
    {
      "type": "Feature",
      "properties": {
        "municipality": "Altamira",
        "state": "PA",
        "crop": "Soja (em grão)",
        "hectares": 14000.0,
        "production": 14000.0,
        "year": 2023,
        "region": "Norte",
        "ibge_code": "1500602"
      },
      "geometry": {
        "type": "Point",
        "coordinates": [
          -52.35017657269312,
          -3.3428432995326123
        ]
      }
    },
    {
      "type": "Feature",
      "properties": {
        "municipality": "Belterra",
        "state": "PA",
        "crop": "Soja (em grão)",
        "hectares": 30000.0,
        "production": 30000.0,
        "year": 2023,
        "region": "Norte",
        "ibge_code": "1501451"
      },
      "geometry": {
        "type": "Point",
        "coordinates": [
          -53.05998112408905,
          -3.526863837823437
        ]
      }
    },
    {
      "type": "Feature",
      "properties": {
        "municipality": "Brejo Grande do Araguaia",
        "state": "PA",
        "crop": "Soja (em grão)",
        "hectares": 500.0,
        "production": 500.0,
        "year": 2023,
        "region": "Norte",
        "ibge_code": "1501758"
      },
      "geometry": {
        "type": "Point",
        "coordinates": [
          -52.85587112028,
          -4.180931886653392
        ]
      }
    },
    {
      "type": "Feature",
      "properties": {
        "municipality": "Breu Branco",
        "state": "PA",
        "crop": "Soja (em grão)",
        "hectares": 4000.0,
        "production": 4000.0,
        "year": 2023,
        "region": "Norte",
        "ibge_code": "1501782"
      },
      "geometry": {
        "type": "Point",
        "coordinates": [
          -52.230490595459486,
          -3.403120362076355
        ]
      }
    },
    {
      "type": "Feature",
      "properties": {
        "municipality": "Conceição do Araguaia",
        "state": "PA",
        "crop": "Soja (em grão)",
        "hectares": 7466.0,
        "production": 7466.0,
        "year": 2023,
        "region": "Norte",
        "ibge_code": "1502707"
      },
      "geometry": {
        "type": "Point",
        "coordinates": [
          -52.39590642620482,
          -4.214329848391632
        ]
      }
    },
    {
      "type": "Feature",
      "properties": {
        "municipality": "Cumaru do Norte",
        "state": "PA",
        "crop": "Soja (em grão)",
        "hectares": 13645.0,
        "production": 13645.0,
        "year": 2023,
        "region": "Norte",
        "ibge_code": "1502764"
      },
      "geometry": {
        "type": "Point",
        "coordinates": [
          -52.1772400442915,
          -3.6053920594176097
        ]
      }
    },
    {
      "type": "Feature",
      "properties": {
        "municipality": "Dom Eliseu",
        "state": "PA",
        "crop": "Soja (em grão)",
        "hectares": 170000.0,
        "production": 170000.0,
        "year": 2023,
        "region": "Norte",
        "ibge_code": "1502939"
      },
      "geometry": {
        "type": "Point",
        "coordinates": [
          -53.3583033317958,
          -3.096750837531827
        ]
      }
    },
    {
      "type": "Feature",
      "properties": {
        "municipality": "Floresta do Araguaia",
        "state": "PA",
        "crop": "Soja (em grão)",
        "hectares": 7891.0,
        "production": 7891.0,
        "year": 2023,
        "region": "Norte",
        "ibge_code": "1503044"
      },
      "geometry": {
        "type": "Point",
        "coordinates": [
          -51.80919191536054,
          -3.1253198324766744
        ]
      }
    },
    {
      "type": "Feature",
      "properties": {
        "municipality": "Ipixuna do Pará",
        "state": "PA",
        "crop": "Soja (em grão)",
        "hectares": 8000.0,
        "production": 8000.0,
        "year": 2023,
        "region": "Norte",
        "ibge_code": "1503457"
      },
      "geometry": {
        "type": "Point",
        "coordinates": [
          -52.28517187883402,
          -4.552309538961778
        ]
      }
    },
    {
      "type": "Feature",
      "properties": {
        "municipality": "Marabá",
        "state": "PA",
        "crop": "Soja (em grão)",
        "hectares": 525.0,
        "production": 525.0,
        "year": 2023,
        "region": "Norte",
        "ibge_code": "1504208"
      },
      "geometry": {
        "type": "Point",
        "coordinates": [
          -51.64645369203947,
          -3.7997607020460635
        ]
      }
    },
    {
      "type": "Feature",
      "properties": {
        "municipality": "Mojuí dos Campos",
        "state": "PA",
        "crop": "Soja (em grão)",
        "hectares": 50000.0,
        "production": 50000.0,
        "year": 2023,
        "region": "Norte",
        "ibge_code": "1504752"
      },
      "geometry": {
        "type": "Point",
        "coordinates": [
          -51.83976401325876,
          -4.308630562748136
        ]
      }
    },
    {
      "type": "Feature",
      "properties": {
        "municipality": "Novo Progresso",
        "state": "PA",
        "crop": "Soja (em grão)",
        "hectares": 28472.0,
        "production": 28472.0,
        "year": 2023,
        "region": "Norte",
        "ibge_code": "1505031"
      },
      "geometry": {
        "type": "Point",
        "coordinates": [
          -51.65695353186815,
          -3.4786588363896054
        ]
      }
    },
    {
      "type": "Feature",
      "properties": {
        "municipality": "Paragominas",
        "state": "PA",
        "crop": "Soja (em grão)",
        "hectares": 270000.0,
        "production": 270000.0,
        "year": 2023,
        "region": "Norte",
        "ibge_code": "1505502"
      },
      "geometry": {
        "type": "Point",
        "coordinates": [
          -52.47650420295389,
          -4.493659525833589
        ]
      }
    },
    {
      "type": "Feature",
      "properties": {
        "municipality": "Pau D'Arco",
        "state": "PA",
        "crop": "Soja (em grão)",
        "hectares": 1527.0,
        "production": 1527.0,
        "year": 2023,
        "region": "Norte",
        "ibge_code": "1505551"
      },
      "geometry": {
        "type": "Point",
        "coordinates": [
          -52.44881911275053,
          -4.1523690528540245
        ]
      }
    },
    {
      "type": "Feature",
      "properties": {
        "municipality": "Placas",
        "state": "PA",
        "crop": "Soja (em grão)",
        "hectares": 1400.0,
        "production": 1400.0,
        "year": 2023,
        "region": "Norte",
        "ibge_code": "1505650"
      },
      "geometry": {
        "type": "Point",
        "coordinates": [
          -51.85519623839006,
          -4.155169968932039
        ]
      }
    },
    {
      "type": "Feature",
      "properties": {
        "municipality": "Redenção",
        "state": "PA",
        "crop": "Soja (em grão)",
        "hectares": 10536.0,
        "production": 10536.0,
        "year": 2023,
        "region": "Norte",
        "ibge_code": "1506138"
      },
      "geometry": {
        "type": "Point",
        "coordinates": [
          -52.74564200554793,
          -2.8798412294877753
        ]
      }
    },
    {
      "type": "Feature",
      "properties": {
        "municipality": "Rio Maria",
        "state": "PA",
        "crop": "Soja (em grão)",
        "hectares": 500.0,
        "production": 500.0,
        "year": 2023,
        "region": "Norte",
        "ibge_code": "1506161"
      },
      "geometry": {
        "type": "Point",
        "coordinates": [
          -52.62548555574233,
          -4.4052479928550206
        ]
      }
    },
    {
      "type": "Feature",
      "properties": {
        "municipality": "Rondon do Pará",
        "state": "PA",
        "crop": "Soja (em grão)",
        "hectares": 70000.0,
        "production": 70000.0,
        "year": 2023,
        "region": "Norte",
        "ibge_code": "1506187"
      },
      "geometry": {
        "type": "Point",
        "coordinates": [
          -52.419027535751084,
          -3.220880747632995
        ]
      }
    },
    {
      "type": "Feature",
      "properties": {
        "municipality": "Rurópolis",
        "state": "PA",
        "crop": "Soja (em grão)",
        "hectares": 680.0,
        "production": 680.0,
        "year": 2023,
        "region": "Norte",
        "ibge_code": "1506195"
      },
      "geometry": {
        "type": "Point",
        "coordinates": [
          -52.97413011045065,
          -3.3119098434865046
        ]
      }
    },
    {
      "type": "Feature",
      "properties": {
        "municipality": "Santa Maria das Barreiras",
        "state": "PA",
        "crop": "Soja (em grão)",
        "hectares": 66615.0,
        "production": 66615.0,
        "year": 2023,
        "region": "Norte",
        "ibge_code": "1506583"
      },
      "geometry": {
        "type": "Point",
        "coordinates": [
          -52.34242557656077,
          -3.9115721532235295
        ]
      }
    },
    {
      "type": "Feature",
      "properties": {
        "municipality": "Santana do Araguaia",
        "state": "PA",
        "crop": "Soja (em grão)",
        "hectares": 119840.0,
        "production": 119840.0,
        "year": 2023,
        "region": "Norte",
        "ibge_code": "1506708"
      },
      "geometry": {
        "type": "Point",
        "coordinates": [
          -52.50236438921829,
          -4.0095250211016955
        ]
      }
    },
    {
      "type": "Feature",
      "properties": {
        "municipality": "Santarém",
        "state": "PA",
        "crop": "Soja (em grão)",
        "hectares": 30000.0,
        "production": 30000.0,
        "year": 2023,
        "region": "Norte",
        "ibge_code": "1506807"
      },
      "geometry": {
        "type": "Point",
        "coordinates": [
          -53.25557114812373,
          -3.6502389890628244
        ]
      }
    },
    {
      "type": "Feature",
      "properties": {
        "municipality": "São Félix do Xingu",
        "state": "PA",
        "crop": "Soja (em grão)",
        "hectares": 8000.0,
        "production": 8000.0,
        "year": 2023,
        "region": "Norte",
        "ibge_code": "1507300"
      },
      "geometry": {
        "type": "Point",
        "coordinates": [
          -51.5633354152472,
          -4.566747303301947
        ]
      }
    },
    {
      "type": "Feature",
      "properties": {
        "municipality": "São João do Araguaia",
        "state": "PA",
        "crop": "Soja (em grão)",
        "hectares": 392.0,
        "production": 392.0,
        "year": 2023,
        "region": "Norte",
        "ibge_code": "1507508"
      },
      "geometry": {
        "type": "Point",
        "coordinates": [
          -53.24956584870191,
          -4.662679935446753
        ]
      }
    },
    {
      "type": "Feature",
      "properties": {
        "municipality": "Tailândia",
        "state": "PA",
        "crop": "Soja (em grão)",
        "hectares": 17500.0,
        "production": 17500.0,
        "year": 2023,
        "region": "Norte",
        "ibge_code": "1507953"
      },
      "geometry": {
        "type": "Point",
        "coordinates": [
          -52.08640200397083,
          -2.9183917480072203
        ]
      }
    },
    {
      "type": "Feature",
      "properties": {
        "municipality": "Trairão",
        "state": "PA",
        "crop": "Soja (em grão)",
        "hectares": 2100.0,
        "production": 2100.0,
        "year": 2023,
        "region": "Norte",
        "ibge_code": "1508050"
      },
      "geometry": {
        "type": "Point",
        "coordinates": [
          -51.49064922987324,
          -4.477571777410734
        ]
      }
    },
    {
      "type": "Feature",
      "properties": {
        "municipality": "Tucumã",
        "state": "PA",
        "crop": "Soja (em grão)",
        "hectares": 2000.0,
        "production": 2000.0,
        "year": 2023,
        "region": "Norte",
        "ibge_code": "1508084"
      },
      "geometry": {
        "type": "Point",
        "coordinates": [
          -52.108025235380445,
          -3.922960236629578
        ]
      }
    },
    {
      "type": "Feature",
      "properties": {
        "municipality": "Ulianópolis",
        "state": "PA",
        "crop": "Soja (em grão)",
        "hectares": 65000.0,
        "production": 65000.0,
        "year": 2023,
        "region": "Norte",
        "ibge_code": "1508126"
      },
      "geometry": {
        "type": "Point",
        "coordinates": [
          -51.64721390084523,
          -4.604591659871788
        ]
      }
    },
    {
      "type": "Feature",
      "properties": {
        "municipality": "Uruará",
        "state": "PA",
        "crop": "Soja (em grão)",
        "hectares": 650.0,
        "production": 650.0,
        "year": 2023,
        "region": "Norte",
        "ibge_code": "1508159"
      },
      "geometry": {
        "type": "Point",
        "coordinates": [
          -51.88327728782578,
          -3.3577483463994593
        ]
      }
    },
    {
      "type": "Feature",
      "properties": {
        "municipality": "Xinguara",
        "state": "PA",
        "crop": "Soja (em grão)",
        "hectares": 100.0,
        "production": 100.0,
        "year": 2023,
        "region": "Norte",
        "ibge_code": "1508407"
      },
      "geometry": {
        "type": "Point",
        "coordinates": [
          -51.756835967507286,
          -2.7350982395020624
        ]
      }
    },
    {
      "type": "Feature",
      "properties": {
        "municipality": "Pedra Branca do Amapari",
        "state": "AP",
        "crop": "Soja (em grão)",
        "hectares": 300.0,
        "production": 300.0,
        "year": 2023,
        "region": "Norte",
        "ibge_code": "1600154"
      },
      "geometry": {
        "type": "Point",
        "coordinates": [
          -51.702820045565765,
          2.3465198622852395
        ]
      }
    },
    {
      "type": "Feature",
      "properties": {
        "municipality": "Ferreira Gomes",
        "state": "AP",
        "crop": "Soja (em grão)",
        "hectares": 800.0,
        "production": 800.0,
        "year": 2023,
        "region": "Norte",
        "ibge_code": "1600238"
      },
      "geometry": {
        "type": "Point",
        "coordinates": [
          -52.20552846463622,
          2.164982944291565
        ]
      }
    },
    {
      "type": "Feature",
      "properties": {
        "municipality": "Macapá",
        "state": "AP",
        "crop": "Soja (em grão)",
        "hectares": 5370.0,
        "production": 5370.0,
        "year": 2023,
        "region": "Norte",
        "ibge_code": "1600303"
      },
      "geometry": {
        "type": "Point",
        "coordinates": [
          -51.00548886846444,
          0.814000161936117
        ]
      }
    },
    {
      "type": "Feature",
      "properties": {
        "municipality": "Porto Grande",
        "state": "AP",
        "crop": "Soja (em grão)",
        "hectares": 380.0,
        "production": 380.0,
        "year": 2023,
        "region": "Norte",
        "ibge_code": "1600535"
      },
      "geometry": {
        "type": "Point",
        "coordinates": [
          -51.458100945484624,
          1.5812725408154198
        ]
      }
    },
    {
      "type": "Feature",
      "properties": {
        "municipality": "Tartarugalzinho",
        "state": "AP",
        "crop": "Soja (em grão)",
        "hectares": 500.0,
        "production": 500.0,
        "year": 2023,
        "region": "Norte",
        "ibge_code": "1600709"
      },
      "geometry": {
        "type": "Point",
        "coordinates": [
          -51.61857187883402,
          0.5740904610382227
        ]
      }
    },
    {
      "type": "Feature",
      "properties": {
        "municipality": "Abreulândia",
        "state": "TO",
        "crop": "Soja (em grão)",
        "hectares": 12207.0,
        "production": 12207.0,
        "year": 2023,
        "region": "Norte",
        "ibge_code": "1700251"
      },
      "geometry": {
        "type": "Point",
        "coordinates": [
          -49.1094722528276,
          -10.693989744133535
        ]
      }
    },
    {
      "type": "Feature",
      "properties": {
        "municipality": "Aliança do Tocantins",
        "state": "TO",
        "crop": "Soja (em grão)",
        "hectares": 9387.0,
        "production": 9387.0,
        "year": 2023,
        "region": "Norte",
        "ibge_code": "1700350"
      },
      "geometry": {
        "type": "Point",
        "coordinates": [
          -47.99519760296311,
          -10.668859381870174
        ]
      }
    },
    {
      "type": "Feature",
      "properties": {
        "municipality": "Almas",
        "state": "TO",
        "crop": "Soja (em grão)",
        "hectares": 13227.0,
        "production": 13227.0,
        "year": 2023,
        "region": "Norte",
        "ibge_code": "1700400"
      },
      "geometry": {
        "type": "Point",
        "coordinates": [
          -48.735676531501184,
          -9.305435001876695
        ]
      }
    },
    {
      "type": "Feature",
      "properties": {
        "municipality": "Alvorada",
        "state": "TO",
        "crop": "Soja (em grão)",
        "hectares": 29879.0,
        "production": 29879.0,
        "year": 2023,
        "region": "Norte",
        "ibge_code": "1700707"
      },
      "geometry": {
        "type": "Point",
        "coordinates": [
          -48.14616144805804,
          -10.759185452795482
        ]
      }
    },
    {
      "type": "Feature",
      "properties": {
        "municipality": "Ananás",
        "state": "TO",
        "crop": "Soja (em grão)",
        "hectares": 9.0,
        "production": 9.0,
        "year": 2023,
        "region": "Norte",
        "ibge_code": "1701002"
      },
      "geometry": {
        "type": "Point",
        "coordinates": [
          -47.384755283030614,
          -10.8459507314162
        ]
      }
    },
    {
      "type": "Feature",
      "properties": {
        "municipality": "Aparecida do Rio Negro",
        "state": "TO",
        "crop": "Soja (em grão)",
        "hectares": 29705.0,
        "production": 29705.0,
        "year": 2023,
        "region": "Norte",
        "ibge_code": "1701101"
      },
      "geometry": {
        "type": "Point",
        "coordinates": [
          -47.93093595022391,
          -10.547491583152752
        ]
      }
    },
    {
      "type": "Feature",
      "properties": {
        "municipality": "Aragominas",
        "state": "TO",
        "crop": "Soja (em grão)",
        "hectares": 1850.0,
        "production": 1850.0,
        "year": 2023,
        "region": "Norte",
        "ibge_code": "1701309"
      },
      "geometry": {
        "type": "Point",
        "coordinates": [
          -47.53362562632208,
          -11.10722501192528
        ]
      }
    },
    {
      "type": "Feature",
      "properties": {
        "municipality": "Araguacema",
        "state": "TO",
        "crop": "Soja (em grão)",
        "hectares": 41620.0,
        "production": 41620.0,
        "year": 2023,
        "region": "Norte",
        "ibge_code": "1701903"
      },
      "geometry": {
        "type": "Point",
        "coordinates": [
          -49.02581611890092,
          -9.571284998531766
        ]
      }
    },
    {
      "type": "Feature",
      "properties": {
        "municipality": "Araguaçu",
        "state": "TO",
        "crop": "Soja (em grão)",
        "hectares": 19195.0,
        "production": 19195.0,
        "year": 2023,
        "region": "Norte",
        "ibge_code": "1702000"
      },
      "geometry": {
        "type": "Point",
        "coordinates": [
          -49.085460683461505,
          -10.141841874114137
        ]
      }
    },
    {
      "type": "Feature",
      "properties": {
        "municipality": "Araguaína",
        "state": "TO",
        "crop": "Soja (em grão)",
        "hectares": 7064.0,
        "production": 7064.0,
        "year": 2023,
        "region": "Norte",
        "ibge_code": "1702109"
      },
      "geometry": {
        "type": "Point",
        "coordinates": [
          -47.404710060083296,
          -10.982617771111492
        ]
      }
    },
    {
      "type": "Feature",
      "properties": {
        "municipality": "Araguanã",
        "state": "TO",
        "crop": "Soja (em grão)",
        "hectares": 100.0,
        "production": 100.0,
        "year": 2023,
        "region": "Norte",
        "ibge_code": "1702158"
      },
      "geometry": {
        "type": "Point",
        "coordinates": [
          -49.133485527318015,
          -11.05231997292881
        ]
      }
    },
    {
      "type": "Feature",
      "properties": {
        "municipality": "Arapoema",
        "state": "TO",
        "crop": "Soja (em grão)",
        "hectares": 550.0,
        "production": 550.0,
        "year": 2023,
        "region": "Norte",
        "ibge_code": "1702307"
      },
      "geometry": {
        "type": "Point",
        "coordinates": [
          -47.59571699286546,
          -9.950343137520832
        ]
      }
    },
    {
      "type": "Feature",
      "properties": {
        "municipality": "Babaçulândia",
        "state": "TO",
        "crop": "Soja (em grão)",
        "hectares": 2205.0,
        "production": 2205.0,
        "year": 2023,
        "region": "Norte",
        "ibge_code": "1703008"
      },
      "geometry": {
        "type": "Point",
        "coordinates": [
          -48.87049680335442,
          -11.13970504333206
        ]
      }
    },
    {
      "type": "Feature",
      "properties": {
        "municipality": "Barra do Ouro",
        "state": "TO",
        "crop": "Soja (em grão)",
        "hectares": 7800.0,
        "production": 7800.0,
        "year": 2023,
        "region": "Norte",
        "ibge_code": "1703073"
      },
      "geometry": {
        "type": "Point",
        "coordinates": [
          -47.613984044681445,
          -10.993783635152155
        ]
      }
    },
    {
      "type": "Feature",
      "properties": {
        "municipality": "Barrolândia",
        "state": "TO",
        "crop": "Soja (em grão)",
        "hectares": 820.0,
        "production": 820.0,
        "year": 2023,
        "region": "Norte",
        "ibge_code": "1703107"
      },
      "geometry": {
        "type": "Point",
        "coordinates": [
          -48.0142748215832,
          -9.457788685731574
        ]
      }
    },
    {
      "type": "Feature",
      "properties": {
        "municipality": "Bernardo Sayão",
        "state": "TO",
        "crop": "Soja (em grão)",
        "hectares": 4570.0,
        "production": 4570.0,
        "year": 2023,
        "region": "Norte",
        "ibge_code": "1703206"
      },
      "geometry": {
        "type": "Point",
        "coordinates": [
          -48.026139385245386,
          -10.368296491448373
        ]
      }
    },
    {
      "type": "Feature",
      "properties": {
        "municipality": "Bom Jesus do Tocantins",
        "state": "TO",
        "crop": "Soja (em grão)",
        "hectares": 18204.0,
        "production": 18204.0,
        "year": 2023,
        "region": "Norte",
        "ibge_code": "1703305"
      },
      "geometry": {
        "type": "Point",
        "coordinates": [
          -47.475290990795266,
          -10.441239276799733
        ]
      }
    },
    {
      "type": "Feature",
      "properties": {
        "municipality": "Brasilândia do Tocantins",
        "state": "TO",
        "crop": "Soja (em grão)",
        "hectares": 503.0,
        "production": 503.0,
        "year": 2023,
        "region": "Norte",
        "ibge_code": "1703602"
      },
      "geometry": {
        "type": "Point",
        "coordinates": [
          -48.967565818357734,
          -10.062922146188791
        ]
      }
    },
    {
      "type": "Feature",
      "properties": {
        "municipality": "Brejinho de Nazaré",
        "state": "TO",
        "crop": "Soja (em grão)",
        "hectares": 24849.0,
        "production": 24849.0,
        "year": 2023,
        "region": "Norte",
        "ibge_code": "1703701"
      },
      "geometry": {
        "type": "Point",
        "coordinates": [
          -47.737042055258456,
          -10.617175226414147
        ]
      }
    },
    {
      "type": "Feature",
      "properties": {
        "municipality": "Campos Lindos",
        "state": "TO",
        "crop": "Soja (em grão)",
        "hectares": 91500.0,
        "production": 91500.0,
        "year": 2023,
        "region": "Norte",
        "ibge_code": "1703842"
      },
      "geometry": {
        "type": "Point",
        "coordinates": [
          -47.54246419252198,
          -10.258086581225877
        ]
      }
    },
    {
      "type": "Feature",
      "properties": {
        "municipality": "Cariri do Tocantins",
        "state": "TO",
        "crop": "Soja (em grão)",
        "hectares": 22655.0,
        "production": 22655.0,
        "year": 2023,
        "region": "Norte",
        "ibge_code": "1703867"
      },
      "geometry": {
        "type": "Point",
        "coordinates": [
          -48.34491172753846,
          -10.563722207086855
        ]
      }
    },
    {
      "type": "Feature",
      "properties": {
        "municipality": "Caseara",
        "state": "TO",
        "crop": "Soja (em grão)",
        "hectares": 50479.0,
        "production": 50479.0,
        "year": 2023,
        "region": "Norte",
        "ibge_code": "1703909"
      },
      "geometry": {
        "type": "Point",
        "coordinates": [
          -48.023907419938794,
          -10.341506182419625
        ]
      }
    },
    {
      "type": "Feature",
      "properties": {
        "municipality": "Centenário",
        "state": "TO",
        "crop": "Soja (em grão)",
        "hectares": 5000.0,
        "production": 5000.0,
        "year": 2023,
        "region": "Norte",
        "ibge_code": "1704105"
      },
      "geometry": {
        "type": "Point",
        "coordinates": [
          -47.598873397535044,
          -10.187121639255498
        ]
      }
    },
    {
      "type": "Feature",
      "properties": {
        "municipality": "Chapada de Areia",
        "state": "TO",
        "crop": "Soja (em grão)",
        "hectares": 2290.0,
        "production": 2290.0,
        "year": 2023,
        "region": "Norte",
        "ibge_code": "1704600"
      },
      "geometry": {
        "type": "Point",
        "coordinates": [
          -49.26132802394218,
          -10.25124843029193
        ]
      }
    },
    {
      "type": "Feature",
      "properties": {
        "municipality": "Chapada da Natividade",
        "state": "TO",
        "crop": "Soja (em grão)",
        "hectares": 12856.0,
        "production": 12856.0,
        "year": 2023,
        "region": "Norte",
        "ibge_code": "1705102"
      },
      "geometry": {
        "type": "Point",
        "coordinates": [
          -48.433680964690446,
          -10.197599091363724
        ]
      }
    },
    {
      "type": "Feature",
      "properties": {
        "municipality": "Conceição do Tocantins",
        "state": "TO",
        "crop": "Soja (em grão)",
        "hectares": 310.0,
        "production": 310.0,
        "year": 2023,
        "region": "Norte",
        "ibge_code": "1705607"
      },
      "geometry": {
        "type": "Point",
        "coordinates": [
          -47.451357749866474,
          -9.367521647571966
        ]
      }
    },
    {
      "type": "Feature",
      "properties": {
        "municipality": "Couto Magalhães",
        "state": "TO",
        "crop": "Soja (em grão)",
        "hectares": 14210.0,
        "production": 14210.0,
        "year": 2023,
        "region": "Norte",
        "ibge_code": "1706001"
      },
      "geometry": {
        "type": "Point",
        "coordinates": [
          -48.66022335355044,
          -10.955791145145502
        ]
      }
    },
    {
      "type": "Feature",
      "properties": {
        "municipality": "Cristalândia",
        "state": "TO",
        "crop": "Soja (em grão)",
        "hectares": 11467.0,
        "production": 11467.0,
        "year": 2023,
        "region": "Norte",
        "ibge_code": "1706100"
      },
      "geometry": {
        "type": "Point",
        "coordinates": [
          -48.167650222213695,
          -9.573040743404924
        ]
      }
    },
    {
      "type": "Feature",
      "properties": {
        "municipality": "Crixás do Tocantins",
        "state": "TO",
        "crop": "Soja (em grão)",
        "hectares": 4785.0,
        "production": 4785.0,
        "year": 2023,
        "region": "Norte",
        "ibge_code": "1706258"
      },
      "geometry": {
        "type": "Point",
        "coordinates": [
          -48.6142819853014,
          -10.676015767978134
        ]
      }
    },
    {
      "type": "Feature",
      "properties": {
        "municipality": "Darcinópolis",
        "state": "TO",
        "crop": "Soja (em grão)",
        "hectares": 9000.0,
        "production": 9000.0,
        "year": 2023,
        "region": "Norte",
        "ibge_code": "1706506"
      },
      "geometry": {
        "type": "Point",
        "coordinates": [
          -47.9610641728846,
          -9.948981139614524
        ]
      }
    },
    {
      "type": "Feature",
      "properties": {
        "municipality": "Dianópolis",
        "state": "TO",
        "crop": "Soja (em grão)",
        "hectares": 15370.0,
        "production": 15370.0,
        "year": 2023,
        "region": "Norte",
        "ibge_code": "1707009"
      },
      "geometry": {
        "type": "Point",
        "coordinates": [
          -48.53669555763056,
          -9.18391060313952
        ]
      }
    },
    {
      "type": "Feature",
      "properties": {
        "municipality": "Divinópolis do Tocantins",
        "state": "TO",
        "crop": "Soja (em grão)",
        "hectares": 21351.0,
        "production": 21351.0,
        "year": 2023,
        "region": "Norte",
        "ibge_code": "1707108"
      },
      "geometry": {
        "type": "Point",
        "coordinates": [
          -48.953451384265605,
          -11.008258957692828
        ]
      }
    },
    {
      "type": "Feature",
      "properties": {
        "municipality": "Dois Irmãos do Tocantins",
        "state": "TO",
        "crop": "Soja (em grão)",
        "hectares": 12010.0,
        "production": 12010.0,
        "year": 2023,
        "region": "Norte",
        "ibge_code": "1707207"
      },
      "geometry": {
        "type": "Point",
        "coordinates": [
          -48.395250631387306,
          -9.715305460945665
        ]
      }
    },
    {
      "type": "Feature",
      "properties": {
        "municipality": "Dueré",
        "state": "TO",
        "crop": "Soja (em grão)",
        "hectares": 5406.0,
        "production": 5406.0,
        "year": 2023,
        "region": "Norte",
        "ibge_code": "1707306"
      },
      "geometry": {
        "type": "Point",
        "coordinates": [
          -48.122987096286046,
          -9.646623405398582
        ]
      }
    },
    {
      "type": "Feature",
      "properties": {
        "municipality": "Fátima",
        "state": "TO",
        "crop": "Soja (em grão)",
        "hectares": 4316.0,
        "production": 4316.0,
        "year": 2023,
        "region": "Norte",
        "ibge_code": "1707553"
      },
      "geometry": {
        "type": "Point",
        "coordinates": [
          -49.133485527318015,
          -11.05231997292881
        ]
      }
    },
    {
      "type": "Feature",
      "properties": {
        "municipality": "Figueirópolis",
        "state": "TO",
        "crop": "Soja (em grão)",
        "hectares": 25707.0,
        "production": 25707.0,
        "year": 2023,
        "region": "Norte",
        "ibge_code": "1707652"
      },
      "geometry": {
        "type": "Point",
        "coordinates": [
          -49.218223055032276,
          -10.29490100823503
        ]
      }
    },
    {
      "type": "Feature",
      "properties": {
        "municipality": "Formoso do Araguaia",
        "state": "TO",
        "crop": "Soja (em grão)",
        "hectares": 7211.0,
        "production": 7211.0,
        "year": 2023,
        "region": "Norte",
        "ibge_code": "1708205"
      },
      "geometry": {
        "type": "Point",
        "coordinates": [
          -47.380374365022014,
          -10.189658816009631
        ]
      }
    },
    {
      "type": "Feature",
      "properties": {
        "municipality": "Tabocão",
        "state": "TO",
        "crop": "Soja (em grão)",
        "hectares": 4436.0,
        "production": 4436.0,
        "year": 2023,
        "region": "Norte",
        "ibge_code": "1708254"
      },
      "geometry": {
        "type": "Point",
        "coordinates": [
          -48.99499204847991,
          -9.954503687659388
        ]
      }
    },
    {
      "type": "Feature",
      "properties": {
        "municipality": "Goianorte",
        "state": "TO",
        "crop": "Soja (em grão)",
        "hectares": 8461.0,
        "production": 8461.0,
        "year": 2023,
        "region": "Norte",
        "ibge_code": "1708304"
      },
      "geometry": {
        "type": "Point",
        "coordinates": [
          -48.675428730780474,
          -10.367667533906612
        ]
      }
    },
    {
      "type": "Feature",
      "properties": {
        "municipality": "Goiatins",
        "state": "TO",
        "crop": "Soja (em grão)",
        "hectares": 24700.0,
        "production": 24700.0,
        "year": 2023,
        "region": "Norte",
        "ibge_code": "1709005"
      },
      "geometry": {
        "type": "Point",
        "coordinates": [
          -47.44425240796179,
          -11.074958031666888
        ]
      }
    },
    {
      "type": "Feature",
      "properties": {
        "municipality": "Guaraí",
        "state": "TO",
        "crop": "Soja (em grão)",
        "hectares": 12182.0,
        "production": 12182.0,
        "year": 2023,
        "region": "Norte",
        "ibge_code": "1709302"
      },
      "geometry": {
        "type": "Point",
        "coordinates": [
          -48.06626942584755,
          -10.878957587225832
        ]
      }
    },
    {
      "type": "Feature",
      "properties": {
        "municipality": "Gurupi",
        "state": "TO",
        "crop": "Soja (em grão)",
        "hectares": 19967.0,
        "production": 19967.0,
        "year": 2023,
        "region": "Norte",
        "ibge_code": "1709500"
      },
      "geometry": {
        "type": "Point",
        "coordinates": [
          -48.44282860193161,
          -10.179927181569804
        ]
      }
    },
    {
      "type": "Feature",
      "properties": {
        "municipality": "Ipueiras",
        "state": "TO",
        "crop": "Soja (em grão)",
        "hectares": 6642.0,
        "production": 6642.0,
        "year": 2023,
        "region": "Norte",
        "ibge_code": "1709807"
      },
      "geometry": {
        "type": "Point",
        "coordinates": [
          -47.55368223830621,
          -10.07628837618645
        ]
      }
    },
    {
      "type": "Feature",
      "properties": {
        "municipality": "Itacajá",
        "state": "TO",
        "crop": "Soja (em grão)",
        "hectares": 12800.0,
        "production": 12800.0,
        "year": 2023,
        "region": "Norte",
        "ibge_code": "1710508"
      },
      "geometry": {
        "type": "Point",
        "coordinates": [
          -48.264846367493085,
          -9.32115044890245
        ]
      }
    },
    {
      "type": "Feature",
      "properties": {
        "municipality": "Itapiratins",
        "state": "TO",
        "crop": "Soja (em grão)",
        "hectares": 14439.0,
        "production": 14439.0,
        "year": 2023,
        "region": "Norte",
        "ibge_code": "1710904"
      },
      "geometry": {
        "type": "Point",
        "coordinates": [
          -47.31321953934971,
          -9.635197304082169
        ]
      }
    },
    {
      "type": "Feature",
      "properties": {
        "municipality": "Jaú do Tocantins",
        "state": "TO",
        "crop": "Soja (em grão)",
        "hectares": 2166.0,
        "production": 2166.0,
        "year": 2023,
        "region": "Norte",
        "ibge_code": "1711506"
      },
      "geometry": {
        "type": "Point",
        "coordinates": [
          -47.40510691676177,
          -10.677097290724296
        ]
      }
    },
    {
      "type": "Feature",
      "properties": {
        "municipality": "Juarina",
        "state": "TO",
        "crop": "Soja (em grão)",
        "hectares": 1310.0,
        "production": 1310.0,
        "year": 2023,
        "region": "Norte",
        "ibge_code": "1711803"
      },
      "geometry": {
        "type": "Point",
        "coordinates": [
          -48.601154989274434,
          -10.330521822155589
        ]
      }
    },
    {
      "type": "Feature",
      "properties": {
        "municipality": "Lagoa da Confusão",
        "state": "TO",
        "crop": "Soja (em grão)",
        "hectares": 49114.0,
        "production": 49114.0,
        "year": 2023,
        "region": "Norte",
        "ibge_code": "1711902"
      },
      "geometry": {
        "type": "Point",
        "coordinates": [
          -48.819230110450654,
          -9.775209843486504
        ]
      }
    },
    {
      "type": "Feature",
      "properties": {
        "municipality": "Lagoa do Tocantins",
        "state": "TO",
        "crop": "Soja (em grão)",
        "hectares": 4000.0,
        "production": 4000.0,
        "year": 2023,
        "region": "Norte",
        "ibge_code": "1711951"
      },
      "geometry": {
        "type": "Point",
        "coordinates": [
          -47.82339924652652,
          -10.045420818123748
        ]
      }
    },
    {
      "type": "Feature",
      "properties": {
        "municipality": "Lizarda",
        "state": "TO",
        "crop": "Soja (em grão)",
        "hectares": 5030.0,
        "production": 5030.0,
        "year": 2023,
        "region": "Norte",
        "ibge_code": "1712405"
      },
      "geometry": {
        "type": "Point",
        "coordinates": [
          -48.65596633216113,
          -9.503901036490362
        ]
      }
    },
    {
      "type": "Feature",
      "properties": {
        "municipality": "Luzinópolis",
        "state": "TO",
        "crop": "Soja (em grão)",
        "hectares": 400.0,
        "production": 400.0,
        "year": 2023,
        "region": "Norte",
        "ibge_code": "1712454"
      },
      "geometry": {
        "type": "Point",
        "coordinates": [
          -48.43571028641013,
          -10.204087399578913
        ]
      }
    },
    {
      "type": "Feature",
      "properties": {
        "municipality": "Marianópolis do Tocantins",
        "state": "TO",
        "crop": "Soja (em grão)",
        "hectares": 33596.0,
        "production": 33596.0,
        "year": 2023,
        "region": "Norte",
        "ibge_code": "1712504"
      },
      "geometry": {
        "type": "Point",
        "coordinates": [
          -47.4025450258813,
          -9.2632314562215
        ]
      }
    },
    {
      "type": "Feature",
      "properties": {
        "municipality": "Mateiros",
        "state": "TO",
        "crop": "Soja (em grão)",
        "hectares": 56000.0,
        "production": 56000.0,
        "year": 2023,
        "region": "Norte",
        "ibge_code": "1712702"
      },
      "geometry": {
        "type": "Point",
        "coordinates": [
          -47.5179228935949,
          -9.941017046660095
        ]
      }
    },
    {
      "type": "Feature",
      "properties": {
        "municipality": "Miracema do Tocantins",
        "state": "TO",
        "crop": "Soja (em grão)",
        "hectares": 16258.0,
        "production": 16258.0,
        "year": 2023,
        "region": "Norte",
        "ibge_code": "1713205"
      },
      "geometry": {
        "type": "Point",
        "coordinates": [
          -48.13093391316172,
          -10.933734977993275
        ]
      }
    },
    {
      "type": "Feature",
      "properties": {
        "municipality": "Miranorte",
        "state": "TO",
        "crop": "Soja (em grão)",
        "hectares": 13200.0,
        "production": 13200.0,
        "year": 2023,
        "region": "Norte",
        "ibge_code": "1713304"
      },
      "geometry": {
        "type": "Point",
        "coordinates": [
          -48.90419542109238,
          -9.322753199456274
        ]
      }
    },
    {
      "type": "Feature",
      "properties": {
        "municipality": "Monte do Carmo",
        "state": "TO",
        "crop": "Soja (em grão)",
        "hectares": 45153.0,
        "production": 45153.0,
        "year": 2023,
        "region": "Norte",
        "ibge_code": "1713601"
      },
      "geometry": {
        "type": "Point",
        "coordinates": [
          -48.933810263237014,
          -9.752459881488756
        ]
      }
    },
    {
      "type": "Feature",
      "properties": {
        "municipality": "Monte Santo do Tocantins",
        "state": "TO",
        "crop": "Soja (em grão)",
        "hectares": 2650.0,
        "production": 2650.0,
        "year": 2023,
        "region": "Norte",
        "ibge_code": "1713700"
      },
      "geometry": {
        "type": "Point",
        "coordinates": [
          -49.039455401020646,
          -9.796592082218995
        ]
      }
    },
    {
      "type": "Feature",
      "properties": {
        "municipality": "Palmeiras do Tocantins",
        "state": "TO",
        "crop": "Soja (em grão)",
        "hectares": 300.0,
        "production": 300.0,
        "year": 2023,
        "region": "Norte",
        "ibge_code": "1713809"
      },
      "geometry": {
        "type": "Point",
        "coordinates": [
          -48.98850495100362,
          -9.18722509449667
        ]
      }
    },
    {
      "type": "Feature",
      "properties": {
        "municipality": "Muricilândia",
        "state": "TO",
        "crop": "Soja (em grão)",
        "hectares": 1236.0,
        "production": 1236.0,
        "year": 2023,
        "region": "Norte",
        "ibge_code": "1713957"
      },
      "geometry": {
        "type": "Point",
        "coordinates": [
          -48.09170664605113,
          -10.817871290844499
        ]
      }
    },
    {
      "type": "Feature",
      "properties": {
        "municipality": "Natividade",
        "state": "TO",
        "crop": "Soja (em grão)",
        "hectares": 5299.0,
        "production": 5299.0,
        "year": 2023,
        "region": "Norte",
        "ibge_code": "1714203"
      },
      "geometry": {
        "type": "Point",
        "coordinates": [
          -47.90734740478145,
          -9.336063401456396
        ]
      }
    },
    {
      "type": "Feature",
      "properties": {
        "municipality": "Nova Olinda",
        "state": "TO",
        "crop": "Soja (em grão)",
        "hectares": 550.0,
        "production": 550.0,
        "year": 2023,
        "region": "Norte",
        "ibge_code": "1714880"
      },
      "geometry": {
        "type": "Point",
        "coordinates": [
          -48.73041058307983,
          -10.290408333619416
        ]
      }
    },
    {
      "type": "Feature",
      "properties": {
        "municipality": "Nova Rosalândia",
        "state": "TO",
        "crop": "Soja (em grão)",
        "hectares": 7903.0,
        "production": 7903.0,
        "year": 2023,
        "region": "Norte",
        "ibge_code": "1715002"
      },
      "geometry": {
        "type": "Point",
        "coordinates": [
          -49.06377858646141,
          -9.70020081975363
        ]
      }
    },
    {
      "type": "Feature",
      "properties": {
        "municipality": "Novo Acordo",
        "state": "TO",
        "crop": "Soja (em grão)",
        "hectares": 7100.0,
        "production": 7100.0,
        "year": 2023,
        "region": "Norte",
        "ibge_code": "1715101"
      },
      "geometry": {
        "type": "Point",
        "coordinates": [
          -48.608780283887846,
          -9.979908429127343
        ]
      }
    },
    {
      "type": "Feature",
      "properties": {
        "municipality": "Novo Jardim",
        "state": "TO",
        "crop": "Soja (em grão)",
        "hectares": 368.0,
        "production": 368.0,
        "year": 2023,
        "region": "Norte",
        "ibge_code": "1715259"
      },
      "geometry": {
        "type": "Point",
        "coordinates": [
          -49.047093776916604,
          -10.624381072346223
        ]
      }
    },
    {
      "type": "Feature",
      "properties": {
        "municipality": "Oliveira de Fátima",
        "state": "TO",
        "crop": "Soja (em grão)",
        "hectares": 4200.0,
        "production": 4200.0,
        "year": 2023,
        "region": "Norte",
        "ibge_code": "1715507"
      },
      "geometry": {
        "type": "Point",
        "coordinates": [
          -48.53330979512253,
          -10.2857285469629
        ]
      }
    },
    {
      "type": "Feature",
      "properties": {
        "municipality": "Palmeirante",
        "state": "TO",
        "crop": "Soja (em grão)",
        "hectares": 12000.0,
        "production": 12000.0,
        "year": 2023,
        "region": "Norte",
        "ibge_code": "1715705"
      },
      "geometry": {
        "type": "Point",
        "coordinates": [
          -47.69933622086989,
          -10.377829793589667
        ]
      }
    },
    {
      "type": "Feature",
      "properties": {
        "municipality": "Palmeirópolis",
        "state": "TO",
        "crop": "Soja (em grão)",
        "hectares": 4767.0,
        "production": 4767.0,
        "year": 2023,
        "region": "Norte",
        "ibge_code": "1715754"
      },
      "geometry": {
        "type": "Point",
        "coordinates": [
          -48.973945689553034,
          -10.214178364677451
        ]
      }
    },
    {
      "type": "Feature",
      "properties": {
        "municipality": "Paraíso do Tocantins",
        "state": "TO",
        "crop": "Soja (em grão)",
        "hectares": 2911.0,
        "production": 2911.0,
        "year": 2023,
        "region": "Norte",
        "ibge_code": "1716109"
      },
      "geometry": {
        "type": "Point",
        "coordinates": [
          -48.759232614076296,
          -10.457836775664825
        ]
      }
    },
    {
      "type": "Feature",
      "properties": {
        "municipality": "Paranã",
        "state": "TO",
        "crop": "Soja (em grão)",
        "hectares": 800.0,
        "production": 800.0,
        "year": 2023,
        "region": "Norte",
        "ibge_code": "1716208"
      },
      "geometry": {
        "type": "Point",
        "coordinates": [
          -48.01679896546854,
          -11.143035235804952
        ]
      }
    },
    {
      "type": "Feature",
      "properties": {
        "municipality": "Pedro Afonso",
        "state": "TO",
        "crop": "Soja (em grão)",
        "hectares": 22488.0,
        "production": 22488.0,
        "year": 2023,
        "region": "Norte",
        "ibge_code": "1716505"
      },
      "geometry": {
        "type": "Point",
        "coordinates": [
          -47.42237577313689,
          -9.21115494044534
        ]
      }
    },
    {
      "type": "Feature",
      "properties": {
        "municipality": "Peixe",
        "state": "TO",
        "crop": "Soja (em grão)",
        "hectares": 53114.0,
        "production": 53114.0,
        "year": 2023,
        "region": "Norte",
        "ibge_code": "1716604"
      },
      "geometry": {
        "type": "Point",
        "coordinates": [
          -47.72105585722682,
          -9.282922940070236
        ]
      }
    },
    {
      "type": "Feature",
      "properties": {
        "municipality": "Pequizeiro",
        "state": "TO",
        "crop": "Soja (em grão)",
        "hectares": 1965.0,
        "production": 1965.0,
        "year": 2023,
        "region": "Norte",
        "ibge_code": "1716653"
      },
      "geometry": {
        "type": "Point",
        "coordinates": [
          -48.59074200554793,
          -9.343141229487776
        ]
      }
    },
    {
      "type": "Feature",
      "properties": {
        "municipality": "Pindorama do Tocantins",
        "state": "TO",
        "crop": "Soja (em grão)",
        "hectares": 4600.0,
        "production": 4600.0,
        "year": 2023,
        "region": "Norte",
        "ibge_code": "1717008"
      },
      "geometry": {
        "type": "Point",
        "coordinates": [
          -49.04086476217821,
          -11.09449100891515
        ]
      }
    },
    {
      "type": "Feature",
      "properties": {
        "municipality": "Piraquê",
        "state": "TO",
        "crop": "Soja (em grão)",
        "hectares": 5600.0,
        "production": 5600.0,
        "year": 2023,
        "region": "Norte",
        "ibge_code": "1717206"
      },
      "geometry": {
        "type": "Point",
        "coordinates": [
          -48.88885268001897,
          -10.045310454260933
        ]
      }
    },
    {
      "type": "Feature",
      "properties": {
        "municipality": "Pium",
        "state": "TO",
        "crop": "Soja (em grão)",
        "hectares": 35707.0,
        "production": 35707.0,
        "year": 2023,
        "region": "Norte",
        "ibge_code": "1717503"
      },
      "geometry": {
        "type": "Point",
        "coordinates": [
          -48.3591334149383,
          -10.47480366021028
        ]
      }
    },
    {
      "type": "Feature",
      "properties": {
        "municipality": "Ponte Alta do Bom Jesus",
        "state": "TO",
        "crop": "Soja (em grão)",
        "hectares": 130.0,
        "production": 130.0,
        "year": 2023,
        "region": "Norte",
        "ibge_code": "1717800"
      },
      "geometry": {
        "type": "Point",
        "coordinates": [
          -48.160058810112545,
          -10.845708821837322
        ]
      }
    },
    {
      "type": "Feature",
      "properties": {
        "municipality": "Ponte Alta do Tocantins",
        "state": "TO",
        "crop": "Soja (em grão)",
        "hectares": 302.0,
        "production": 302.0,
        "year": 2023,
        "region": "Norte",
        "ibge_code": "1717909"
      },
      "geometry": {
        "type": "Point",
        "coordinates": [
          -49.07340227783953,
          -11.15074350520405
        ]
      }
    },
    {
      "type": "Feature",
      "properties": {
        "municipality": "Porto Alegre do Tocantins",
        "state": "TO",
        "crop": "Soja (em grão)",
        "hectares": 1679.0,
        "production": 1679.0,
        "year": 2023,
        "region": "Norte",
        "ibge_code": "1718006"
      },
      "geometry": {
        "type": "Point",
        "coordinates": [
          -49.23782489693842,
          -10.140658200986552
        ]
      }
    },
    {
      "type": "Feature",
      "properties": {
        "municipality": "Porto Nacional",
        "state": "TO",
        "crop": "Soja (em grão)",
        "hectares": 68259.0,
        "production": 68259.0,
        "year": 2023,
        "region": "Norte",
        "ibge_code": "1718204"
      },
      "geometry": {
        "type": "Point",
        "coordinates": [
          -47.396932870873115,
          -10.9946202914613
        ]
      }
    },
    {
      "type": "Feature",
      "properties": {
        "municipality": "Pugmil",
        "state": "TO",
        "crop": "Soja (em grão)",
        "hectares": 4929.0,
        "production": 4929.0,
        "year": 2023,
        "region": "Norte",
        "ibge_code": "1718451"
      },
      "geometry": {
        "type": "Point",
        "coordinates": [
          -49.047093776916604,
          -10.624381072346223
        ]
      }
    },
    {
      "type": "Feature",
      "properties": {
        "municipality": "Rio da Conceição",
        "state": "TO",
        "crop": "Soja (em grão)",
        "hectares": 1750.0,
        "production": 1750.0,
        "year": 2023,
        "region": "Norte",
        "ibge_code": "1718659"
      },
      "geometry": {
        "type": "Point",
        "coordinates": [
          -47.46092617816014,
          -10.819425537533519
        ]
      }
    },
    {
      "type": "Feature",
      "properties": {
        "municipality": "Rio dos Bois",
        "state": "TO",
        "crop": "Soja (em grão)",
        "hectares": 6010.0,
        "production": 6010.0,
        "year": 2023,
        "region": "Norte",
        "ibge_code": "1718709"
      },
      "geometry": {
        "type": "Point",
        "coordinates": [
          -48.344106809977205,
          -10.08057087733267
        ]
      }
    },
    {
      "type": "Feature",
      "properties": {
        "municipality": "Rio Sono",
        "state": "TO",
        "crop": "Soja (em grão)",
        "hectares": 9179.0,
        "production": 9179.0,
        "year": 2023,
        "region": "Norte",
        "ibge_code": "1718758"
      },
      "geometry": {
        "type": "Point",
        "coordinates": [
          -49.106525383046396,
          -9.806818095175853
        ]
      }
    },
    {
      "type": "Feature",
      "properties": {
        "municipality": "Sandolândia",
        "state": "TO",
        "crop": "Soja (em grão)",
        "hectares": 1350.0,
        "production": 1350.0,
        "year": 2023,
        "region": "Norte",
        "ibge_code": "1718840"
      },
      "geometry": {
        "type": "Point",
        "coordinates": [
          -47.8024585745632,
          -10.168664598433935
        ]
      }
    },
    {
      "type": "Feature",
      "properties": {
        "municipality": "Santa Fé do Araguaia",
        "state": "TO",
        "crop": "Soja (em grão)",
        "hectares": 11735.0,
        "production": 11735.0,
        "year": 2023,
        "region": "Norte",
        "ibge_code": "1718865"
      },
      "geometry": {
        "type": "Point",
        "coordinates": [
          -47.81483112964595,
          -10.848145490766612
        ]
      }
    },
    {
      "type": "Feature",
      "properties": {
        "municipality": "Santa Maria do Tocantins",
        "state": "TO",
        "crop": "Soja (em grão)",
        "hectares": 13787.0,
        "production": 13787.0,
        "year": 2023,
        "region": "Norte",
        "ibge_code": "1718881"
      },
      "geometry": {
        "type": "Point",
        "coordinates": [
          -48.64700089133465,
          -11.041095482481193
        ]
      }
    },
    {
      "type": "Feature",
      "properties": {
        "municipality": "Santa Rita do Tocantins",
        "state": "TO",
        "crop": "Soja (em grão)",
        "hectares": 22856.0,
        "production": 22856.0,
        "year": 2023,
        "region": "Norte",
        "ibge_code": "1718899"
      },
      "geometry": {
        "type": "Point",
        "coordinates": [
          -47.55925548728085,
          -10.131317006406643
        ]
      }
    },
    {
      "type": "Feature",
      "properties": {
        "municipality": "Santa Rosa do Tocantins",
        "state": "TO",
        "crop": "Soja (em grão)",
        "hectares": 37500.0,
        "production": 37500.0,
        "year": 2023,
        "region": "Norte",
        "ibge_code": "1718907"
      },
      "geometry": {
        "type": "Point",
        "coordinates": [
          -48.24056843632649,
          -10.109790489110813
        ]
      }
    },
    {
      "type": "Feature",
      "properties": {
        "municipality": "São Salvador do Tocantins",
        "state": "TO",
        "crop": "Soja (em grão)",
        "hectares": 250.0,
        "production": 250.0,
        "year": 2023,
        "region": "Norte",
        "ibge_code": "1720259"
      },
      "geometry": {
        "type": "Point",
        "coordinates": [
          -48.44282860193161,
          -10.179927181569804
        ]
      }
    },
    {
      "type": "Feature",
      "properties": {
        "municipality": "São Valério",
        "state": "TO",
        "crop": "Soja (em grão)",
        "hectares": 21609.0,
        "production": 21609.0,
        "year": 2023,
        "region": "Norte",
        "ibge_code": "1720499"
      },
      "geometry": {
        "type": "Point",
        "coordinates": [
          -47.66693127393497,
          -10.91425954019866
        ]
      }
    },
    {
      "type": "Feature",
      "properties": {
        "municipality": "Silvanópolis",
        "state": "TO",
        "crop": "Soja (em grão)",
        "hectares": 21000.0,
        "production": 21000.0,
        "year": 2023,
        "region": "Norte",
        "ibge_code": "1720655"
      },
      "geometry": {
        "type": "Point",
        "coordinates": [
          -49.12488091848784,
          -10.747538114508584
        ]
      }
    },
    {
      "type": "Feature",
      "properties": {
        "municipality": "Sucupira",
        "state": "TO",
        "crop": "Soja (em grão)",
        "hectares": 21565.0,
        "production": 21565.0,
        "year": 2023,
        "region": "Norte",
        "ibge_code": "1720853"
      },
      "geometry": {
        "type": "Point",
        "coordinates": [
          -49.10242554408982,
          -10.69342899764301
        ]
      }
    },
    {
      "type": "Feature",
      "properties": {
        "municipality": "Taguatinga",
        "state": "TO",
        "crop": "Soja (em grão)",
        "hectares": 300.0,
        "production": 300.0,
        "year": 2023,
        "region": "Norte",
        "ibge_code": "1720903"
      },
      "geometry": {
        "type": "Point",
        "coordinates": [
          -48.25237047269042,
          -9.458741428066382
        ]
      }
    },
    {
      "type": "Feature",
      "properties": {
        "municipality": "Talismã",
        "state": "TO",
        "crop": "Soja (em grão)",
        "hectares": 13372.0,
        "production": 13372.0,
        "year": 2023,
        "region": "Norte",
        "ibge_code": "1720978"
      },
      "geometry": {
        "type": "Point",
        "coordinates": [
          -47.61415099117262,
          -9.538138493599266
        ]
      }
    },
    {
      "type": "Feature",
      "properties": {
        "municipality": "Palmas",
        "state": "TO",
        "crop": "Soja (em grão)",
        "hectares": 13455.0,
        "production": 13455.0,
        "year": 2023,
        "region": "Norte",
        "ibge_code": "1721000"
      },
      "geometry": {
        "type": "Point",
        "coordinates": [
          -47.360592477088275,
          -11.111985051915306
        ]
      }
    },
    {
      "type": "Feature",
      "properties": {
        "municipality": "Tocantínia",
        "state": "TO",
        "crop": "Soja (em grão)",
        "hectares": 2988.0,
        "production": 2988.0,
        "year": 2023,
        "region": "Norte",
        "ibge_code": "1721109"
      },
      "geometry": {
        "type": "Point",
        "coordinates": [
          -49.218223055032276,
          -10.29490100823503
        ]
      }
    },
    {
      "type": "Feature",
      "properties": {
        "municipality": "Tupirama",
        "state": "TO",
        "crop": "Soja (em grão)",
        "hectares": 10348.0,
        "production": 10348.0,
        "year": 2023,
        "region": "Norte",
        "ibge_code": "1721257"
      },
      "geometry": {
        "type": "Point",
        "coordinates": [
          -49.16446312361242,
          -10.788637046939758
        ]
      }
    },
    {
      "type": "Feature",
      "properties": {
        "municipality": "Tupiratins",
        "state": "TO",
        "crop": "Soja (em grão)",
        "hectares": 1627.0,
        "production": 1627.0,
        "year": 2023,
        "region": "Norte",
        "ibge_code": "1721307"
      },
      "geometry": {
        "type": "Point",
        "coordinates": [
          -48.65762361734619,
          -10.920255739253061
        ]
      }
    },
    {
      "type": "Feature",
      "properties": {
        "municipality": "Wanderlândia",
        "state": "TO",
        "crop": "Soja (em grão)",
        "hectares": 1814.0,
        "production": 1814.0,
        "year": 2023,
        "region": "Norte",
        "ibge_code": "1722081"
      },
      "geometry": {
        "type": "Point",
        "coordinates": [
          -49.177388419406064,
          -9.210545850479742
        ]
      }
    },
    {
      "type": "Feature",
      "properties": {
        "municipality": "Xambioá",
        "state": "TO",
        "crop": "Soja (em grão)",
        "hectares": 600.0,
        "production": 600.0,
        "year": 2023,
        "region": "Norte",
        "ibge_code": "1722107"
      },
      "geometry": {
        "type": "Point",
        "coordinates": [
          -49.05269112101159,
          -9.98627829524863
        ]
      }
    },
    {
      "type": "Feature",
      "properties": {
        "municipality": "Açailândia",
        "state": "MA",
        "crop": "Soja (em grão)",
        "hectares": 71700.0,
        "production": 71700.0,
        "year": 2023,
        "region": "Nordeste",
        "ibge_code": "2100055"
      },
      "geometry": {
        "type": "Point",
        "coordinates": [
          -45.48886088406008,
          -4.731406210845574
        ]
      }
    },
    {
      "type": "Feature",
      "properties": {
        "municipality": "Afonso Cunha",
        "state": "MA",
        "crop": "Soja (em grão)",
        "hectares": 8030.0,
        "production": 8030.0,
        "year": 2023,
        "region": "Nordeste",
        "ibge_code": "2100105"
      },
      "geometry": {
        "type": "Point",
        "coordinates": [
          -45.175419184435526,
          -5.881774047219933
        ]
      }
    },
    {
      "type": "Feature",
      "properties": {
        "municipality": "Aldeias Altas",
        "state": "MA",
        "crop": "Soja (em grão)",
        "hectares": 8949.0,
        "production": 8949.0,
        "year": 2023,
        "region": "Nordeste",
        "ibge_code": "2100303"
      },
      "geometry": {
        "type": "Point",
        "coordinates": [
          -44.577155901251714,
          -5.181816390524874
        ]
      }
    },
    {
      "type": "Feature",
      "properties": {
        "municipality": "Alto Alegre do Pindaré",
        "state": "MA",
        "crop": "Soja (em grão)",
        "hectares": 700.0,
        "production": 700.0,
        "year": 2023,
        "region": "Nordeste",
        "ibge_code": "2100477"
      },
      "geometry": {
        "type": "Point",
        "coordinates": [
          -44.699891796067554,
          -5.1400144705540285
        ]
      }
    },
    {
      "type": "Feature",
      "properties": {
        "municipality": "Alto Parnaíba",
        "state": "MA",
        "crop": "Soja (em grão)",
        "hectares": 56402.0,
        "production": 56402.0,
        "year": 2023,
        "region": "Nordeste",
        "ibge_code": "2100501"
      },
      "geometry": {
        "type": "Point",
        "coordinates": [
          -44.459415144839305,
          -4.388906131757766
        ]
      }
    },
    {
      "type": "Feature",
      "properties": {
        "municipality": "Amarante do Maranhão",
        "state": "MA",
        "crop": "Soja (em grão)",
        "hectares": 750.0,
        "production": 750.0,
        "year": 2023,
        "region": "Nordeste",
        "ibge_code": "2100600"
      },
      "geometry": {
        "type": "Point",
        "coordinates": [
          -46.038444911454214,
          -5.400148140915154
        ]
      }
    },
    {
      "type": "Feature",
      "properties": {
        "municipality": "Anapurus",
        "state": "MA",
        "crop": "Soja (em grão)",
        "hectares": 7700.0,
        "production": 7700.0,
        "year": 2023,
        "region": "Nordeste",
        "ibge_code": "2100808"
      },
      "geometry": {
        "type": "Point",
        "coordinates": [
          -45.580354652464266,
          -4.592738480446275
        ]
      }
    },
    {
      "type": "Feature",
      "properties": {
        "municipality": "Balsas",
        "state": "MA",
        "crop": "Soja (em grão)",
        "hectares": 200579.0,
        "production": 200579.0,
        "year": 2023,
        "region": "Nordeste",
        "ibge_code": "2101400"
      },
      "geometry": {
        "type": "Point",
        "coordinates": [
          -44.90887433521904,
          -4.156667585492958
        ]
      }
    },
    {
      "type": "Feature",
      "properties": {
        "municipality": "Barra do Corda",
        "state": "MA",
        "crop": "Soja (em grão)",
        "hectares": 10100.0,
        "production": 10100.0,
        "year": 2023,
        "region": "Nordeste",
        "ibge_code": "2101608"
      },
      "geometry": {
        "type": "Point",
        "coordinates": [
          -45.294605348977086,
          -5.6714588947326625
        ]
      }
    },
    {
      "type": "Feature",
      "properties": {
        "municipality": "Benedito Leite",
        "state": "MA",
        "crop": "Soja (em grão)",
        "hectares": 6250.0,
        "production": 6250.0,
        "year": 2023,
        "region": "Nordeste",
        "ibge_code": "2101806"
      },
      "geometry": {
        "type": "Point",
        "coordinates": [
          -44.30641923531873,
          -4.820320483579453
        ]
      }
    },
    {
      "type": "Feature",
      "properties": {
        "municipality": "Bom Jardim",
        "state": "MA",
        "crop": "Soja (em grão)",
        "hectares": 15100.0,
        "production": 15100.0,
        "year": 2023,
        "region": "Nordeste",
        "ibge_code": "2102002"
      },
      "geometry": {
        "type": "Point",
        "coordinates": [
          -44.97447402771335,
          -5.232137664628209
        ]
      }
    },
    {
      "type": "Feature",
      "properties": {
        "municipality": "Bom Jesus das Selvas",
        "state": "MA",
        "crop": "Soja (em grão)",
        "hectares": 3454.0,
        "production": 3454.0,
        "year": 2023,
        "region": "Nordeste",
        "ibge_code": "2102036"
      },
      "geometry": {
        "type": "Point",
        "coordinates": [
          -46.09709458556629,
          -4.826136422633442
        ]
      }
    },
    {
      "type": "Feature",
      "properties": {
        "municipality": "Brejo",
        "state": "MA",
        "crop": "Soja (em grão)",
        "hectares": 16200.0,
        "production": 16200.0,
        "year": 2023,
        "region": "Nordeste",
        "ibge_code": "2102101"
      },
      "geometry": {
        "type": "Point",
        "coordinates": [
          -44.50434570129768,
          -5.698258798620354
        ]
      }
    },
    {
      "type": "Feature",
      "properties": {
        "municipality": "Buriti",
        "state": "MA",
        "crop": "Soja (em grão)",
        "hectares": 13750.0,
        "production": 13750.0,
        "year": 2023,
        "region": "Nordeste",
        "ibge_code": "2102200"
      },
      "geometry": {
        "type": "Point",
        "coordinates": [
          -46.24195859320785,
          -4.407043602998687
        ]
      }
    },
    {
      "type": "Feature",
      "properties": {
        "municipality": "Buriti Bravo",
        "state": "MA",
        "crop": "Soja (em grão)",
        "hectares": 11000.0,
        "production": 11000.0,
        "year": 2023,
        "region": "Nordeste",
        "ibge_code": "2102309"
      },
      "geometry": {
        "type": "Point",
        "coordinates": [
          -46.23174237432208,
          -4.171544541296376
        ]
      }
    },
    {
      "type": "Feature",
      "properties": {
        "municipality": "Buriticupu",
        "state": "MA",
        "crop": "Soja (em grão)",
        "hectares": 35000.0,
        "production": 35000.0,
        "year": 2023,
        "region": "Nordeste",
        "ibge_code": "2102325"
      },
      "geometry": {
        "type": "Point",
        "coordinates": [
          -44.576272943556724,
          -5.175203231724526
        ]
      }
    },
    {
      "type": "Feature",
      "properties": {
        "municipality": "Campestre do Maranhão",
        "state": "MA",
        "crop": "Soja (em grão)",
        "hectares": 100.0,
        "production": 100.0,
        "year": 2023,
        "region": "Nordeste",
        "ibge_code": "2102556"
      },
      "geometry": {
        "type": "Point",
        "coordinates": [
          -45.502074563253714,
          -5.95277466156481
        ]
      }
    },
    {
      "type": "Feature",
      "properties": {
        "municipality": "Carolina",
        "state": "MA",
        "crop": "Soja (em grão)",
        "hectares": 26570.0,
        "production": 26570.0,
        "year": 2023,
        "region": "Nordeste",
        "ibge_code": "2102804"
      },
      "geometry": {
        "type": "Point",
        "coordinates": [
          -45.15074789366699,
          -4.397783407765125
        ]
      }
    },
    {
      "type": "Feature",
      "properties": {
        "municipality": "Caxias",
        "state": "MA",
        "crop": "Soja (em grão)",
        "hectares": 12914.0,
        "production": 12914.0,
        "year": 2023,
        "region": "Nordeste",
        "ibge_code": "2103000"
      },
      "geometry": {
        "type": "Point",
        "coordinates": [
          -45.96811384552595,
          -5.484575625354871
        ]
      }
    },
    {
      "type": "Feature",
      "properties": {
        "municipality": "Chapadinha",
        "state": "MA",
        "crop": "Soja (em grão)",
        "hectares": 4700.0,
        "production": 4700.0,
        "year": 2023,
        "region": "Nordeste",
        "ibge_code": "2103208"
      },
      "geometry": {
        "type": "Point",
        "coordinates": [
          -45.0107634693573,
          -4.887453947721889
        ]
      }
    },